hotel_name,city,state,address,star_rating,price_per_night,price_range,latitude,longitude,amenities,hotel_type,phone_number,email,website,booking_url,guest_rating,review_count,description,check_in_time,check_out_time,room_types,data_source
Gangothri Residency,Bangalore,Karnataka,Outer Ring Road,,,,12.9212938,77.6635656,"Free WiFi, Air Conditioning, 24/7 Front Desk",Budget,+91-6162-195214,info@gangothri.com,https://www.gangothriresid.com,,4.0,429,,14:00,12:00,"Standard Room, Deluxe Room",OpenStreetMap
Ringview Residency,Bangalore,Karnataka,Outer Ring Road,,,,12.9214046,77.6639051,"Free WiFi, Air Conditioning, 24/7 Front Desk",Budget,+91-6068-654217,info@ringviewr.com,https://www.ringviewreside.com,,4.0,338,,14:00,12:00,"Standard Room, Deluxe Room",OpenStreetMap
Canara Bank Holiday Home,Bangalore,Karnataka,2nd Main Road,,,,12.9316521,77.5907098,"Free WiFi, Air Conditioning, 24/7 Front Desk",Budget,+91-9301-599548,info@canaraban.com,https://www.canarabankhol.com,,3.2,310,,14:00,12:00,"Standard Room, Deluxe Room",OpenStreetMap
Hotel Hindustan,Bangalore,Karnataka,,,,,12.9762752,77.5767096,"Free WiFi, Air Conditioning, 24/7 Front Desk",Budget,+91-9200-313156,info@hotelhind.com,https://www.hotelhindustan.com,,3.6,463,,14:00,12:00,"Standard Room, Deluxe Room",OpenStreetMap
Hotel Anand Regency,Bangalore,Karnataka,"10, 2nd Cross, 6th Main Road, Gandhi Nagar, Bangalore",,,,12.9769025,77.5763491,"Free WiFi, Air Conditioning, 24/7 Front Desk",Budget,+91-80-41139572,info@hotelanan.com,https://www.hotelanandreg.com,,3.8,414,,14:00,12:00,"Standard Room, Deluxe Room",OpenStreetMap
Sri Krishna Lodge,Bangalore,Karnataka,Sampige Road,,,,12.9932258,77.5717309,"Free WiFi, Air Conditioning, 24/7 Front Desk",Budget,+91-6429-942625,info@srikrishn.com,https://www.srikrishnalod.com,,3.5,165,,14:00,12:00,"Standard Room, Deluxe Room",OpenStreetMap
The Capitol,Bangalore,Karnataka,"Raj Bhavan Road, Bangalore",,,,12.9822391,77.594459,"Free WiFi, Air Conditioning, 24/7 Front Desk",Budget,+91-9130-232111,info@thecapito.com,https://www.thecapitol.com,,4.1,200,,14:00,12:00,"Standard Room, Deluxe Room",OpenStreetMap
Legislatures' Home,Bangalore,Karnataka,,,,,12.983448,77.5899594,"Free WiFi, Air Conditioning, 24/7 Front Desk",Budget,+91-7773-231675,info@legislatur.com,https://www.legislaturesh.com,,3.4,471,,14:00,12:00,"Standard Room, Deluxe Room",OpenStreetMap
The Infantry Hotel,Bangalore,Karnataka,"66, Infantry Road, Bangalore",,,,12.980445,77.604525,Internet,Budget,+918025591800,enquiry@theinfantryhotel.com,http://www.hotelinfantrycourt.com,,3.7,477,,14:00,12:00,"Standard Room, Deluxe Room",OpenStreetMap
Hotel Maurya,Bangalore,Karnataka,"22/4, Race Course Road, Gandhi Nagar, Bangalore",,,,12.980921,77.576491,"Free WiFi, Air Conditioning, 24/7 Front Desk",Budget,+91-80-22254111,reservations@hotelmaurya.com,https://www.hotelmaurya.com/,,3.6,228,,14:00,12:00,"Standard Room, Deluxe Room",OpenStreetMap
Hotel Swathi,Bangalore,Karnataka,"1, Railway Platform Road, Seshadripuram, Bangalore",,,,12.989096,77.572253,"Free WiFi, Air Conditioning, 24/7 Front Desk",Budget,+91-80-23561123,info@hotelswat.com,https://www.hotelswathi.com,,3.7,407,,14:00,12:00,"Standard Room, Deluxe Room",OpenStreetMap
Nalapad's Hotel Bangalore International,Bangalore,Karnataka,"2A-2B, Crescent Road, High Ground, Bangalore",3,,,12.9850452,77.579248,Internet,Budget,+91-6515-373016,reservation@nalapadhotels.net,http://www.nalapad.com,,3.8,409,,14:00,12:00,"Standard Room, Deluxe Room",OpenStreetMap
Sudha Lodge,Bangalore,Karnataka,"6, Cottonpet Main Road, Chickpet, Bangalore",,,,12.9727609,77.5701982,"Free WiFi, Air Conditioning, 24/7 Front Desk",Budget,+91-80-26705420,info@sudhalodg.com,https://www.sudhalodge.com,,3.7,477,,14:00,12:00,"Standard Room, Deluxe Room",OpenStreetMap
Radha Krishna Delux Lodge,Bangalore,Karnataka,"13, Cottonpete Main Road",,,,12.9717886,77.5705791,"Free WiFi, Air Conditioning, 24/7 Front Desk",Budget,+91-9903-692469,info@radhakris.com,https://www.radhakrishnad.com,,3.8,80,,14:00,12:00,"Standard Room, Deluxe Room",OpenStreetMap
Hotel Mahaveer,Bangalore,Karnataka,"Tank Bund Road, Bangalore",,,,12.974344,77.5712299,"Free WiFi, Air Conditioning, 24/7 Front Desk",Budget,+91-8852-585074,info@hotelmaha.com,https://www.hotelmahaveer.com,,3.2,211,,14:00,12:00,"Standard Room, Deluxe Room",OpenStreetMap
Hotel Ganga Sagar,Bangalore,Karnataka,"3, Bangalore",,,,12.944337,77.620028,"Free WiFi, Air Conditioning, 24/7 Front Desk",Budget,+91-80-25704880,info@hotelgang.com,https://www.hotelgangasag.com,,3.4,121,,14:00,12:00,"Standard Room, Deluxe Room",OpenStreetMap
MGM Mark,Bangalore,Karnataka,"23, EPIP Zone, Whitefield, Bangalore",,,,12.971672,77.7175701,"Free WiFi, Air Conditioning, 24/7 Front Desk",Budget,+91-80-41985555,info@themarkboulevard.com,https://www.mgm-hotels.com/mgm-mark-whitefield-bangalore/,,3.9,420,,14:00,12:00,"Standard Room, Deluxe Room",OpenStreetMap
CYCD,Bangalore,Karnataka,,,,,12.967339,77.5427777,"Free WiFi, Air Conditioning, 24/7 Front Desk",Budget,+91-9092-260327,info@cycd.com,https://www.cycd.com,,3.6,444,,14:00,12:00,"Standard Room, Deluxe Room",OpenStreetMap
Stamford Residency,Bangalore,Karnataka,"538, ITPL Main Road, B Block, AECS Layout",,,,12.9648741,77.7161185,"Free WiFi, Air Conditioning, 24/7 Front Desk",Budget,+91-7496-366081,info@stamfordr.com,stamfordresidency.com,,3.2,39,,14:00,12:00,"Standard Room, Deluxe Room",OpenStreetMap
Maple's,Bangalore,Karnataka,,,,,12.9353574,77.6293981,"Free WiFi, Air Conditioning, 24/7 Front Desk",Budget,+91-9456-144610,info@maples.com,https://www.maples.com,,4.2,273,,14:00,12:00,"Standard Room, Deluxe Room",OpenStreetMap
Hotel Verdisso Suites,Bangalore,Karnataka,"Outer Ring Road, Marathahalli, Bangalore",,,,12.9505253,77.6992384,"Free WiFi, Air Conditioning, 24/7 Front Desk",Budget,+91-8764-245530,info@hotelverd.com,https://www.hotelverdisso.com,,3.8,236,,14:00,12:00,"Standard Room, Deluxe Room",OpenStreetMap
Hotel Ramada,Bangalore,Karnataka,,,,,12.984215,77.6005578,"Free WiFi, Air Conditioning, 24/7 Front Desk",Budget,+91-8331-991187,info@hotelrama.com,https://www.hotelramada.com,,3.2,351,,14:00,12:00,"Standard Room, Deluxe Room",OpenStreetMap
Fortune Park JP Celestial Hotel,Bangalore,Karnataka,"5/43, Race Course Road, Bangalore",,,,12.980883,77.575992,Internet,Budget,+91-80-40441234; +91-80-39884433,jpcelestial@fortunehotels.in,https://www.fortunehotels.in/,,3.6,404,,14:00,12:00,"Standard Room, Deluxe Room",OpenStreetMap
Terminus,Bangalore,Karnataka,,,,,12.9342871,77.6161496,"Free WiFi, Air Conditioning, 24/7 Front Desk",Budget,+91-7350-481664,info@terminus.com,https://www.terminus.com,,3.2,298,,14:00,12:00,"Standard Room, Deluxe Room",OpenStreetMap
Blue Petal Business Hotel,Bangalore,Karnataka,,,,,12.9335142,77.6151725,"Free WiFi, Air Conditioning, 24/7 Front Desk, Business Center, Meeting Rooms, Gym",Business,+91-6729-444382,info@bluepetal.com,https://www.bluepetalbusi.com,,4.3,31,,14:00,12:00,"Standard Room, Deluxe Room, Suite, Executive Room",OpenStreetMap
HMT Guest House,Bangalore,Karnataka,,,,,13.0541469,77.549106,"Free WiFi, Air Conditioning, 24/7 Front Desk",Budget,+91-6131-745499,info@hmtguest.com,https://www.hmtguesthouse.com,,3.7,133,,14:00,12:00,"Standard Room, Deluxe Room",OpenStreetMap
BEL Guest House,Bangalore,Karnataka,,,,,13.0535251,77.5571463,"Free WiFi, Air Conditioning, 24/7 Front Desk",Budget,+91-6325-882078,info@belguest.com,https://www.belguesthouse.com,,3.4,369,,14:00,12:00,"Standard Room, Deluxe Room",OpenStreetMap
Century,Bangalore,Karnataka,,,,,12.9671321,77.6822005,"Free WiFi, Air Conditioning, 24/7 Front Desk",Budget,+91-9890-812580,info@century.com,https://www.century.com,,3.7,449,,14:00,12:00,"Standard Room, Deluxe Room",OpenStreetMap
4 Seasons Suites,Bangalore,Karnataka,"95, 5th Cross Road 60 FEET ROAD, Bangalore",,,,12.9372193,77.619574,"Internet, Air Conditioning",Budget,+91-6134-413005,4SEASONSSUITES@GMAIL.COM,https://4SEASONSSSUITES.IN,,3.7,241,,14:00,12:00,"Standard Room, Deluxe Room",OpenStreetMap
Casa De Bengaluru,Bangalore,Karnataka,"17th E Main, Bangalore",,,,12.9363256,77.6222355,"Free WiFi, Air Conditioning, 24/7 Front Desk",Budget,+91-7459-149138,info@casadebe.com,https://www.casadebengalu.com,,3.8,358,,14:00,12:00,"Standard Room, Deluxe Room",OpenStreetMap
Royal Comforts,Bangalore,Karnataka,Hosur road,,,,12.9262515,77.6168174,"Free WiFi, Air Conditioning, 24/7 Front Desk",Budget,+91-6770-277512,info@royalcomf.com,https://www.royalcomforts.com,,3.6,54,,14:00,12:00,"Standard Room, Deluxe Room",OpenStreetMap
Woodstock,Bangalore,Karnataka,,,,,12.874318,77.647308,"Free WiFi, Air Conditioning, 24/7 Front Desk",Budget,+91-7385-627433,info@woodstock.com,https://www.woodstock.com,,3.5,439,,14:00,12:00,"Standard Room, Deluxe Room",OpenStreetMap
Shilton Royale,Bangalore,Karnataka,,,,,12.938785,77.6300973,"Free WiFi, Air Conditioning, 24/7 Front Desk",Budget,+91-6656-424364,info@shiltonro.com,https://www.shiltonroyale.com,,4.2,424,,14:00,12:00,"Standard Room, Deluxe Room",OpenStreetMap
CHef Inn Residency,Bangalore,Karnataka,,,,,12.9383855,77.6310907,"Free WiFi, Air Conditioning, 24/7 Front Desk",Budget,+91-9798-370185,info@chefinnr.com,https://www.chefinnreside.com,,3.3,380,,14:00,12:00,"Standard Room, Deluxe Room",OpenStreetMap
Pai Vijay,Bangalore,Karnataka,,,,,12.9264034,77.5858296,"Free WiFi, Air Conditioning, 24/7 Front Desk",Budget,+91-7606-947573,info@paivijay.com,https://www.paivijay.com,,4.1,192,,14:00,12:00,"Standard Room, Deluxe Room",OpenStreetMap
Libra,Bangalore,Karnataka,Hosur road,,,,12.9353977,77.6090855,"Free WiFi, Air Conditioning, 24/7 Front Desk",Budget,+91-8705-232005,info@libra.com,https://www.libra.com,,4.1,127,,14:00,12:00,"Standard Room, Deluxe Room",OpenStreetMap
Hotel Mayflower,Bangalore,Karnataka,,,,,12.9478373,77.5970782,"Free WiFi, Air Conditioning, 24/7 Front Desk",Budget,+91-7915-539634,info@hotelmayf.com,https://www.hotelmayflower.com,,4.1,318,,14:00,12:00,"Standard Room, Deluxe Room",OpenStreetMap
Akshara Regency,Bangalore,Karnataka,,,,,13.0300838,77.5593527,"Free WiFi, Air Conditioning, 24/7 Front Desk",Budget,+91 80 41497575,info@aksharare.com,https://www.akshararegency.com,,4.2,432,,14:00,12:00,"Standard Room, Deluxe Room",OpenStreetMap
Lords Plaza,Bangalore,Karnataka,,,,,12.8452479,77.6653173,"Free WiFi, Air Conditioning, 24/7 Front Desk",Budget,+91-7443-897827,info@lordsplaz.com,https://www.lordshotels.com/,,3.9,325,,14:00,12:00,"Standard Room, Deluxe Room",OpenStreetMap
Golden Residency,Bangalore,Karnataka,Beṅgaḷūru,,,,12.9780729,77.579383,"Free WiFi, Air Conditioning, 24/7 Front Desk",Budget,+91 80 4147 6435,goldenresidency@gmail.com,https://www.goldenresidenc.com,,4.0,415,,14:00,12:00,"Standard Room, Deluxe Room",OpenStreetMap
Hotel Kanthi Comforts,Bangalore,Karnataka,,,,,12.9775086,77.5793777,"Free WiFi, Air Conditioning, 24/7 Front Desk",Budget,+91-9282-210487,info@hotelkant.com,https://www.hotelkanthico.com,,3.7,45,,14:00,12:00,"Standard Room, Deluxe Room",OpenStreetMap
Royal Habitat,Bangalore,Karnataka,,,,,12.9649841,77.6404672,"Free WiFi, Air Conditioning, 24/7 Front Desk",Budget,+91-8632-994798,info@royalhabi.com,https://www.royalhabitat.com,,3.3,284,,14:00,12:00,"Standard Room, Deluxe Room",OpenStreetMap
Hotel Geo,Bangalore,Karnataka,,,,,12.9656255,77.5895554,"Free WiFi, Air Conditioning, 24/7 Front Desk",Budget,+91-7712-437950,info@hotelgeo.com,https://www.hotelgeo.com,,3.4,163,,14:00,12:00,"Standard Room, Deluxe Room",OpenStreetMap
Prakash Cafe & Lodge,Bangalore,Karnataka,,,,,12.9604081,77.5709546,"Free WiFi, Air Conditioning, 24/7 Front Desk",Budget,+91-8466-763101,info@prakashca.com,https://www.prakashcafe.com,,4.1,218,,14:00,12:00,"Standard Room, Deluxe Room",OpenStreetMap
Hotel Madhuvan,Bangalore,Karnataka,Pampa Mahakavi Road,,,,12.9608286,77.571561,"Free WiFi, Air Conditioning, 24/7 Front Desk",Budget,+91-9694-905563,info@hotelmadh.com,https://www.hotelmadhuvan.com,,4.2,327,,14:00,12:00,"Standard Room, Deluxe Room",OpenStreetMap
Villa Lavelle,Bangalore,Karnataka,,,,,12.9684323,77.5964096,"Free WiFi, Air Conditioning, 24/7 Front Desk",Budget,+91-8375-870412,info@villalave.com,https://www.villalavelle.com,,3.2,188,,14:00,12:00,"Standard Room, Deluxe Room",OpenStreetMap
Ramakrishna Lodge,Bangalore,Karnataka,,,,,12.9717723,77.5729725,"Free WiFi, Air Conditioning, 24/7 Front Desk",Budget,+91-9494-107416,info@ramakrishn.com,https://www.ramakrishnalod.com,,3.9,276,,14:00,12:00,"Standard Room, Deluxe Room",OpenStreetMap
The Lark,Bangalore,Karnataka,,,,,12.8216944,77.6870991,"Free WiFi, Air Conditioning, 24/7 Front Desk",Budget,+91-8079-197679,info@thelark.com,https://www.thelark.com,,3.9,416,,14:00,12:00,"Standard Room, Deluxe Room",OpenStreetMap
Confident Propos,Bangalore,Karnataka,,,,,12.9560897,77.6055497,"Free WiFi, Air Conditioning, 24/7 Front Desk",Budget,+91-8106-731830,info@confident.com,https://www.confidentpropo.com,,3.9,245,,14:00,12:00,"Standard Room, Deluxe Room",OpenStreetMap
Emilion HHI Select,Bangalore,Karnataka,,,,,12.9066302,77.592944,"Free WiFi, Air Conditioning, 24/7 Front Desk",Budget,+91-9325-846310,info@emilionhh.com,https://www.emilionhhisel.com,,3.6,190,,14:00,12:00,"Standard Room, Deluxe Room",OpenStreetMap
Hotel Tourist,Bangalore,Karnataka,,,,,12.9813835,77.5753478,"Free WiFi, Air Conditioning, 24/7 Front Desk",Budget,+91-8329-494927,info@hoteltour.com,https://www.hoteltourist.com,,3.9,125,,14:00,12:00,"Standard Room, Deluxe Room",OpenStreetMap
Hotel City Centaur International,Bangalore,Karnataka,"Gubbi Thotadappa Road, Bangalore",,,,12.9750295,77.5703109,"Free WiFi, Air Conditioning, 24/7 Front Desk",Budget,+91-80-41419191,resv@hotelcitycentaur.com,https://www.hotelcitycentaur.com/index.html,,4.1,452,,14:00,12:00,"Standard Room, Deluxe Room",OpenStreetMap
Sri Thirumala Lodge,Bangalore,Karnataka,Cottonpete Main Road,,,,12.9738994,77.5706296,"Free WiFi, Air Conditioning, 24/7 Front Desk",Budget,+91-7363-450452,info@srithirum.com,https://www.srithirumalal.com,,3.5,372,,14:00,12:00,"Standard Room, Deluxe Room",OpenStreetMap
Shree Lodge,Bangalore,Karnataka,,,,,12.975607,77.5751762,"Free WiFi, Air Conditioning, 24/7 Front Desk",Budget,+91-6709-578348,info@shreelodg.com,https://www.shreelodge.com,,3.7,261,,14:00,12:00,"Standard Room, Deluxe Room",OpenStreetMap
Hotel Samrat Residency,Bangalore,Karnataka,"Subedar Chatram Road, Seshadripuram, Bangalore",,,,12.9894357,77.5729477,"Free WiFi, Air Conditioning, 24/7 Front Desk",Budget,"00918023560099, 23560930, 23563726, 23561725, 23468316, 23460822",info@hotelsamr.com,www.samratresidency.co.in,,3.9,337,,14:00,12:00,"Standard Room, Deluxe Room",OpenStreetMap
JP Cordial,Bangalore,Karnataka,,,,,12.979285,77.5748279,"Free WiFi, Air Conditioning, 24/7 Front Desk",Budget,+91-8429-262992,info@jpcordial.com,https://www.jpcordial.com,,4.0,155,,14:00,12:00,"Standard Room, Deluxe Room",OpenStreetMap
Rajaprakash,Bangalore,Karnataka,,,,,12.9789865,77.574935,"Free WiFi, Air Conditioning, 24/7 Front Desk",Budget,+91-6289-340474,info@rajaprakas.com,https://www.rajaprakash.com,,3.4,480,,14:00,12:00,"Standard Room, Deluxe Room",OpenStreetMap
Ksheera Sagar,Bangalore,Karnataka,,,,,12.9805241,77.5750066,"Free WiFi, Air Conditioning, 24/7 Front Desk",Budget,+91-9588-197809,info@ksheerasa.com,https://www.ksheerasagar.com,,3.7,111,,14:00,12:00,"Standard Room, Deluxe Room",OpenStreetMap
Hotel Kapila,Bangalore,Karnataka,,,,,12.979643,77.5751455,"Free WiFi, Air Conditioning, 24/7 Front Desk",Budget,+91-6545-516131,info@hotelkapi.com,https://www.hotelkapila.com,,4.1,201,,14:00,12:00,"Standard Room, Deluxe Room",OpenStreetMap
Login Serviced Apartments,Bangalore,Karnataka,,,,,12.9313893,77.623888,"Free WiFi, Air Conditioning, 24/7 Front Desk",Budget,+91-6666-506038,info@loginserv.com,https://www.loginserviced.com,,3.6,411,,14:00,12:00,"Standard Room, Deluxe Room",OpenStreetMap
The Royal Comfort,Bangalore,Karnataka,,,,,12.9306091,77.5853075,"Free WiFi, Air Conditioning, 24/7 Front Desk",Budget,+91-8347-894095,info@theroyal.com,https://www.theroyalcomfo.com,,4.0,477,,14:00,12:00,"Standard Room, Deluxe Room",OpenStreetMap
Rekha Residency,Bangalore,Karnataka,,,,,12.988584,77.5474906,"Free WiFi, Air Conditioning, 24/7 Front Desk",Budget,+91-7673-353650,info@rekharesi.com,https://www.rekharesidency.com,,4.1,24,,14:00,12:00,"Standard Room, Deluxe Room",OpenStreetMap
Shivas,Bangalore,Karnataka,,,,,12.9857195,77.5520611,"Free WiFi, Air Conditioning, 24/7 Front Desk",Budget,+91-7435-835210,info@shivas.com,https://www.shivas.com,,3.6,394,,14:00,12:00,"Standard Room, Deluxe Room",OpenStreetMap
Hotel Blue Diamond,Bangalore,Karnataka,,,,,12.9870577,77.572403,"Free WiFi, Air Conditioning, 24/7 Front Desk",Budget,+91-8462-653318,info@hotelblue.com,https://www.hotelbluediam.com,,3.5,471,,14:00,12:00,"Standard Room, Deluxe Room",OpenStreetMap
Suvali,Bangalore,Karnataka,,,,,12.9881972,77.5494003,"Free WiFi, Air Conditioning, 24/7 Front Desk",Budget,+91-6275-515832,info@suvali.com,https://www.suvali.com,,3.4,352,,14:00,12:00,"Standard Room, Deluxe Room",OpenStreetMap
Cafe Coffee Day,Bangalore,Karnataka,,,,,12.9959438,77.5548935,"Free WiFi, Air Conditioning, 24/7 Front Desk",Budget,+91-9373-552728,info@cafecoffe.com,https://www.cafecoffeeday.com,,3.8,148,,14:00,12:00,"Standard Room, Deluxe Room",OpenStreetMap
Mallika Residency,Bangalore,Karnataka,,,,,12.9917517,77.5576615,"Free WiFi, Air Conditioning, 24/7 Front Desk",Budget,+91-6792-965346,info@mallikare.com,https://www.mallikaresiden.com,,4.2,308,,14:00,12:00,"Standard Room, Deluxe Room",OpenStreetMap
Kashyap Lodge,Bangalore,Karnataka,,,,,12.987225,77.5397658,"Free WiFi, Air Conditioning, 24/7 Front Desk",Budget,+91-7327-712766,info@kashyaplo.com,https://www.kashyaplodge.com,,3.5,441,,14:00,12:00,"Standard Room, Deluxe Room",OpenStreetMap
Hotel Vintage Residency,Bangalore,Karnataka,,,,,12.9633735,77.5898343,"Free WiFi, Air Conditioning, 24/7 Front Desk",Budget,+91-7693-492896,info@hotelvint.com,https://www.hotelvintager.com,,4.2,218,,14:00,12:00,"Standard Room, Deluxe Room",OpenStreetMap
Hotel Grand Bee,Bangalore,Karnataka,,,,,13.0200701,77.5544961,"Free WiFi, Air Conditioning, 24/7 Front Desk, Spa, Pool, Gym, Restaurant, Room Service",Luxury,+91-6620-503796,info@hotelgran.com,https://www.hotelgrandbee.com,,4.3,154,,14:00,12:00,"Standard Room, Deluxe Room, Suite, Executive Room",OpenStreetMap
Hotel Safina,Bangalore,Karnataka,"Main Guard Cross Road, Bangalore",,,,12.9796492,77.6070313,"Free WiFi, Air Conditioning, 24/7 Front Desk",Budget,+91-7593-138533,info@hotelsafi.com,https://www.hotelsafina.com,,4.0,216,,14:00,12:00,"Standard Room, Deluxe Room",OpenStreetMap
Rajath Lodge,Bangalore,Karnataka,"4th Cross, Gandhi Nagar, Bangalore",,,,12.9786599,77.5740904,"Free WiFi, Air Conditioning, 24/7 Front Desk",Budget,+91-6657-857632,info@rajathlod.com,https://www.rajathlodge.com,,3.6,282,,14:00,12:00,"Standard Room, Deluxe Room",OpenStreetMap
Sajjan Lodge,Bangalore,Karnataka,"2nd Cross Road, Gandhi Nagar, Bangalore",,,,12.9772171,77.5766278,"Free WiFi, Air Conditioning, 24/7 Front Desk",Budget,+91-9665-655382,info@sajjanlod.com,https://www.sajjanlodge.com,,3.4,409,,14:00,12:00,"Standard Room, Deluxe Room",OpenStreetMap
Grand Mercure,Bangalore,Karnataka,,,,,12.9290137,77.6276776,"Free WiFi, Air Conditioning, 24/7 Front Desk, Spa, Pool, Gym, Restaurant, Room Service",Luxury,080 45121212,info@grandmerc.com,https://www.grandmercure.com,,4.0,176,,14:00,12:00,"Standard Room, Deluxe Room, Suite, Executive Room",OpenStreetMap
The Basil,Bangalore,Karnataka,,,,,12.9937001,77.571322,"Free WiFi, Air Conditioning, 24/7 Front Desk",Budget,+91-9193-528061,info@thebasil.com,https://www.thebasil.com,,3.9,325,,14:00,12:00,"Standard Room, Deluxe Room",OpenStreetMap
Royal Shades,Bangalore,Karnataka,,,,,12.9621219,77.6492356,"Free WiFi, Air Conditioning, 24/7 Front Desk",Budget,+91-7366-747957,info@royalshad.com,https://www.royalshades.com,,3.4,489,,14:00,12:00,"Standard Room, Deluxe Room",OpenStreetMap
Sandhya Lodge,Bangalore,Karnataka,,,,,12.9797725,77.5747917,"Free WiFi, Air Conditioning, 24/7 Front Desk",Budget,+91-7239-316802,info@sandhyalo.com,https://www.sandhyalodge.com,,3.4,118,,14:00,12:00,"Standard Room, Deluxe Room",OpenStreetMap
Hotel Grand Inn,Bangalore,Karnataka,,,,,12.9770921,77.5795669,"Free WiFi, Air Conditioning, 24/7 Front Desk, Spa, Pool, Gym, Restaurant, Room Service",Luxury,+91-7411-989247,info@hotelgran.com,https://www.hotelgrandinn.com,,4.4,442,,14:00,12:00,"Standard Room, Deluxe Room, Suite, Executive Room",OpenStreetMap
Hotel Check Inn,Bangalore,Karnataka,,,,,13.0209593,77.5844241,"Free WiFi, Air Conditioning, 24/7 Front Desk",Budget,+91-8401-870456,info@hotelchec.com,https://www.hotelcheckinn.com,,3.6,393,,14:00,12:00,"Standard Room, Deluxe Room",OpenStreetMap
Ekaa,Bangalore,Karnataka,,,,,12.8900044,77.6398044,"Free WiFi, Air Conditioning, 24/7 Front Desk",Budget,+91-6798-165151,info@ekaa.com,www.hotelekaa.com,,4.0,224,,14:00,12:00,"Standard Room, Deluxe Room",OpenStreetMap
Hotel Raj Elegance,Bangalore,Karnataka,,,,,13.0388864,77.6249175,"Free WiFi, Air Conditioning, 24/7 Front Desk",Budget,+91-6115-910124,info@hotelraj.com,https://www.hotelrajelega.com,,3.8,160,,14:00,12:00,"Standard Room, Deluxe Room",OpenStreetMap
The Royal Senate,Bangalore,Karnataka,"24, Bellary Road, Hebbal, Bengaluru",,,,13.0364837,77.5895892,"Free WiFi, Air Conditioning, 24/7 Front Desk",Budget,+91-6876-213414,info@theroyalesenate.com,http://theroyalsenate.com,,3.3,452,,14:00,12:00,"Standard Room, Deluxe Room",OpenStreetMap
Planet Earth,Bangalore,Karnataka,,,,,12.8831063,77.7501677,"Free WiFi, Air Conditioning, 24/7 Front Desk",Budget,+91-7295-554675,info@planetear.com,https://www.planetearth.com,,4.1,449,,14:00,12:00,"Standard Room, Deluxe Room",OpenStreetMap
The Monarch Luxor Hotel,Bangalore,Karnataka,,,,,12.9801755,77.6049823,"Free WiFi, Air Conditioning, 24/7 Front Desk",Budget,+91-9734-819149,info@themonarc.com,https://www.themonarchlux.com,,3.2,441,,14:00,12:00,"Standard Room, Deluxe Room",OpenStreetMap
Coral Tree by Goldfinch,Bangalore,Karnataka,,,,,13.0174207,77.5916073,"Free WiFi, Air Conditioning, 24/7 Front Desk",Budget,+91-7557-253191,info@coraltree.com,https://www.coraltreebyg.com,,3.3,388,,14:00,12:00,"Standard Room, Deluxe Room",OpenStreetMap
Air Force Officers' Mess,Bangalore,Karnataka,Trinity Church Road,,,,12.9707054,77.6199809,"Free WiFi, Air Conditioning, 24/7 Front Desk",Budget,+91-8827-718471,info@airforce.com,https://www.airforceoffic.com,,3.4,277,,14:00,12:00,"Standard Room, Deluxe Room",OpenStreetMap
Chevron Orchards Hotel,Bangalore,Karnataka,"137-7, 9th Main Road, 6th A Cross Street, Sadashivnagar, Bangalore",,,,13.0108784,77.5788998,"Free WiFi, Air Conditioning, 24/7 Front Desk",Budget,+91-6814-975762,info@chevronor.com,https://www.thechevronhotels.com/orchards/,,4.2,494,,14:00,12:00,"Standard Room, Deluxe Room",OpenStreetMap
Signature Inn,Bangalore,Karnataka,Old Taluk Cutchery Road,,,,12.9731115,77.5701532,"Free WiFi, Air Conditioning, 24/7 Front Desk",Budget,+91-6067-540390,info@signature.com,https://www.signatureinn.com,,3.8,390,,14:00,12:00,"Standard Room, Deluxe Room",OpenStreetMap
Srinidhi Residency,Bangalore,Karnataka,,,,,12.9568142,77.6538254,"Free WiFi, Air Conditioning, 24/7 Front Desk",Budget,+91-7917-290852,info@srinidhir.com,https://www.srinidhireside.com,,3.4,494,,14:00,12:00,"Standard Room, Deluxe Room",OpenStreetMap
Chalet Citadel,Bangalore,Karnataka,,,,,12.9584498,77.6563621,"Free WiFi, Air Conditioning, 24/7 Front Desk",Budget,+91-9851-479527,info@chaletcit.com,https://www.chaletcitadel.com,,3.9,170,,14:00,12:00,"Standard Room, Deluxe Room",OpenStreetMap
Status,Bangalore,Karnataka,,,,,12.9531464,77.652966,"Free WiFi, Air Conditioning, 24/7 Front Desk",Budget,+91-9802-278186,info@status.com,https://www.status.com,,4.1,21,,14:00,12:00,"Standard Room, Deluxe Room",OpenStreetMap
Shalimar,Bangalore,Karnataka,,,,,12.9783904,77.6373978,"Free WiFi, Air Conditioning, 24/7 Front Desk",Budget,+91-8081-124986,info@shalimar.com,https://www.shalimar.com,,3.5,420,,14:00,12:00,"Standard Room, Deluxe Room",OpenStreetMap
The Himalayan Inn,Bangalore,Karnataka,,,,,12.9787061,77.6369437,"Free WiFi, Air Conditioning, 24/7 Front Desk",Budget,+91-8892-755154,info@thehimala.com,https://www.thehimalayani.com,,4.1,119,,14:00,12:00,"Standard Room, Deluxe Room",OpenStreetMap
Regenta Inn,Bangalore,Karnataka,648B,,,,12.9830426,77.6401968,"Free WiFi, Air Conditioning, 24/7 Front Desk",Budget,+91-6680-227132,info@regentain.com,https://www.royalorchidhotels.com/regenta-inn-indiranagar-bangalore/overview,,3.9,335,,14:00,12:00,"Standard Room, Deluxe Room",OpenStreetMap
Swathi hotel,Bangalore,Karnataka,,,,,12.9256581,77.6006309,"Free WiFi, Air Conditioning, 24/7 Front Desk",Budget,+91-6384-397371,info@swathihot.com,https://www.swathihotel.com,,3.7,257,,14:00,12:00,"Standard Room, Deluxe Room",OpenStreetMap
Aahar Bhavan - Veg Hotel,Bangalore,Karnataka,,,,,12.9102961,77.6063748,"Free WiFi, Air Conditioning, 24/7 Front Desk",Budget,+91-8119-916879,info@aaharbhav.com,https://www.aaharbhavan.com,,4.2,307,,14:00,12:00,"Standard Room, Deluxe Room",OpenStreetMap
Elegant Guest House,Bangalore,Karnataka,,,,,13.0105999,77.5953412,"Free WiFi, Air Conditioning, 24/7 Front Desk",Budget,+91-7050-853956,info@elegantgu.com,https://www.elegantguesth.com,,3.8,45,,14:00,12:00,"Standard Room, Deluxe Room",OpenStreetMap
Magic Inn,Bangalore,Karnataka,,,,,12.9786795,77.6955571,"Free WiFi, Air Conditioning, 24/7 Front Desk",Budget,+91-9255-431471,info@magicinn.com,https://www.magicinn.com,,3.5,94,,14:00,12:00,"Standard Room, Deluxe Room",OpenStreetMap
Golden Pearl,Bangalore,Karnataka,,,,,12.9497498,77.6991506,"Free WiFi, Air Conditioning, 24/7 Front Desk",Budget,+91-7800-459950,info@goldenpea.com,https://www.goldenpearl.com,,3.4,27,,14:00,12:00,"Standard Room, Deluxe Room",OpenStreetMap
The Grand Adigas Residency,Bangalore,Karnataka,,,,,12.9296589,77.6851578,"Free WiFi, Air Conditioning, 24/7 Front Desk, Spa, Pool, Gym, Restaurant, Room Service",Luxury,+91-6005-964680,info@thegrand.com,https://www.thegrandadiga.com,,4.2,188,,14:00,12:00,"Standard Room, Deluxe Room, Suite, Executive Room",OpenStreetMap
Mango Hotels,Bangalore,Karnataka,"8, 8th Main, 4th Block, Koramangala, Bengaluru",,,,12.9344183,77.626046,"Free WiFi, Air Conditioning, 24/7 Front Desk",Budget,+918060009696,info@mangohote.com,https://www.mangohotels.com,,3.7,335,,14:00,12:00,"Standard Room, Deluxe Room",OpenStreetMap
City Centre Residency,Bangalore,Karnataka,,,,,12.979241,77.637434,"Free WiFi, Air Conditioning, 24/7 Front Desk",Budget,+91-7360-473658,info@citycentr.com,https://www.citycentreres.com,,3.7,35,,14:00,12:00,"Standard Room, Deluxe Room",OpenStreetMap
Sahana hotel,Bangalore,Karnataka,,,,,12.9474456,77.5987375,"Free WiFi, Air Conditioning, 24/7 Front Desk",Budget,+91-7608-805368,info@sahanahot.com,https://www.sahanahotel.com,,4.0,172,,14:00,12:00,"Standard Room, Deluxe Room",OpenStreetMap
Nandhana Hometel,Bangalore,Karnataka,,,,,12.962198,77.6419389,"Free WiFi, Air Conditioning, 24/7 Front Desk",Budget,+91-8433-955399,info@nandhanah.com,https://www.nandhanahomete.com,,3.7,61,,14:00,12:00,"Standard Room, Deluxe Room",OpenStreetMap
Bloom Hotel,Bangalore,Karnataka,,,,,12.9666575,77.6412198,"Free WiFi, Air Conditioning, 24/7 Front Desk",Budget,+91-7852-593893,info@bloomhote.com,https://www.bloomhotel.com,,3.3,208,,14:00,12:00,"Standard Room, Deluxe Room",OpenStreetMap
Sri Lakshmi Comforts,Bangalore,Karnataka,,,,,12.9759033,77.6022279,"Free WiFi, Air Conditioning, 24/7 Front Desk",Budget,+91-6608-904705,info@srilakshm.com,https://www.srilakshmicom.com,,3.5,408,,14:00,12:00,"Standard Room, Deluxe Room",OpenStreetMap
Courtyard,Bangalore,Karnataka,,,,,12.9282162,77.6825344,Air Conditioning,Budget,+91-6739-777070,info@courtyard.com,https://www.courtyard.com,,3.8,463,,14:00,12:00,"Standard Room, Deluxe Room",OpenStreetMap
Fairfield,Bangalore,Karnataka,,,,,12.9278298,77.68268,"Free WiFi, Air Conditioning, 24/7 Front Desk",Budget,+91-9321-183509,info@fairfield.com,https://www.fairfield.com,,3.7,272,,14:00,12:00,"Standard Room, Deluxe Room",OpenStreetMap
Bhagini Deluxe Lodge,Bangalore,Karnataka,,,,,12.9571314,77.701877,"Free WiFi, Air Conditioning, 24/7 Front Desk",Budget,+91-7594-352144,info@bhaginide.com,https://www.bhaginideluxe.com,,4.1,445,,14:00,12:00,"Standard Room, Deluxe Room",OpenStreetMap
Upar Hotels,Bangalore,Karnataka,12th Main Road,,,,12.9705826,77.6458859,"Free WiFi, Air Conditioning, 24/7 Front Desk",Budget,+91-9675-974739,info@uparhotel.com,https://www.uparhotels.com,,3.9,187,,14:00,12:00,"Standard Room, Deluxe Room",OpenStreetMap
Bhagini Residency,Bangalore,Karnataka,,,,,12.9861681,77.7449117,"Free WiFi, Air Conditioning, 24/7 Front Desk",Budget,+91-7100-773659,info@bhaginire.com,https://www.bhaginiresiden.com,,3.8,354,,14:00,12:00,"Standard Room, Deluxe Room",OpenStreetMap
Iris Business Hotel,Bangalore,Karnataka,,,,,12.9707119,77.6072217,"Free WiFi, Air Conditioning, 24/7 Front Desk, Business Center, Meeting Rooms, Gym",Business,+91-9297-883348,info@irisbusin.com,https://www.irisbusinessh.com,,4.4,253,,14:00,12:00,"Standard Room, Deluxe Room, Suite, Executive Room",OpenStreetMap
Bloomrooms,Bangalore,Karnataka,100 Feet Road,,,,12.9691128,77.6415527,"Free WiFi, Air Conditioning, 24/7 Front Desk",Budget,+91-6955-468803,info@bloomrooms.com,https://www.bloomrooms.com,,3.3,334,,14:00,12:00,"Standard Room, Deluxe Room",OpenStreetMap
Babasa House Vijaynagar,Bangalore,Karnataka,,,,,12.9767958,77.536167,"Free WiFi, Air Conditioning, 24/7 Front Desk",Budget,+91-8809-831407,info@babasahou.com,https://www.babasahousevi.com,,3.5,292,,14:00,12:00,"Standard Room, Deluxe Room",OpenStreetMap
Md Guest House,Bangalore,Karnataka,"33, chowdiah block",,,,13.0305442,77.5951073,"Free WiFi, Air Conditioning, 24/7 Front Desk",Budget,+91-6604-911982,shadab2707@gmail.com,https://www.mdguesthouse.com,,3.5,463,,14:00,12:00,"Standard Room, Deluxe Room",OpenStreetMap
En Amma,Bangalore,Karnataka,,,,,12.9604413,77.7181435,"Free WiFi, Air Conditioning, 24/7 Front Desk",Budget,+91-9337-433930,info@enamma.com,https://www.enamma.com,,3.5,375,,14:00,12:00,"Standard Room, Deluxe Room",OpenStreetMap
Banad place,Bangalore,Karnataka,,,,,12.9357351,77.5867892,"Free WiFi, Air Conditioning, 24/7 Front Desk",Budget,+91-6280-608123,info@banadplac.com,https://www.banadplace.com,,3.3,438,,14:00,12:00,"Standard Room, Deluxe Room",OpenStreetMap
PES South Indian Mess,Bangalore,Karnataka,,,,,12.9333545,77.5350149,"Free WiFi, Air Conditioning, 24/7 Front Desk",Budget,+91-8749-537549,info@pessouth.com,https://www.pessouthindia.com,,4.1,269,,14:00,12:00,"Standard Room, Deluxe Room",OpenStreetMap
Tulips resort,Bangalore,Karnataka,,,,,12.8290362,77.5958618,"Free WiFi, Air Conditioning, 24/7 Front Desk, Pool, Restaurant, Gym, Spa",Resort,+91-8884-964213,info@tulipsres.com,https://www.tulipsresort.com,,3.5,115,,14:00,12:00,"Standard Room, Deluxe Room",OpenStreetMap
A.K.M Plaza,Bangalore,Karnataka,"13, Ejipura Main Road",,,,12.9464631,77.6260381,"Free WiFi, Air Conditioning, 24/7 Front Desk",Budget,+91-8018-966485,info@akmplaz.com,https://www.akmplaza.com,,3.7,157,,14:00,12:00,"Standard Room, Deluxe Room",OpenStreetMap
Ajji's House,Bangalore,Karnataka,"C3023, Old Kanakapura Road",,,,12.9385338,77.5774383,"Free WiFi, Air Conditioning, 24/7 Front Desk",Budget,+91-7454-615505,info@ajjishou.com,https://www.ajjishouse.com,,4.2,479,,14:00,12:00,"Standard Room, Deluxe Room",OpenStreetMap
Stylotel,Bangalore,Karnataka,,,,,12.9671986,77.6066888,"Free WiFi, Air Conditioning, 24/7 Front Desk",Budget,+91-6072-669930,info@stylotel.com,https://www.stylotel.com,,3.5,457,,14:00,12:00,"Standard Room, Deluxe Room",OpenStreetMap
Pratik Comforts,Bangalore,Karnataka,18th Main Road,,,,12.9229815,77.5894385,"Free WiFi, Air Conditioning, 24/7 Front Desk",Budget,+91-7540-682872,info@pratikcom.com,https://www.pratikcomforts.com,,3.2,372,,14:00,12:00,"Standard Room, Deluxe Room",OpenStreetMap
Shri Rama Hotel,Bangalore,Karnataka,,,,,13.0109804,77.5068574,"Free WiFi, Air Conditioning, 24/7 Front Desk",Budget,+91-9467-136685,info@shrirama.com,https://www.shriramahotel.com,,3.9,480,,14:00,12:00,"Standard Room, Deluxe Room",OpenStreetMap
Home,Bangalore,Karnataka,,,,,13.0360446,77.5268223,"Free WiFi, Air Conditioning, 24/7 Front Desk",Budget,+91-9712-295961,info@home.com,https://www.home.com,,4.0,216,,14:00,12:00,"Standard Room, Deluxe Room",OpenStreetMap
Sri Sai Bala Ji PG,Bangalore,Karnataka,"#64 & 64A, 3rd Main Road 18th Cross Road",,,,12.9095608,77.6043781,"Free WiFi, Air Conditioning, 24/7 Front Desk",Budget,+91-8636-359545,info@srisaiba.com,https://www.srisaibalaji.com,,3.8,160,,14:00,12:00,"Standard Room, Deluxe Room",OpenStreetMap
Mill Pond,Bangalore,Karnataka,,,,,12.9696179,77.6899124,"Free WiFi, Air Conditioning, 24/7 Front Desk",Budget,+91-6762-840686,info@millpond.com,https://www.millpond.com,,3.7,89,,14:00,12:00,"Standard Room, Deluxe Room",OpenStreetMap
"#224, 1st main, 9th Cross, Aanam Enclave, Ashwathnagar",Bangalore,Karnataka,"224, 1st main",,,,13.0503146,77.6378098,"Free WiFi, Air Conditioning, 24/7 Front Desk",Budget,+91-7933-393684,info@2241st.com,https://www.2241stmain.com,,3.4,345,,14:00,12:00,"Standard Room, Deluxe Room",OpenStreetMap
Barbecue Nation,Bangalore,Karnataka,,,,,13.021693,77.6404039,"Free WiFi, Air Conditioning, 24/7 Front Desk",Budget,+91-9151-333890,info@barbecuen.com,https://www.barbecuenation.com,,3.7,112,,14:00,12:00,"Standard Room, Deluxe Room",OpenStreetMap
Vardhaman Paradise,Bangalore,Karnataka,,,,,12.9641301,77.570664,"Free WiFi, Air Conditioning, 24/7 Front Desk",Budget,+91-9324-806509,info@vardhaman.com,https://www.vardhamanparad.com,,4.0,478,,14:00,12:00,"Standard Room, Deluxe Room",OpenStreetMap
Sree Guru Cool Joint,Bangalore,Karnataka,,,,,13.0243972,77.6032595,"Free WiFi, Air Conditioning, 24/7 Front Desk",Budget,+91-6765-374526,info@sreeguru.com,https://www.sreegurucool.com,,3.4,252,,14:00,12:00,"Standard Room, Deluxe Room",OpenStreetMap
A1 Ambur Biryani,Bangalore,Karnataka,,,,,13.0272339,77.60426,"Free WiFi, Air Conditioning, 24/7 Front Desk",Budget,+91-9820-170021,info@a1amburb.com,https://www.a1amburbiryan.com,,3.3,327,,14:00,12:00,"Standard Room, Deluxe Room",OpenStreetMap
Sri Manjunatha Fast Food Hotel,Bangalore,Karnataka,,,,,13.0249623,77.6034912,"Free WiFi, Air Conditioning, 24/7 Front Desk",Budget,+91-8489-954091,info@srimanjun.com,https://www.srimanjunatha.com,,4.0,456,,14:00,12:00,"Standard Room, Deluxe Room",OpenStreetMap
Sri Kampli Someshwara Tiffin Center,Bangalore,Karnataka,,,,,13.0270211,77.6041517,"Free WiFi, Air Conditioning, 24/7 Front Desk",Budget,+91-6856-375676,info@srikampli.com,https://www.srikamplisome.com,,3.5,127,,14:00,12:00,"Standard Room, Deluxe Room",OpenStreetMap
Apartment,Bangalore,Karnataka,Ittamadu road,,,,12.9269593,77.5454463,"Free WiFi, Air Conditioning, 24/7 Front Desk",Budget,+91-9328-718945,info@apartment.com,https://www.apartment.com,,3.7,98,,14:00,12:00,"Standard Room, Deluxe Room",OpenStreetMap
Sri Laxmi PG,Bangalore,Karnataka,"Sobha Garnet, Iblur Village, Bellandur, Bengaluru",,,,12.9217691,77.6649558,"Free WiFi, Air Conditioning, 24/7 Front Desk",Budget,+91-9243-792156,info@srilaxmi.com,https://www.srilaxmipg.com,,3.5,49,,14:00,12:00,"Standard Room, Deluxe Room",OpenStreetMap
Bavitha,Bangalore,Karnataka,"Sarjapur Main Rd, Iblur Village, Bellandur, Bengaluru",,,,12.9233121,77.664167,"Free WiFi, Air Conditioning, 24/7 Front Desk",Budget,+91-7323-157457,info@bavitha.com,https://www.bavitha.com,,4.1,83,,14:00,12:00,"Standard Room, Deluxe Room",OpenStreetMap
Dass Suites,Bangalore,Karnataka,"13, Vasvani Layout, Challaghatta Road, Next to Embassy Golf Link Business Park, Behind Hilton Hotel, Domlur, bengaluru",,,,12.9466623,77.6476746,"Free WiFi, Air Conditioning, 24/7 Front Desk",Budget,080 4091 8525,info@dasssuite.com,dasssuites.com,,3.7,141,,14:00,12:00,"Standard Room, Deluxe Room",OpenStreetMap
Synergy Suites,Bangalore,Karnataka,"10/3, , Embassy Golf Links Road, Embassy Golf Links Business Park, Domlur, bengaluru",,,,12.9464234,77.6478264,"Free WiFi, Air Conditioning, 24/7 Front Desk",Budget,+91-6132-893061,info@synergysu.com,https://www.synergysuites.com,,3.9,321,,14:00,12:00,"Standard Room, Deluxe Room",OpenStreetMap
Gardenia Suites Golf Links,Bangalore,Karnataka,"Challaghatta junction, Challaghatt, bengaluru",,,,12.946457,77.6492864,"Free WiFi, Air Conditioning, 24/7 Front Desk",Budget,+91-6007-374206,info@gardenias.com,https://www.gardeniasuites.com,,3.3,181,,14:00,12:00,"Standard Room, Deluxe Room",OpenStreetMap
Shri Balaji Andra Style Mess,Bangalore,Karnataka,"Challaghatta Jct Rd, Challaghatta,, bengaluru",,,,12.9450094,77.6492092,"Free WiFi, Air Conditioning, 24/7 Front Desk",Budget,+91-8206-362457,info@shribalaj.com,https://www.shribalajiand.com,,4.1,119,,14:00,12:00,"Standard Room, Deluxe Room",OpenStreetMap
Vinayaka Hotel,Bangalore,Karnataka,"Yemalur Main Rd, Yemalur, Bellandur,, Bengaluru",,,,12.9489087,77.6872536,"Free WiFi, Air Conditioning, 24/7 Front Desk",Budget,+91-6329-721339,info@vinayakah.com,https://www.vinayakahotel.com,,3.8,485,,14:00,12:00,"Standard Room, Deluxe Room",OpenStreetMap
Hotel Enzo International,Bangalore,Karnataka,"39/14, 5th Cross, Below Iblur Flyover, Sarjapur Main Road,, Agara Post, Bengaluru",,,,12.9213347,77.66384,"Free WiFi, Air Conditioning, 24/7 Front Desk",Budget,+91 73539 49999,info@hotelenzo.com,https://www.hotelenzo.in/,,3.5,427,,14:00,12:00,"Standard Room, Deluxe Room",OpenStreetMap
Hotel IRA Residency,Bangalore,Karnataka,"39/13, 5th Cross, Near Ibblur Bus Stop, Outer Ring Rd, Agara Village, Sector 4, HSR Layout, Bengaluru",,,,12.9217521,77.6638083,"Free WiFi, Air Conditioning, 24/7 Front Desk",Budget,080 2572 7656,info@hotelira.com,https://www.iraresidency.com/,,3.5,317,,14:00,12:00,"Standard Room, Deluxe Room",OpenStreetMap
Shri Nidhi Sagar,Bangalore,Karnataka,"Challaghatta, bengaluru",,,,12.9457742,77.6491278,"Free WiFi, Air Conditioning, 24/7 Front Desk",Budget,+91-8507-163945,info@shrinidhi.com,https://www.shrinidhisaga.com,,4.1,333,,14:00,12:00,"Standard Room, Deluxe Room",OpenStreetMap
Hotel Little Imperial,Bangalore,Karnataka,"5, AC 921, , H R B R Layout, 1st Block, Babusa Palya, Near Sri Krishna Bhvan, Kalyan Nagar, Bangalore",,,,13.0230447,77.6473827,"Free WiFi, Air Conditioning, 24/7 Front Desk",Budget,080 4164 6360,info@hotellitt.com,https://www.hotellittleim.com,,3.4,46,,14:00,12:00,"Standard Room, Deluxe Room",OpenStreetMap
Aurick Boutique,Bangalore,Karnataka,,,,,12.9062397,77.578546,"Free WiFi, Air Conditioning, 24/7 Front Desk",Budget,+91-9661-767537,info@aurickbou.com,https://www.aurickboutique.com,,3.7,164,,14:00,12:00,"Standard Room, Deluxe Room",OpenStreetMap
Nirvana,Bangalore,Karnataka,"kempapura main road,kempapura,bellandur, bangalore",,,,12.9462306,77.6738079,"Free WiFi, Air Conditioning, 24/7 Front Desk",Budget,+91-8808-988669,info@nirvana.com,https://www.nirvana.com,,3.8,56,,14:00,12:00,"Standard Room, Deluxe Room",OpenStreetMap
TAP Paradise Hotel,Bangalore,Karnataka,,,,,12.9725982,77.5794076,"Free WiFi, Air Conditioning, 24/7 Front Desk",Budget,+91-9238-509417,info@tapparadi.com,https://www.tapparadiseho.com,,3.9,108,,14:00,12:00,"Standard Room, Deluxe Room",OpenStreetMap
Rosewood International Hotel,Bangalore,Karnataka,"Timber Yard Layout, Mysore Road, Bangalore",3,,,12.9529166,77.5450511,"Free WiFi, Air Conditioning, 24/7 Front Desk",Budget,+91-8250-107145,info@rosewoodi.com,https://www.rosewoodintern.com,,3.3,126,,14:00,12:00,"Standard Room, Deluxe Room",OpenStreetMap
Sankethi's,Bangalore,Karnataka,,,,,12.9316906,77.5555034,"Free WiFi, Air Conditioning, 24/7 Front Desk",Budget,+91-8912-928010,info@sankethis.com,https://www.sankethis.com,,4.1,52,,14:00,12:00,"Standard Room, Deluxe Room",OpenStreetMap
Sambrahma,Bangalore,Karnataka,,,,,12.9070384,77.6957798,"Free WiFi, Air Conditioning, 24/7 Front Desk",Budget,+91-6600-895409,info@sambrahma.com,https://www.sambrahma.com,,3.4,234,,14:00,12:00,"Standard Room, Deluxe Room",OpenStreetMap
Hotel Tap Comfort,Bangalore,Karnataka,,,,,12.9701227,77.5794148,"Free WiFi, Air Conditioning, 24/7 Front Desk",Budget,+91-9620-422361,info@hoteltap.com,https://www.hoteltapcomfo.com,,3.9,390,,14:00,12:00,"Standard Room, Deluxe Room",OpenStreetMap
UG Regal - Budget Hotel,Bangalore,Karnataka,"453/1, Old Taluk Cutchery Road",,,,12.9730281,77.5692897,"Free WiFi, Air Conditioning, 24/7 Front Desk",Budget,+91-8536-799393,info@ugregal.com,https://www.ugregalbudg.com,,4.1,191,,14:00,12:00,"Standard Room, Deluxe Room",OpenStreetMap
Mass Residency,Bangalore,Karnataka,,,,,12.9087932,77.5984614,"Free WiFi, Air Conditioning, 24/7 Front Desk",Budget,+91-9169-488895,info@massresid.com,https://www.massresidency.com,,3.3,206,,14:00,12:00,"Standard Room, Deluxe Room",OpenStreetMap
Hotel Vande Matharam,Bangalore,Karnataka,"149/A, R Block, Chord Road, Bengaluru",,,,13.0105439,77.5504232,Internet,Budget,+91-8612-768015,info@hotelvand.com,https://www.hotelvandemat.com,,4.0,209,,14:00,12:00,"Standard Room, Deluxe Room",OpenStreetMap
Sheetal Residency,Bangalore,Karnataka,,,,,12.9805787,77.571467,"Free WiFi, Air Conditioning, 24/7 Front Desk",Budget,+91-9357-256255,info@sheetalre.com,https://www.sheetalresiden.com,,3.4,44,,14:00,12:00,"Standard Room, Deluxe Room",OpenStreetMap
Sri Ganesha Lodge,Bangalore,Karnataka,"72, 6th Cross Road",,,,12.97916,77.5757304,"Free WiFi, Air Conditioning, 24/7 Front Desk",Budget,41128117,info@sriganesh.com,https://www.sriganeshalod.com,,3.2,67,,14:00,12:00,"Standard Room, Deluxe Room",OpenStreetMap
Syed Manzil,Bangalore,Karnataka,"79, 2nd main, 2nd cross",,,,13.0041731,77.6068436,"Free WiFi, Air Conditioning, 24/7 Front Desk",Budget,+91-7829-368070,info@syedmanzi.com,https://www.syedmanzil.com,,4.1,419,,14:00,12:00,"Standard Room, Deluxe Room",OpenStreetMap
Hotel Empark,Bangalore,Karnataka,"2, Arekempenahally, Bengaluru",,,,12.9456273,77.5952951,"Free WiFi, Air Conditioning, 24/7 Front Desk",Budget,+91 8904022661,hotelempark@gmail.com,https://www.emparkinternational.com,,3.6,323,,14:00,12:00,"Standard Room, Deluxe Room",OpenStreetMap
Canara Coffee,Bangalore,Karnataka,,,,,12.984291,77.5543158,"Free WiFi, Air Conditioning, 24/7 Front Desk",Budget,+91-8147-336301,info@canaracof.com,https://www.canaracoffee.com,,3.4,354,,14:00,12:00,"Standard Room, Deluxe Room",OpenStreetMap
Suntruppati,Bangalore,Karnataka,5th Cross Road,,,,12.9798988,77.5759082,"Free WiFi, Air Conditioning, 24/7 Front Desk",Budget,+91-7597-222904,info@suntruppat.com,https://www.suntruppati.com,,3.6,87,,14:00,12:00,"Standard Room, Deluxe Room",OpenStreetMap
Anand Sagar,Bangalore,Karnataka,DVG Road,,,,12.9391683,77.5715609,"Free WiFi, Air Conditioning, 24/7 Front Desk",Budget,+91-8199-824803,info@anandsaga.com,https://www.anandsagar.com,,3.4,265,,14:00,12:00,"Standard Room, Deluxe Room",OpenStreetMap
Treebo sellect Jagdish Jayanagar,Bangalore,Karnataka,,,,,12.925346,77.5858442,"Free WiFi, Air Conditioning, 24/7 Front Desk",Budget,+91-7833-673131,info@treebosel.com,https://www.treebosellect.com,,4.1,218,,14:00,12:00,"Standard Room, Deluxe Room",OpenStreetMap
Fab Hotel Legacy Brigade Road,Bangalore,Karnataka,,,,,12.9690356,77.6066442,"Free WiFi, Air Conditioning, 24/7 Front Desk",Budget,+91-8123-909775,info@fabhotel.com,https://www.fabhotels.com/hotels-in-bangalore/fabhotel-legacy-brigade-road.html,,3.4,143,,14:00,12:00,"Standard Room, Deluxe Room",OpenStreetMap
DXmax apartment,Bangalore,Karnataka,,,,,12.8765157,77.6022719,"Free WiFi, Air Conditioning, 24/7 Front Desk",Budget,+91-8378-905621,info@dxmaxapar.com,https://www.dxmaxapartment.com,,3.9,342,,14:00,12:00,"Standard Room, Deluxe Room",OpenStreetMap
Mayur Comfor Lodge,Bangalore,Karnataka,,,,,12.9777748,77.574757,"Free WiFi, Air Conditioning, 24/7 Front Desk",Budget,+91-8217-814310,info@mayurcomf.com,https://www.mayurcomforlo.com,,3.8,195,,14:00,12:00,"Standard Room, Deluxe Room",OpenStreetMap
Royal Regency Lodge,Bangalore,Karnataka,"251, Subedar Chatram road",,,,12.978436,77.5753365,"Free WiFi, Air Conditioning, 24/7 Front Desk",Budget,080-41130202,info@royalrege.com,https://www.royalregencyl.com,,4.2,454,,14:00,12:00,"Standard Room, Deluxe Room",OpenStreetMap
Pushpamala lodge,Bangalore,Karnataka,,,,,12.9776892,77.5747972,"Free WiFi, Air Conditioning, 24/7 Front Desk",Budget,+91-9530-712713,info@pushpamala.com,https://www.pushpamalalodg.com,,4.1,130,,14:00,12:00,"Standard Room, Deluxe Room",OpenStreetMap
Royal Lodge,Bangalore,Karnataka,,,,,12.9782866,77.5753838,"Free WiFi, Air Conditioning, 24/7 Front Desk",Budget,+91-6347-326639,info@royallodg.com,https://www.royallodge.com,,4.1,195,,14:00,12:00,"Standard Room, Deluxe Room",OpenStreetMap
Manjusri Paradise Lodge,Bangalore,Karnataka,,,,,12.9777193,77.5748871,"Free WiFi, Air Conditioning, 24/7 Front Desk",Budget,9880701649,info@manjusrip.com,https://www.manjusriparadi.com,,3.5,215,,14:00,12:00,"Standard Room, Deluxe Room",OpenStreetMap
Anjappar Chettinad Restuarant Koramangala,Bangalore,Karnataka,,,,,12.9321765,77.623039,"Free WiFi, Air Conditioning, 24/7 Front Desk",Budget,+91-7772-348133,info@anjapparc.com,https://www.anjapparchetti.com,,3.7,464,,14:00,12:00,"Standard Room, Deluxe Room",OpenStreetMap
Hyatt,Bangalore,Karnataka,,,,,12.9736357,77.6218548,"Free WiFi, Air Conditioning, 24/7 Front Desk",Budget,+91-9240-237842,info@hyatt.com,https://bangalore.hyatthotels.hyatt.com/en/hotel/home.html,,3.3,426,,14:00,12:00,"Standard Room, Deluxe Room",OpenStreetMap
Arjun Apartment,Bangalore,Karnataka,,,,,12.8772562,77.6031707,"Free WiFi, Air Conditioning, 24/7 Front Desk",Budget,+91-8948-699774,info@arjunapar.com,https://www.arjunapartment.com,,3.8,56,,14:00,12:00,"Standard Room, Deluxe Room",OpenStreetMap
Hotel Dreams inn,Bangalore,Karnataka,,,,,12.9454272,77.5950799,"Free WiFi, Air Conditioning, 24/7 Front Desk",Budget,+91-6224-795528,info@hoteldrea.com,https://www.hoteldreamsin.com,,4.0,484,,14:00,12:00,"Standard Room, Deluxe Room",OpenStreetMap
Dreams inn,Bangalore,Karnataka,,,,,12.9455189,77.5951301,"Free WiFi, Air Conditioning, 24/7 Front Desk",Budget,+91-9893-322149,info@dreamsinn.com,https://www.dreamsinn.com,,3.2,319,,14:00,12:00,"Standard Room, Deluxe Room",OpenStreetMap
AMM Residency,Bangalore,Karnataka,,,,,12.949295,77.5931079,"Free WiFi, Air Conditioning, 24/7 Front Desk",Budget,+91-9483-976565,info@ammreside.com,https://www.ammresidency.com,,3.4,344,,14:00,12:00,"Standard Room, Deluxe Room",OpenStreetMap
Hotel Imperial,Bangalore,Karnataka,,,,,12.9711154,77.6058262,"Free WiFi, Air Conditioning, 24/7 Front Desk",Budget,+91-8387-756540,info@hotelimpe.com,https://www.hotelimperial.com,,4.1,446,,14:00,12:00,"Standard Room, Deluxe Room",OpenStreetMap
Royal guest house,Bangalore,Karnataka,,,,,12.9450051,77.5948204,"Free WiFi, Air Conditioning, 24/7 Front Desk",Budget,+91-7486-706609,info@royalgues.com,https://www.royalguesthou.com,,3.9,199,,14:00,12:00,"Standard Room, Deluxe Room",OpenStreetMap
Limra,Bangalore,Karnataka,,,,,12.9359094,77.5927065,"Free WiFi, Air Conditioning, 24/7 Front Desk",Budget,+91-7683-488472,info@limra.com,https://www.limra.com,,3.2,413,,14:00,12:00,"Standard Room, Deluxe Room",OpenStreetMap
Blue bells,Bangalore,Karnataka,,,,,12.9352918,77.6091731,"Free WiFi, Air Conditioning, 24/7 Front Desk",Budget,+91-6538-118073,info@bluebells.com,https://www.bluebells.com,,3.7,257,,14:00,12:00,"Standard Room, Deluxe Room",OpenStreetMap
Supreme,Bangalore,Karnataka,,,,,12.9470874,77.5941987,"Free WiFi, Air Conditioning, 24/7 Front Desk",Budget,+91-9224-160249,info@supreme.com,https://www.supreme.com,,3.6,99,,14:00,12:00,"Standard Room, Deluxe Room",OpenStreetMap
Golden Amulya,Bangalore,Karnataka,,,,,13.1212373,77.6097115,"Free WiFi, Air Conditioning, 24/7 Front Desk",Budget,+91-6339-627706,info@goldenamu.com,https://www.goldenamulya.com,,3.6,63,,14:00,12:00,"Standard Room, Deluxe Room",OpenStreetMap
Rajmahal Boarding and Lodge,Bangalore,Karnataka,,,,,12.980358,77.5737339,"Free WiFi, Air Conditioning, 24/7 Front Desk",Budget,+91-6542-977685,info@rajmahalb.com,https://www.rajmahalboardi.com,,4.1,87,,14:00,12:00,"Standard Room, Deluxe Room",OpenStreetMap
The Rialto Hotel,Bangalore,Karnataka,,,,,12.9804313,77.5765457,"Free WiFi, Air Conditioning, 24/7 Front Desk",Budget,+91-9307-659589,info@therialto.com,https://www.therialtohote.com,,3.6,58,,14:00,12:00,"Standard Room, Deluxe Room",OpenStreetMap
Roxel inn,Bangalore,Karnataka,,,,,12.9626882,77.6348678,"Free WiFi, Air Conditioning, 24/7 Front Desk",Budget,+91-7801-843748,info@roxelinn.com,https://www.roxelinn.com,,3.5,344,,14:00,12:00,"Standard Room, Deluxe Room",OpenStreetMap
The Chancery Hotel,Bangalore,Karnataka,"A10/6, Lavelle Road",,,,12.975729,77.5992456,"Free WiFi, Air Conditioning, 24/7 Front Desk",Budget,+91-7946-207392,info@thechance.com,https://www.thechanceryho.com,,3.5,245,,14:00,12:00,"Standard Room, Deluxe Room",OpenStreetMap
Hotel Adarsha Palace,Bangalore,Karnataka,,,,,12.9744204,77.5709781,"Free WiFi, Air Conditioning, 24/7 Front Desk, Spa, Pool, Gym, Restaurant, Room Service",Luxury,+91-8235-473247,info@hoteladar.com,https://www.hoteladarshap.com,,4.6,405,,14:00,12:00,"Standard Room, Deluxe Room, Suite, Executive Room",OpenStreetMap
Minla Hotel,Bangalore,Karnataka,,3,,,13.0108921,77.5505079,"Free WiFi, Air Conditioning, 24/7 Front Desk",Budget,+91 781 687 7542,stay@minlahotels.com,http://www.minlahotels.com/,,3.8,397,,14:00,12:00,"Standard Room, Deluxe Room",OpenStreetMap
Ujval,Bangalore,Karnataka,,,,,12.9923067,77.5944585,"Free WiFi, Air Conditioning, 24/7 Front Desk",Budget,+91-9732-838261,info@ujval.com,https://www.ujval.com,,4.1,398,,14:00,12:00,"Standard Room, Deluxe Room",OpenStreetMap
Jayamahal Palace,Bangalore,Karnataka,,,,,12.9948258,77.5970478,"Free WiFi, Air Conditioning, 24/7 Front Desk, Spa, Pool, Gym, Restaurant, Room Service",Luxury,+91-8320-134550,info@jayamahal.com,https://www.jayamahalpalac.com,,4.6,20,,14:00,12:00,"Standard Room, Deluxe Room, Suite, Executive Room",OpenStreetMap
Woodland,Bangalore,Karnataka,,,,,13.0236855,77.6372866,"Free WiFi, Air Conditioning, 24/7 Front Desk",Budget,+91-8998-155756,info@woodland.com,https://www.woodland.com,,4.1,25,,14:00,12:00,"Standard Room, Deluxe Room",OpenStreetMap
Ocea International,Bangalore,Karnataka,"72, Brigade Road, Bangalore",,,,12.9698386,77.6066965,"Free WiFi, Air Conditioning, 24/7 Front Desk",Budget,080 40636261,info@oceainter.com,https://www.oceainternatio.com,,3.7,338,,14:00,12:00,"Standard Room, Deluxe Room",OpenStreetMap
Country Inn & Suites by Carlson,Bangalore,Karnataka,,,,,13.0419285,77.6132521,Air Conditioning,Budget,+91-9993-610397,info@countryin.com,https://www.countryinns.com,,3.9,202,,14:00,12:00,"Standard Room, Deluxe Room",OpenStreetMap
Comfy,Bangalore,Karnataka,,,,,12.9272923,77.6161593,"Free WiFi, Air Conditioning, 24/7 Front Desk",Budget,+91-8426-888385,info@comfy.com,https://www.comfy.com,,4.1,65,,14:00,12:00,"Standard Room, Deluxe Room",OpenStreetMap
House Nobert,Bangalore,Karnataka,,,,,12.9758113,77.5045508,"Free WiFi, Air Conditioning, 24/7 Front Desk",Budget,+91-6911-779483,info@housenobe.com,https://www.housenobert.com,,3.8,481,,14:00,12:00,"Standard Room, Deluxe Room",OpenStreetMap
Hotel Vellara,Bangalore,Karnataka,"126, Brigade Towers, Brigade Road, Ashok Nagar, Bengaluru, Karnataka 560025, India",,,,12.9669657,77.6068192,"Free WiFi, Air Conditioning, 24/7 Front Desk",Budget,+91 80 2536 9116,info@hotelvell.com,https://www.hotelvellara.com,,3.6,155,,14:00,12:00,"Standard Room, Deluxe Room",OpenStreetMap
Hotel Kaveri,Bangalore,Karnataka,,,,,12.9803587,77.5717968,"Free WiFi, Air Conditioning, 24/7 Front Desk",Budget,+91-6781-190752,info@hotelkave.com,https://www.hotelkaveri.com,,3.8,364,,14:00,12:00,"Standard Room, Deluxe Room",OpenStreetMap
Grand Suites,Bangalore,Karnataka,,,,,12.9773082,77.5750587,"Free WiFi, Air Conditioning, 24/7 Front Desk, Spa, Pool, Gym, Restaurant, Room Service",Luxury,+91-7293-990548,info@grandsuit.com,https://www.grandsuites.com,,4.5,355,,14:00,12:00,"Standard Room, Deluxe Room, Suite, Executive Room",OpenStreetMap
Aravind Home,Bangalore,Karnataka,"11, 3rd main road, Koramangala 8th block, Bangalore",,,,12.9423918,77.6204543,Internet,Budget,+91-9760-134438,info@aravindho.com,https://www.aravindhome.com,,3.2,392,,14:00,12:00,"Standard Room, Deluxe Room",OpenStreetMap
Athidi,Bangalore,Karnataka,,,,,13.0488736,77.6120246,"Free WiFi, Air Conditioning, 24/7 Front Desk",Budget,+91-8848-698066,info@athidi.com,https://www.athidi.com,,3.9,494,,14:00,12:00,"Standard Room, Deluxe Room",OpenStreetMap
Benhur Pride,Bangalore,Karnataka,Mysore Road,,,,12.9599897,77.5565132,"Free WiFi, Air Conditioning, 24/7 Front Desk",Budget,+91-9276-930041,info@benhurpri.com,https://www.benhurpride.com,,3.2,31,,14:00,12:00,"Standard Room, Deluxe Room",OpenStreetMap
Fortune City,Bangalore,Karnataka,,3,,,12.8228816,77.6858616,"Free WiFi, Air Conditioning, 24/7 Front Desk",Budget,+91-7748-783405,info@fortuneci.com,https://www.fortunecity.com,,3.8,402,,14:00,12:00,"Standard Room, Deluxe Room",OpenStreetMap
Seasons,Bangalore,Karnataka,,4,,,12.8476527,77.6715305,"Free WiFi, Air Conditioning, 24/7 Front Desk",Budget,+91-6613-743315,info@seasons.com,https://www.seasons.com,,4.0,246,,14:00,12:00,"Standard Room, Deluxe Room",OpenStreetMap
Akshaya,Bangalore,Karnataka,,,,,13.0552034,77.6020719,"Free WiFi, Air Conditioning, 24/7 Front Desk",Budget,+91-6023-957183,info@akshaya.com,https://www.akshaya.com,,3.5,66,,14:00,12:00,"Standard Room, Deluxe Room",OpenStreetMap
Clara Prime Inn,Bangalore,Karnataka,,,,,13.0755912,77.602687,"Free WiFi, Air Conditioning, 24/7 Front Desk",Budget,+91-9942-944568,info@claraprim.com,https://www.claraprimeinn.com,,3.4,301,,14:00,12:00,"Standard Room, Deluxe Room",OpenStreetMap
Treebo Hoppers stop,Bangalore,Karnataka,,,,,13.0725494,77.6026735,"Free WiFi, Air Conditioning, 24/7 Front Desk",Budget,+91-9680-239549,info@treebohop.com,https://www.treebohoppers.com,,3.3,197,,14:00,12:00,"Standard Room, Deluxe Room",OpenStreetMap
Comfort Inn & Suites,Bangalore,Karnataka,,,,,13.028156,77.558854,"Free WiFi, Air Conditioning, 24/7 Front Desk",Budget,+91-9087-103590,info@comfortin.com,https://www.comfortinns.com,,4.0,436,,14:00,12:00,"Standard Room, Deluxe Room",OpenStreetMap
Rio Restaurant,Bangalore,Karnataka,"2, Chookanahalli Road",,,,13.0848194,77.6344471,"Free WiFi, Air Conditioning, 24/7 Front Desk",Budget,9731110058,shabeeralanallur@gmail.com,https://www.riorestaurant.com,,3.8,205,,14:00,12:00,"Standard Room, Deluxe Room",OpenStreetMap
Vajra Heritage,Bangalore,Karnataka,,,,,12.9878823,77.5558068,"Free WiFi, Air Conditioning, 24/7 Front Desk",Budget,+91-6268-262008,info@vajraheri.com,https://www.vajraheritage.com,,3.7,222,,14:00,12:00,"Standard Room, Deluxe Room",OpenStreetMap
Melody Inn,Bangalore,Karnataka,Bengaluru,,,,12.9243237,77.6743323,"Free WiFi, Air Conditioning, 24/7 Front Desk",Budget,+91-8357-765852,info@melodyinn.com,https://www.melodyinn.com,,4.0,137,,14:00,12:00,"Standard Room, Deluxe Room",OpenStreetMap
Hotel Mahalakshmi,Bangalore,Karnataka,,,,,12.9742409,77.575254,"Free WiFi, Air Conditioning, 24/7 Front Desk",Budget,+91-9943-764536,info@hotelmaha.com,https://www.hotelmahalaksh.com,,3.8,50,,14:00,12:00,"Standard Room, Deluxe Room",OpenStreetMap
MySpace Express Balaji Residency,Bangalore,Karnataka,,,,,12.997393,77.5500353,"Free WiFi, Air Conditioning, 24/7 Front Desk",Budget,+91-6357-572904,info@myspaceex.com,https://www.myspaceexpress.com,,3.3,156,,14:00,12:00,"Standard Room, Deluxe Room",OpenStreetMap
Sri Devi Lodge,Bangalore,Karnataka,,,,,12.9899117,77.5532573,"Free WiFi, Air Conditioning, 24/7 Front Desk",Budget,+91-6379-507130,info@sridevil.com,https://www.sridevilodge.com,,4.0,477,,14:00,12:00,"Standard Room, Deluxe Room",OpenStreetMap
Aryan Residency,Bangalore,Karnataka,,,,,12.9899326,77.5527397,"Free WiFi, Air Conditioning, 24/7 Front Desk",Budget,+91-9957-438563,info@aryanresi.com,https://www.aryanresidency.com,,4.1,356,,14:00,12:00,"Standard Room, Deluxe Room",OpenStreetMap
Treebo Hotel Worldtree Bellandur,Bangalore,Karnataka,,,,,12.9259979,77.6708823,"Free WiFi, Air Conditioning, 24/7 Front Desk",Budget,+91-8416-588440,info@treebohot.com,https://www.treebohotelwo.com,,3.2,359,,14:00,12:00,"Standard Room, Deluxe Room",OpenStreetMap
Lalithamahal,Bangalore,Karnataka,,,,,12.9716633,77.5726981,"Free WiFi, Air Conditioning, 24/7 Front Desk",Budget,+91-8927-418839,info@lalithamah.com,https://www.lalithamahal.com,,3.4,309,,14:00,12:00,"Standard Room, Deluxe Room",OpenStreetMap
Chaitanya PG for gents,Bangalore,Karnataka,Thirumenahalli Main Road,,,,13.0890233,77.6344376,"Free WiFi, Air Conditioning, 24/7 Front Desk",Budget,+91-6612-134630,info@chaitanya.com,https://www.chaitanyapgfo.com,,4.0,352,,14:00,12:00,"Standard Room, Deluxe Room",OpenStreetMap
Fab Hotel,Bangalore,Karnataka,,,,,12.9648679,77.7016525,"Free WiFi, Air Conditioning, 24/7 Front Desk",Budget,+91-7882-194967,info@fabhotel.com,https://www.fabhotel.com,,3.6,171,,14:00,12:00,"Standard Room, Deluxe Room",OpenStreetMap
Madhu Lodge,Bangalore,Karnataka,B.V.K. Iyengar Road,,,,12.9711847,77.5763869,"Free WiFi, Air Conditioning, 24/7 Front Desk",Budget,+91-9462-616473,info@madhulodg.com,https://www.madhulodge.com,,3.8,484,,14:00,12:00,"Standard Room, Deluxe Room",OpenStreetMap
Danveer Sheth kapurchand rajmalji Jain shwetamber dharmshala,Bangalore,Karnataka,,,,,12.9693715,77.5769148,"Free WiFi, Air Conditioning, 24/7 Front Desk",Budget,+91-7657-809545,info@danveersh.com,https://www.danveershethk.com,,3.9,148,,14:00,12:00,"Standard Room, Deluxe Room",OpenStreetMap
Celestial Heights,Bangalore,Karnataka,"Outer Ring Road, Bengaluru",,,,12.9340481,77.5344673,"Free WiFi, Air Conditioning, 24/7 Front Desk",Budget,+91-6266-178066,info@celestial.com,https://www.celestialheigh.com,,3.6,410,,14:00,12:00,"Standard Room, Deluxe Room",OpenStreetMap
Hotel Bangalore Gate,Bangalore,Karnataka,"9, 12, Kempe Gowda Road, Bangalore",,,,12.9735807,77.5794876,"Free WiFi, Air Conditioning, 24/7 Front Desk",Budget,+91-9945333999,book@hotelbangaloregate.com,https://www.hotelbangaloregate.com,,3.7,378,,14:00,12:00,"Standard Room, Deluxe Room",OpenStreetMap
Monarch Hotel,Bangalore,Karnataka,,,,,12.9727609,77.6073763,"Free WiFi, Air Conditioning, 24/7 Front Desk",Budget,+91-9275-721662,info@monarchho.com,https://www.monarchhotel.com,,4.2,215,,14:00,12:00,"Standard Room, Deluxe Room",OpenStreetMap
OYO 13120 Ambrosia,Bangalore,Karnataka,"Saii Baba Temple Road, Bangalore",,,,12.949846,77.715858,Internet,Budget,+91-7855-422050,info@oyo13120.com,https://www.oyo13120ambro.com,,3.9,109,,14:00,12:00,"Standard Room, Deluxe Room",OpenStreetMap
Holiday Inn Express,Bangalore,Karnataka,Railway Parcel Road,,,,13.0251512,77.548137,"Free WiFi, Air Conditioning, 24/7 Front Desk",Budget,+91-6908-565491,info@holidayin.com,https://www.holidayinnexp.com,,3.4,128,,14:00,12:00,"Standard Room, Deluxe Room",OpenStreetMap
Radisson City Center,Bangalore,Karnataka,,4,,,12.9764637,77.6196256,Air Conditioning,Budget,+91-6104-142987,info@radissonc.com,https://www.radissoncityc.com,,3.8,198,,14:00,12:00,"Standard Room, Deluxe Room",OpenStreetMap
Utse Suites,Bangalore,Karnataka,"73, Kamaraj Road, Bangalore",,,,12.9849136,77.6115895,"Free WiFi, Air Conditioning, 24/7 Front Desk",Budget,+91-8668-482549,info@utsesuite.com,https://utsesuites.com/,,4.1,239,,14:00,12:00,"Standard Room, Deluxe Room",OpenStreetMap
Sree Ganesha Juice And Ice Cream,Bangalore,Karnataka,,,,,13.0695006,77.5039562,"Free WiFi, Air Conditioning, 24/7 Front Desk",Budget,+91-9558-182753,info@sreeganes.com,https://www.sreeganeshaju.com,,3.3,21,,14:00,12:00,"Standard Room, Deluxe Room",OpenStreetMap
JK Tyre & Industries Limited - Transit House,Bangalore,Karnataka,"65, Cunningham Road Cross",,,,12.9876873,77.5929824,"Free WiFi, Air Conditioning, 24/7 Front Desk",Budget,08022260331,info@jktyre.com,https://www.jktyreindus.com,,3.5,79,,14:00,12:00,"Standard Room, Deluxe Room",OpenStreetMap
New Brindavan Hotel,Bangalore,Karnataka,ITI Colony,,,,13.0076876,77.6836853,"Free WiFi, Air Conditioning, 24/7 Front Desk",Budget,+91-9980-765646,info@newbrinda.com,https://www.newbrindavanh.com,,3.9,86,,14:00,12:00,"Standard Room, Deluxe Room",OpenStreetMap
The Jamun,Bangalore,Karnataka,"521, 2nd Main, Bengaluru",,,,13.036702,77.5699098,"Free WiFi, Air Conditioning, 24/7 Front Desk",Budget,+91 80 2351 6403,office@thejamun.com,https://thejamun.com/,,4.0,227,,14:00,12:00,"Standard Room, Deluxe Room",OpenStreetMap
Naidu Palace,Bangalore,Karnataka,,,,,12.98714,77.5494285,"Free WiFi, Air Conditioning, 24/7 Front Desk, Spa, Pool, Gym, Restaurant, Room Service",Luxury,+91-8656-677017,info@naidupala.com,https://www.naidupalace.com,,4.6,20,,14:00,12:00,"Standard Room, Deluxe Room, Suite, Executive Room",OpenStreetMap
Sion PG,Bangalore,Karnataka,,,,,12.9154137,77.6106349,"Free WiFi, Air Conditioning, 24/7 Front Desk",Budget,+91-7226-784823,info@sionpg.com,https://www.sionpg.com,,3.3,421,,14:00,12:00,"Standard Room, Deluxe Room",OpenStreetMap
Kalpavriksha Upahar,Bangalore,Karnataka,,,,,12.921283,77.5932645,"Free WiFi, Air Conditioning, 24/7 Front Desk",Budget,+91-7077-750562,info@kalpavriks.com,https://www.kalpavrikshaup.com,,3.9,200,,14:00,12:00,"Standard Room, Deluxe Room",OpenStreetMap
Bhagini Pavilion,Bangalore,Karnataka,,,,,13.1449237,77.5701445,"Free WiFi, Air Conditioning, 24/7 Front Desk",Budget,+91-7103-753381,info@bhaginipa.com,https://www.bhaginipavilio.com,,3.7,296,,14:00,12:00,"Standard Room, Deluxe Room",OpenStreetMap
Galaxy Suites,Bangalore,Karnataka,,,,,13.0279389,77.5617921,"Free WiFi, Air Conditioning, 24/7 Front Desk",Budget,+91-9734-503966,info@galaxysui.com,https://www.galaxysuites.com,,3.2,462,,14:00,12:00,"Standard Room, Deluxe Room",OpenStreetMap
Four Seasons Hotel,Bangalore,Karnataka,"8, Bellary Road, Bangalore",,,,13.0191154,77.5851502,"Free WiFi, Air Conditioning, 24/7 Front Desk",Budget,+91 (080) 4522-2222,info@fourseaso.com,https://fourseasons.com/bengaluru/,,3.6,391,,14:00,12:00,"Standard Room, Deluxe Room",OpenStreetMap
H K Residency,Bangalore,Karnataka,,,,,12.9883253,77.5497463,"Free WiFi, Air Conditioning, 24/7 Front Desk",Budget,+91-8230-379542,info@hkreside.com,https://www.hkresidency.com,,3.3,246,,14:00,12:00,"Standard Room, Deluxe Room",OpenStreetMap
Navya Residency,Bangalore,Karnataka,,,,,12.9902802,77.5504638,"Free WiFi, Air Conditioning, 24/7 Front Desk",Budget,+91-9441-492966,info@navyaresi.com,https://www.navyaresidency.com,,4.0,195,,14:00,12:00,"Standard Room, Deluxe Room",OpenStreetMap
The Grand Coral,Bangalore,Karnataka,,,,,12.996571,77.5508266,"Free WiFi, Air Conditioning, 24/7 Front Desk, Spa, Pool, Gym, Restaurant, Room Service",Luxury,+91-6288-794330,info@thegrand.com,https://www.thegrandcoral.com,,4.4,158,,14:00,12:00,"Standard Room, Deluxe Room, Suite, Executive Room",OpenStreetMap
Mathrushree Residency,Bangalore,Karnataka,,,,,12.9899013,77.5533586,"Free WiFi, Air Conditioning, 24/7 Front Desk",Budget,+91-9373-299302,info@mathrushre.com,https://www.mathrushreeres.com,,3.7,375,,14:00,12:00,"Standard Room, Deluxe Room",OpenStreetMap
Olivia Inn & Suites,Bangalore,Karnataka,,,,,12.9235417,77.6185557,"Free WiFi, Air Conditioning, 24/7 Front Desk",Budget,+91-8024-553815,info@oliviainn.com,https://www.oliviainnsu.com,,3.9,65,,14:00,12:00,"Standard Room, Deluxe Room",OpenStreetMap
Kengiri,Bangalore,Karnataka,,,,,12.9924782,77.5984472,"Free WiFi, Air Conditioning, 24/7 Front Desk",Budget,+91-6632-111735,info@kengiri.com,https://www.kengiri.com,,3.4,447,,14:00,12:00,"Standard Room, Deluxe Room",OpenStreetMap
The Chevron,Bangalore,Karnataka,,,,,12.983268,77.5941621,"Free WiFi, Air Conditioning, 24/7 Front Desk",Budget,+91-9700-620613,info@thechevro.com,https://www.thechevron.com,,3.5,205,,14:00,12:00,"Standard Room, Deluxe Room",OpenStreetMap
Woke,Bangalore,Karnataka,,,,,12.9778932,77.6444166,"Free WiFi, Air Conditioning, 24/7 Front Desk",Budget,+91-9315-419253,info@woke.com,https://www.woke.com,,4.2,332,,14:00,12:00,"Standard Room, Deluxe Room",OpenStreetMap
SUPREME HOTEL,Bangalore,Karnataka,,,,,13.0284821,77.5199844,"Free WiFi, Air Conditioning, 24/7 Front Desk",Budget,+91-8061-158106,info@supremeho.com,https://www.supremehotel.com,,3.5,471,,14:00,12:00,"Standard Room, Deluxe Room",OpenStreetMap
Ayra Hotel,Bangalore,Karnataka,,,,,12.9899167,77.5735756,"Free WiFi, Air Conditioning, 24/7 Front Desk",Budget,+91-9372-562844,info@ayrahotel.com,https://www.ayrahotel.com,,3.7,70,,14:00,12:00,"Standard Room, Deluxe Room",OpenStreetMap
Vijayalakshmi Residency,Bangalore,Karnataka,,,,,13.0219436,77.5536336,"Free WiFi, Air Conditioning, 24/7 Front Desk",Budget,+91-7635-873946,info@vijayalaks.com,https://www.vijayalakshmir.com,,4.0,332,,14:00,12:00,"Standard Room, Deluxe Room",OpenStreetMap
Halcyon Hotel Residences,Bangalore,Karnataka,,,,,12.9361688,77.631568,"Free WiFi, Air Conditioning, 24/7 Front Desk",Budget,+91-6238-881549,info@halcyonho.com,https://www.halcyonhotelr.com,,3.8,342,,14:00,12:00,"Standard Room, Deluxe Room",OpenStreetMap
HLV Grand Inn,Bangalore,Karnataka,Beṅgaḷūru,,,,12.9784414,77.5762946,"Free WiFi, Air Conditioning, 24/7 Front Desk, Spa, Pool, Gym, Restaurant, Room Service",Luxury,+919845071032,info@hlvgrand.com,https://www.hlvgrandinn.com,,4.6,201,,14:00,12:00,"Standard Room, Deluxe Room, Suite, Executive Room",OpenStreetMap
Oxford Inn,Bangalore,Karnataka,"17-18, Museum Road, Bangalore",,,,12.9723309,77.604513,"Free WiFi, Air Conditioning, 24/7 Front Desk",Budget,+91 80 4530 4530,enquiry@oxfordinn.in,https://oxfordinn.in/,,3.8,475,,14:00,12:00,"Standard Room, Deluxe Room",OpenStreetMap
Casa Cottage,Bangalore,Karnataka,"2, Clapham Street",,,,12.9643604,77.6041802,"Free WiFi, Air Conditioning, 24/7 Front Desk",Budget,+91 98440 19710,casacottage@gmail.com,https://www.casacottage.com/,,3.6,469,,14:00,12:00,"Standard Room, Deluxe Room",OpenStreetMap
Hotel Citadel,Bangalore,Karnataka,,,,,12.9809954,77.5751603,"Free WiFi, Air Conditioning, 24/7 Front Desk",Budget,+91-6708-995576,info@hotelcita.com,https://www.hotelcitadel.com,,3.6,146,,14:00,12:00,"Standard Room, Deluxe Room",OpenStreetMap
OYO Townhouse 264,Bangalore,Karnataka,,,,,12.9134318,77.6054041,"Free WiFi, Air Conditioning, 24/7 Front Desk",Budget,+91-6570-648228,info@oyotownho.com,https://www.oyotownhouse2.com,,3.8,75,,14:00,12:00,"Standard Room, Deluxe Room",OpenStreetMap
Laika Boutique Stay,Bangalore,Karnataka,,,,,12.9705614,77.6167908,"Free WiFi, Air Conditioning, 24/7 Front Desk",Budget,+91-9758-201662,info@laikabout.com,https://www.laikaboutique.com,,3.7,72,,14:00,12:00,"Standard Room, Deluxe Room",OpenStreetMap
Golden Lotus,Bangalore,Karnataka,,,,,12.971156,77.6171355,"Free WiFi, Air Conditioning, 24/7 Front Desk",Budget,+91-6494-912615,info@goldenlot.com,https://www.goldenlotus.com,,3.7,477,,14:00,12:00,"Standard Room, Deluxe Room",OpenStreetMap
Octave Hotel,Bangalore,Karnataka,,,,,12.9599329,77.5933074,"Free WiFi, Air Conditioning, 24/7 Front Desk",Budget,+91-8855-742117,info@octavehot.com,https://www.octavehotel.com,,3.8,33,,14:00,12:00,"Standard Room, Deluxe Room",OpenStreetMap
Hotel Sree Nandanam Residency,Bangalore,Karnataka,"1st phase, #11, Mathikere Main Road, Next to LIC Office, Gokula 1st stage, HMT Layout, Yeshwantpur, Bengaluru, Karnataka -560054",,,,13.0292753,77.5591419,"Free WiFi, Air Conditioning, 24/7 Front Desk",Budget,+919141536410,info@hotelsree.com,https://www.hotelsreenand.com,,3.5,248,,14:00,12:00,"Standard Room, Deluxe Room",OpenStreetMap
Udupi upahar,Bangalore,Karnataka,,,,,13.0534758,77.5753819,"Free WiFi, Air Conditioning, 24/7 Front Desk",Budget,+91-6813-650983,info@udupiupah.com,https://www.udupiupahar.com,,4.2,47,,14:00,12:00,"Standard Room, Deluxe Room",OpenStreetMap
Srinidhi Hotel,Bangalore,Karnataka,,,,,12.8929817,77.4586961,"Free WiFi, Air Conditioning, 24/7 Front Desk",Budget,+91-7323-639154,info@srinidhih.com,https://www.srinidhihotel.com,,3.7,61,,14:00,12:00,"Standard Room, Deluxe Room",OpenStreetMap
Hotel Ashoka,Bangalore,Karnataka,,,,,12.9854725,77.6070269,"Free WiFi, Air Conditioning, 24/7 Front Desk",Budget,+91-6008-558747,info@hotelasho.com,https://www.hotelashoka.com,,4.2,483,,14:00,12:00,"Standard Room, Deluxe Room",OpenStreetMap
Central Government Touring Officers Guest House,Bangalore,Karnataka,,,,,12.9594735,77.6393375,"Free WiFi, Air Conditioning, 24/7 Front Desk",Budget,+91-9764-558498,info@centralgo.com,https://www.centralgovernm.com,,3.4,230,,14:00,12:00,"Standard Room, Deluxe Room",OpenStreetMap
Astra Hotels and Suits,Bangalore,Karnataka,,,,,12.9229069,77.6513844,"Free WiFi, Air Conditioning, 24/7 Front Desk",Budget,+91-8191-837560,info@astrahote.com,https://www.astrahotelsan.com,,3.7,448,,14:00,12:00,"Standard Room, Deluxe Room",OpenStreetMap
Regenta Inn Grand,Bangalore,Karnataka,,,,,12.943185,77.6213595,"Free WiFi, Air Conditioning, 24/7 Front Desk, Spa, Pool, Gym, Restaurant, Room Service",Luxury,+91-7517-686086,info@regentain.com,https://www.royalorchidhotels.com/regenta-inn-grand-koramangala-bengaluru/contact-us,,4.1,173,,14:00,12:00,"Standard Room, Deluxe Room, Suite, Executive Room",OpenStreetMap
Hotel Madhu,Bangalore,Karnataka,,,,,12.9836966,77.5493494,"Free WiFi, Air Conditioning, 24/7 Front Desk",Budget,+91-9003-106048,info@hotelmadh.com,https://www.hotelmadhu.com,,3.7,476,,14:00,12:00,"Standard Room, Deluxe Room",OpenStreetMap
Royal Comforts PG,Bangalore,Karnataka,,,,,12.9413521,77.6277788,"Free WiFi, Air Conditioning, 24/7 Front Desk",Budget,+91-8374-578472,info@royalcomf.com,https://www.royalcomforts.com,,4.0,112,,14:00,12:00,"Standard Room, Deluxe Room",OpenStreetMap
The Liverpool Hotels,Bangalore,Karnataka,,,,,12.9747329,77.6971865,"Free WiFi, Air Conditioning, 24/7 Front Desk",Budget,+918068222666,info@theliverp.com,https://www.theliverpoolhotels.com,,3.3,217,,14:00,12:00,"Standard Room, Deluxe Room",OpenStreetMap
Kamat’s Hotel Mayura,Bangalore,Karnataka,,,,,12.9820167,77.605782,"Free WiFi, Air Conditioning, 24/7 Front Desk",Budget,+91-6996-530030,info@kamatsho.com,https://www.kamatshotelm.com,,3.9,304,,14:00,12:00,"Standard Room, Deluxe Room",OpenStreetMap
Easy Stay,Bangalore,Karnataka,,,,,12.9408404,77.6275169,"Free WiFi, Air Conditioning, 24/7 Front Desk",Budget,+91-6760-407697,info@easystay.com,https://www.easystay.com,,4.1,479,,14:00,12:00,"Standard Room, Deluxe Room",OpenStreetMap
Ibis,Bangalore,Karnataka,,,,,13.040766,77.6195055,"Free WiFi, Air Conditioning, 24/7 Front Desk",Budget,+91-6665-323154,info@ibis.com,https://www.ibis.com,,3.4,197,,14:00,12:00,"Standard Room, Deluxe Room",OpenStreetMap
Le Foliage,Bangalore,Karnataka,,,,,12.9169645,77.5791794,"Free WiFi, Air Conditioning, 24/7 Front Desk",Budget,+91-9008-222969,info@lefoliage.com,https://www.lefoliage.com,,3.4,232,,14:00,12:00,"Standard Room, Deluxe Room",OpenStreetMap
Palmtree,Bangalore,Karnataka,,,,,12.9793312,77.6291742,"Free WiFi, Air Conditioning, 24/7 Front Desk",Budget,+91-7707-915122,info@palmtree.com,https://www.palmtree.com,,3.6,107,,14:00,12:00,"Standard Room, Deluxe Room",OpenStreetMap
Shilton,Bangalore,Karnataka,,,,,12.9756154,77.6173406,"Free WiFi, Air Conditioning, 24/7 Front Desk",Budget,+91-9247-282210,info@shilton.com,https://www.shilton.com,,3.6,369,,14:00,12:00,"Standard Room, Deluxe Room",OpenStreetMap
Sri Udupi Parkk,Bangalore,Karnataka,,,,,12.9824346,77.7483784,"Free WiFi, Air Conditioning, 24/7 Front Desk",Budget,+91-8618-720239,info@sriudupi.com,https://www.sriudupiparkk.com,,3.4,309,,14:00,12:00,"Standard Room, Deluxe Room",OpenStreetMap
Pranam Comforts,Bangalore,Karnataka,,,,,12.9870772,77.5785393,"Free WiFi, Air Conditioning, 24/7 Front Desk",Budget,+91-9203-218704,info@pranamcom.com,https://www.pranamcomforts.com,,3.7,471,,14:00,12:00,"Standard Room, Deluxe Room",OpenStreetMap
DBrooks Elite Business Hotel,Bangalore,Karnataka,,,,,12.9610375,77.7137754,"Free WiFi, Air Conditioning, 24/7 Front Desk, Business Center, Meeting Rooms, Gym",Business,+91 9916810028,info@dbrooksel.com,https://dbrooks.in/,,4.2,228,,14:00,12:00,"Standard Room, Deluxe Room, Suite, Executive Room",OpenStreetMap
Air Avenue,Bangalore,Karnataka,,,,,13.1477961,77.6198015,"Free WiFi, Air Conditioning, 24/7 Front Desk",Budget,+91-9360-777934,info@airavenue.com,https://www.airavenue.com,,3.5,337,,14:00,12:00,"Standard Room, Deluxe Room",OpenStreetMap
Sports Icon Suites,Bangalore,Karnataka,25,,,,13.1477499,77.6204953,"Free WiFi, Air Conditioning, 24/7 Front Desk",Budget,+91-9053-955341,info@sportsico.com,https://www.sportsiconsui.com,,3.6,226,,14:00,12:00,"Standard Room, Deluxe Room",OpenStreetMap
Super Hotel O,Bangalore,Karnataka,,,,,12.9602164,77.7218029,"Free WiFi, Air Conditioning, 24/7 Front Desk",Budget,+91-6266-393408,info@superhote.com,https://www.superhotelo.com,,3.6,172,,14:00,12:00,"Standard Room, Deluxe Room",OpenStreetMap
Nestaway,Bangalore,Karnataka,,,,,12.9158426,77.6456594,"Free WiFi, Air Conditioning, 24/7 Front Desk",Budget,+91-7048-834941,info@nestaway.com,https://www.nestaway.com,,3.2,436,,14:00,12:00,"Standard Room, Deluxe Room",OpenStreetMap
Nahar Heritage Hotel,Bangalore,Karnataka,,,,,12.9711587,77.6006922,"Free WiFi, Air Conditioning, 24/7 Front Desk",Budget,+91-9071-306941,info@naharheri.com,https://www.naharheritage.com,,3.4,343,,14:00,12:00,"Standard Room, Deluxe Room",OpenStreetMap
Treebo Hotel Edge,Bangalore,Karnataka,,,,,12.9705889,77.6006124,"Free WiFi, Air Conditioning, 24/7 Front Desk",Budget,+91-6790-969563,info@treebohot.com,https://www.treebohoteled.com,,3.9,94,,14:00,12:00,"Standard Room, Deluxe Room",OpenStreetMap
Hotel Grand Seasons,Bangalore,Karnataka,,,,,13.0020778,77.66305,"Free WiFi, Air Conditioning, 24/7 Front Desk, Spa, Pool, Gym, Restaurant, Room Service",Luxury,+91-7255-948657,info@hotelgran.com,https://www.hotelgrandsea.com,,4.1,346,,14:00,12:00,"Standard Room, Deluxe Room, Suite, Executive Room",OpenStreetMap
Living Hub,Bangalore,Karnataka,,,,,12.9794641,77.6951644,Air Conditioning,Budget,+91-7851-842188,info@livinghub.com,https://www.livinghub.com,,3.4,349,,14:00,12:00,"Standard Room, Deluxe Room",OpenStreetMap
Udupi Krishna Grand,Bangalore,Karnataka,,,,,13.017598,77.6524891,"Free WiFi, Air Conditioning, 24/7 Front Desk, Spa, Pool, Gym, Restaurant, Room Service",Luxury,+91-6916-572245,info@udupikris.com,https://www.udupikrishnag.com,,4.4,32,,14:00,12:00,"Standard Room, Deluxe Room, Suite, Executive Room",OpenStreetMap
Pearl suites,Bangalore,Karnataka,,,,,12.9550861,77.6506473,"Free WiFi, Air Conditioning, 24/7 Front Desk",Budget,+91-7084-614317,info@pearlsuit.com,https://www.pearlsuites.com,,3.3,241,,14:00,12:00,"Standard Room, Deluxe Room",OpenStreetMap
Melange Astris,Bangalore,Karnataka,,,,,12.9648241,77.5985719,"Free WiFi, Air Conditioning, 24/7 Front Desk",Budget,+91-6203-345445,info@melangeas.com,https://www.melangeastris.com,,4.2,406,,14:00,12:00,"Standard Room, Deluxe Room",OpenStreetMap
Narayana Comforts,Bangalore,Karnataka,,,,,13.1048911,77.6003651,"Free WiFi, Air Conditioning, 24/7 Front Desk",Budget,+91-7108-519901,info@narayanac.com,https://www.narayanacomfor.com,,3.2,315,,14:00,12:00,"Standard Room, Deluxe Room",OpenStreetMap
Shreyas Residency,Bangalore,Karnataka,,,,,13.1045642,77.6001407,"Free WiFi, Air Conditioning, 24/7 Front Desk",Budget,+91-8876-217910,info@shreyasre.com,https://www.shreyasresiden.com,,3.6,56,,14:00,12:00,"Standard Room, Deluxe Room",OpenStreetMap
Hotel Runway Suites,Bangalore,Karnataka,,,,,12.9566329,77.7100815,"Free WiFi, Air Conditioning, 24/7 Front Desk",Budget,+91-7413-695987,info@hotelrunw.com,https://www.hotelrunwaysu.com,,3.8,473,,14:00,12:00,"Standard Room, Deluxe Room",OpenStreetMap
FabHotels,Bangalore,Karnataka,,,,,12.9690174,77.6361697,"Free WiFi, Air Conditioning, 24/7 Front Desk",Budget,+91-7275-175322,info@fabhotels.com,https://www.fabhotels.com,,3.8,286,,14:00,12:00,"Standard Room, Deluxe Room",OpenStreetMap
Attide biz,Bangalore,Karnataka,"31, 32, 33, E Block Extension,, 14th Main Rd, Sahakar Nagar, Byatarayanapura, Bengaluru",,,,13.0586077,77.5927247,"Free WiFi, Air Conditioning, 24/7 Front Desk",Budget,+919902000200,info@attidebiz.com,https://www.attidebiz.com,,3.5,123,,14:00,12:00,"Standard Room, Deluxe Room",OpenStreetMap
Astra Hotels,Bangalore,Karnataka,,,,,12.9773169,77.7250751,"Free WiFi, Air Conditioning, 24/7 Front Desk",Budget,+91-9883-853640,info@astrahote.com,https://www.astrahotels.com,,3.8,290,,14:00,12:00,"Standard Room, Deluxe Room",OpenStreetMap
Treebo Akshaya Bull Temple,Bangalore,Karnataka,,,,,12.9441289,77.5680437,"Free WiFi, Air Conditioning, 24/7 Front Desk",Budget,+91-8087-523642,info@treeboaks.com,https://www.treeboakshaya.com,,3.4,362,,14:00,12:00,"Standard Room, Deluxe Room",OpenStreetMap
Purple Inn,Bangalore,Karnataka,,,,,12.9709,77.7070266,"Free WiFi, Air Conditioning, 24/7 Front Desk",Budget,+91-9724-419608,info@purpleinn.com,https://www.purpleinn.com,,3.3,82,,14:00,12:00,"Standard Room, Deluxe Room",OpenStreetMap
Janardhan,Bangalore,Karnataka,,,,,12.9857927,77.5789851,"Free WiFi, Air Conditioning, 24/7 Front Desk",Budget,+91-8617-315343,info@janardhan.com,https://www.janardhan.com,,3.6,161,,14:00,12:00,"Standard Room, Deluxe Room",OpenStreetMap
Olive Jayanagar,Bangalore,Karnataka,,,,,12.9184255,77.5810973,"Free WiFi, Air Conditioning, 24/7 Front Desk",Budget,+91-7764-387996,info@olivejaya.com,https://www.olivejayanagar.com,,3.9,207,,14:00,12:00,"Standard Room, Deluxe Room",OpenStreetMap
Anarghya PG for Ladies,Bangalore,Karnataka,,,,,12.9142759,77.6127753,"Free WiFi, Air Conditioning, 24/7 Front Desk",Budget,+91-7765-823762,info@anarghyap.com,https://www.anarghyapgfor.com,,4.0,244,,14:00,12:00,"Standard Room, Deluxe Room",OpenStreetMap
FabExpress Oriental Suites,Bangalore,Karnataka,,,,,12.9130408,77.605488,"Free WiFi, Air Conditioning, 24/7 Front Desk",Budget,+91-7004-922032,info@fabexpress.com,https://www.fabexpressorie.com,,3.3,477,,14:00,12:00,"Standard Room, Deluxe Room",OpenStreetMap
Poornima Regency,Bangalore,Karnataka,,,,,12.9521048,77.5945294,"Free WiFi, Air Conditioning, 24/7 Front Desk",Budget,+91-6295-443153,info@poornimar.com,https://www.poornimaregenc.com,,3.4,227,,14:00,12:00,"Standard Room, Deluxe Room",OpenStreetMap
Perfect Ladies PG,Bangalore,Karnataka,,,,,12.9135755,77.603733,"Free WiFi, Air Conditioning, 24/7 Front Desk",Budget,+91-7425-219751,info@perfectla.com,https://www.perfectladies.com,,4.0,117,,14:00,12:00,"Standard Room, Deluxe Room",OpenStreetMap
Temple Tree Hotel,Bangalore,Karnataka,,,,,12.9479778,77.5946052,"Free WiFi, Air Conditioning, 24/7 Front Desk",Budget,+91-7429-684095,info@templetre.com,https://www.templetreehot.com,,3.4,110,,14:00,12:00,"Standard Room, Deluxe Room",OpenStreetMap
Floral Park Business Hotel,Bangalore,Karnataka,,,,,12.9447473,77.5968662,"Free WiFi, Air Conditioning, 24/7 Front Desk, Business Center, Meeting Rooms, Gym",Business,+91-8171-934201,info@floralpar.com,https://www.floralparkbus.com,,4.1,440,,14:00,12:00,"Standard Room, Deluxe Room, Suite, Executive Room",OpenStreetMap
Hotel Sarbhawal Residency,Bangalore,Karnataka,,,,,12.9565763,77.5922448,"Free WiFi, Air Conditioning, 24/7 Front Desk",Budget,+91-7668-246185,info@hotelsarb.com,https://www.hotelsarbhawal.com,,3.8,291,,14:00,12:00,"Standard Room, Deluxe Room",OpenStreetMap
Dreamz Lodge,Bangalore,Karnataka,,,,,12.9564473,77.5913961,"Free WiFi, Air Conditioning, 24/7 Front Desk",Budget,+91-9399-436017,info@dreamzlod.com,https://www.dreamzlodge.com,,4.0,168,,14:00,12:00,"Standard Room, Deluxe Room",OpenStreetMap
Hotel Raja Galaxy,Bangalore,Karnataka,,,,,12.9165478,77.5979007,"Free WiFi, Air Conditioning, 24/7 Front Desk",Budget,+91-6704-379067,info@hotelraja.com,https://www.hotelrajagala.com,,3.4,259,,14:00,12:00,"Standard Room, Deluxe Room",OpenStreetMap
Vovo premier hotel,Bangalore,Karnataka,,,,,12.9774811,77.5769604,"Free WiFi, Air Conditioning, 24/7 Front Desk",Budget,+91-9491-108193,info@vovopremi.com,https://www.vovopremierho.com,,3.9,427,,14:00,12:00,"Standard Room, Deluxe Room",OpenStreetMap
La Sera Grand,Bangalore,Karnataka,,,,,12.9361649,77.6216258,"Free WiFi, Air Conditioning, 24/7 Front Desk, Spa, Pool, Gym, Restaurant, Room Service",Luxury,+91-8045-208178,info@laseragr.com,https://www.laseragrand.com,,4.4,360,,14:00,12:00,"Standard Room, Deluxe Room, Suite, Executive Room",OpenStreetMap
SRS Suites,Bangalore,Karnataka,,,,,12.9375291,77.6176417,"Free WiFi, Air Conditioning, 24/7 Front Desk",Budget,+91-8009-589939,info@srssuites.com,https://www.srssuites.com,,3.5,127,,14:00,12:00,"Standard Room, Deluxe Room",OpenStreetMap
Patna Wale,Bangalore,Karnataka,,,,,12.9178452,77.6074222,"Free WiFi, Air Conditioning, 24/7 Front Desk",Budget,+91-9777-648144,info@patnawale.com,https://www.patnawale.com,,4.1,21,,14:00,12:00,"Standard Room, Deluxe Room",OpenStreetMap
Olive Richmond Circle,Bangalore,Karnataka,,,,,12.9667247,77.5947078,"Free WiFi, Air Conditioning, 24/7 Front Desk",Budget,+91-9701-569050,info@oliverich.com,https://www.oliverichmond.com,,4.1,260,,14:00,12:00,"Standard Room, Deluxe Room",OpenStreetMap
LIC VIP Guest House,Bangalore,Karnataka,,,,,12.966594,77.5948144,"Free WiFi, Air Conditioning, 24/7 Front Desk",Budget,+91-8297-840008,info@licvipgu.com,https://www.licvipguesth.com,,3.6,28,,14:00,12:00,"Standard Room, Deluxe Room",OpenStreetMap
Tiba Hotel,Bangalore,Karnataka,,,,,12.9739463,77.5700295,"Free WiFi, Air Conditioning, 24/7 Front Desk",Budget,+91-8186-252170,info@tibahotel.com,https://www.tibahotel.com,,3.6,50,,14:00,12:00,"Standard Room, Deluxe Room",OpenStreetMap
Brunton Heights,Bangalore,Karnataka,,,,,12.9703425,77.6145858,"Free WiFi, Air Conditioning, 24/7 Front Desk",Budget,+91-9611-267358,info@bruntonhe.com,https://www.bruntonheights.com,,3.2,409,,14:00,12:00,"Standard Room, Deluxe Room",OpenStreetMap
Fountain Tree,Bangalore,Karnataka,,,,,12.9107771,77.5993001,"Free WiFi, Air Conditioning, 24/7 Front Desk",Budget,+91-6562-795129,info@fountaint.com,https://www.fountaintree.com,,3.3,467,,14:00,12:00,"Standard Room, Deluxe Room",OpenStreetMap
Brindavana Lodge,Bangalore,Karnataka,,,,,12.9545333,77.5924067,Air Conditioning,Budget,+91-9569-244162,info@brindavana.com,https://www.brindavanalodg.com,,3.7,128,,14:00,12:00,"Standard Room, Deluxe Room",OpenStreetMap
Greenpark Bengaluru,Bangalore,Karnataka,,,,,12.9083896,77.6010602,"Free WiFi, Air Conditioning, 24/7 Front Desk",Budget,+91-8277-146355,info@greenpark.com,https://www.greenparkbenga.com,,3.7,110,,14:00,12:00,"Standard Room, Deluxe Room",OpenStreetMap
Sri Venkateshwara PG,Bangalore,Karnataka,,,,,12.9784836,77.6300026,"Free WiFi, Air Conditioning, 24/7 Front Desk",Budget,+91-6091-873668,info@srivenkat.com,https://www.srivenkateshwa.com,,3.4,397,,14:00,12:00,"Standard Room, Deluxe Room",OpenStreetMap
Adarsh Hamilton,Bangalore,Karnataka,,,,,12.9644349,77.5982536,"Free WiFi, Air Conditioning, 24/7 Front Desk",Budget,+91-9069-935605,info@adarshham.com,https://www.adarshhamilton.com,,3.7,42,,14:00,12:00,"Standard Room, Deluxe Room",OpenStreetMap
Hotel Fortuner Palace,Bangalore,Karnataka,,,,,12.9803053,77.5753071,"Free WiFi, Air Conditioning, 24/7 Front Desk, Spa, Pool, Gym, Restaurant, Room Service",Luxury,+91-8755-699819,info@hotelfort.com,https://www.hotelfortuner.com,,4.6,382,,14:00,12:00,"Standard Room, Deluxe Room, Suite, Executive Room",OpenStreetMap
Sandhya Residency,Bangalore,Karnataka,,,,,12.9795168,77.5748096,"Free WiFi, Air Conditioning, 24/7 Front Desk",Budget,+91-6975-762993,info@sandhyare.com,https://www.sandhyaresiden.com,,3.5,467,,14:00,12:00,"Standard Room, Deluxe Room",OpenStreetMap
Hotel Nest Rooms,Bangalore,Karnataka,,,,,12.9781312,77.5751887,"Free WiFi, Air Conditioning, 24/7 Front Desk",Budget,+91-9972-578911,info@hotelnest.com,https://www.hotelnestroom.com,,4.0,215,,14:00,12:00,"Standard Room, Deluxe Room",OpenStreetMap
Hotel Adora,Bangalore,Karnataka,,,,,12.977964,77.5752147,"Free WiFi, Air Conditioning, 24/7 Front Desk",Budget,+91-8509-847345,info@hotelador.com,https://www.hoteladora.com,,3.7,44,,14:00,12:00,"Standard Room, Deluxe Room",OpenStreetMap
Embassy Hotel,Bangalore,Karnataka,,,,,12.9783733,77.576356,"Free WiFi, Air Conditioning, 24/7 Front Desk",Budget,+91-7294-994615,info@embassyho.com,https://www.embassyhotel.com,,3.5,87,,14:00,12:00,"Standard Room, Deluxe Room",OpenStreetMap
Hotel Pawansree,Bangalore,Karnataka,,,,,12.9773382,77.5754024,"Free WiFi, Air Conditioning, 24/7 Front Desk",Budget,+91-8464-349733,info@hotelpawa.com,https://www.hotelpawansree.com,,4.0,194,,14:00,12:00,"Standard Room, Deluxe Room",OpenStreetMap
Starlive Co Living PG,Bangalore,Karnataka,,,,,12.905101,77.6119457,"Free WiFi, Air Conditioning, 24/7 Front Desk",Budget,+91 90191 60966,info@starlivec.com,https://www.starlivecoliv.com,,3.2,245,,14:00,12:00,"Standard Room, Deluxe Room",OpenStreetMap
Sri S Swami PG for Gents,Bangalore,Karnataka,,,,,12.9054456,77.6124051,"Free WiFi, Air Conditioning, 24/7 Front Desk",Budget,+91 90005 55475,info@srisswam.com,https://www.srisswamipg.com,,3.4,220,,14:00,12:00,"Standard Room, Deluxe Room",OpenStreetMap
Tierra Woods A Business Hotel,Bangalore,Karnataka,,,,,12.977412,77.6271225,"Free WiFi, Air Conditioning, 24/7 Front Desk, Business Center, Meeting Rooms, Gym",Business,+91-8410-283477,info@tierrawoo.com,https://www.tierrawoodsa.com,,4.2,183,,14:00,12:00,"Standard Room, Deluxe Room, Suite, Executive Room",OpenStreetMap
Modern Hotel,Bangalore,Karnataka,,,,,12.987215,77.5745717,"Free WiFi, Air Conditioning, 24/7 Front Desk",Budget,+91-6337-887884,info@modernhot.com,https://www.modernhotel.com,,4.1,168,,14:00,12:00,"Standard Room, Deluxe Room",OpenStreetMap
Kalyan Lodge,Bangalore,Karnataka,,,,,12.9886039,77.5743879,"Free WiFi, Air Conditioning, 24/7 Front Desk",Budget,+91-8334-173510,info@kalyanlod.com,https://www.kalyanlodge.com,,3.3,301,,14:00,12:00,"Standard Room, Deluxe Room",OpenStreetMap
Sri Ganesh Lodge,Bangalore,Karnataka,,,,,13.022564,77.552725,"Free WiFi, Air Conditioning, 24/7 Front Desk",Budget,+91-7772-306929,info@sriganesh.com,https://www.sriganeshlodg.com,,3.2,342,,14:00,12:00,"Standard Room, Deluxe Room",OpenStreetMap
Bangalore Residency,Bangalore,Karnataka,,,,,13.022011,77.553635,"Free WiFi, Air Conditioning, 24/7 Front Desk",Budget,+91-9066-693588,info@bangalore.com,https://www.bangaloreresid.com,,3.3,91,,14:00,12:00,"Standard Room, Deluxe Room",OpenStreetMap
Sky Inns,Bangalore,Karnataka,,,,,13.0220727,77.5536787,"Free WiFi, Air Conditioning, 24/7 Front Desk",Budget,+91 80 2990 0315,info@skyinns.com,https://www.skyinns.in,,3.2,298,,14:00,12:00,"Standard Room, Deluxe Room",OpenStreetMap
Karim's Delhi 6,Bangalore,Karnataka,,,,,12.913283,77.6366575,"Free WiFi, Air Conditioning, 24/7 Front Desk",Budget,+91-9045-660109,info@karimsde.com,https://www.karimsdelhi6.com,,3.5,297,,14:00,12:00,"Standard Room, Deluxe Room",OpenStreetMap
The Ventura Grand Hotel,Bangalore,Karnataka,,,,,13.054191,77.5084393,"Free WiFi, Air Conditioning, 24/7 Front Desk, Spa, Pool, Gym, Restaurant, Room Service",Luxury,+91-7339-907943,info@theventur.com,https://www.theventuragra.com,,4.4,425,,14:00,12:00,"Standard Room, Deluxe Room, Suite, Executive Room",OpenStreetMap
Velvette,Bangalore,Karnataka,,,,,12.9259511,77.6770405,"Free WiFi, Air Conditioning, 24/7 Front Desk",Budget,+91-6867-219871,info@velvette.com,https://www.velvette.com,,3.5,460,,14:00,12:00,"Standard Room, Deluxe Room",OpenStreetMap
Hypons Hotel,Bangalore,Karnataka,"1st cross, 1st block Koramangala",,,,12.925273,77.6345868,"Free WiFi, Air Conditioning, 24/7 Front Desk",Budget,+91-7774-887342,info@hyponshot.com,https://www.hyponshotel.com,,4.1,44,,14:00,12:00,"Standard Room, Deluxe Room",OpenStreetMap
Howard Johnson By Wyndham,Bangalore,Karnataka,,,,,13.0446641,77.6264389,"Free WiFi, Air Conditioning, 24/7 Front Desk",Budget,+91-7179-910280,info@howardjoh.com,https://www.howardjohnson.com,,3.4,386,,14:00,12:00,"Standard Room, Deluxe Room",OpenStreetMap
New Light Suites,Bangalore,Karnataka,,,,,12.9995618,77.6766252,"Free WiFi, Air Conditioning, 24/7 Front Desk",Budget,+91-6483-130630,info@newlight.com,https://www.newlightsuite.com,,4.0,460,,14:00,12:00,"Standard Room, Deluxe Room",OpenStreetMap
Oyo Sri Sai Guru Comforts,Bangalore,Karnataka,,,,,13.0591987,77.5925501,"Free WiFi, Air Conditioning, 24/7 Front Desk",Budget,+91-7602-207536,info@oyosrisa.com,https://www.oyosrisaigur.com,,3.2,402,,14:00,12:00,"Standard Room, Deluxe Room",OpenStreetMap
Sri Sai Suites,Bangalore,Karnataka,"133, Bengaluru",,,,12.8908703,77.6060528,"Free WiFi, Air Conditioning, 24/7 Front Desk",Budget,07899561261,info@srisaisu.com,https://www.treebo.com/hotels-in-bangalore/sri-sai-suites-churned-bannerghatta-main-road-2462/,,4.1,106,,14:00,12:00,"Standard Room, Deluxe Room",OpenStreetMap
Woody's,Bangalore,Karnataka,,,,,12.9164559,77.5914845,"Free WiFi, Air Conditioning, 24/7 Front Desk",Budget,+91-8580-230351,info@woodys.com,https://www.woodys.com,,3.7,287,,14:00,12:00,"Standard Room, Deluxe Room",OpenStreetMap
Olive by Embassy Group,Bangalore,Karnataka,,,,,12.9172625,77.6089283,"Free WiFi, Air Conditioning, 24/7 Front Desk",Budget,+91-8892-637794,info@olivebye.com,https://www.olivebyembass.com,,3.3,476,,14:00,12:00,"Standard Room, Deluxe Room",OpenStreetMap
Reside Inn,Bangalore,Karnataka,,,,,12.9611744,77.7134635,"Free WiFi, Air Conditioning, 24/7 Front Desk",Budget,+91-9686-740075,info@resideinn.com,https://www.resideinn.com,,3.7,49,,14:00,12:00,"Standard Room, Deluxe Room",OpenStreetMap
Wonder Stay Suite Rooms,Bangalore,Karnataka,,,,,12.9642942,77.7150513,"Free WiFi, Air Conditioning, 24/7 Front Desk",Budget,+91-9809-823823,info@wondersta.com,https://www.wonderstaysui.com,,3.6,155,,14:00,12:00,"Standard Room, Deluxe Room",OpenStreetMap
blrpods.com,Bangalore,Karnataka,,,,,12.9623355,77.7165652,"Free WiFi, Air Conditioning, 24/7 Front Desk",Budget,+91 72051 75999,info@blrpodsco.com,https://www.blrpodscom.com,,3.3,432,,14:00,12:00,"Standard Room, Deluxe Room",OpenStreetMap
Prakyathi,Bangalore,Karnataka,,,,,13.0970123,77.5880556,"Free WiFi, Air Conditioning, 24/7 Front Desk",Budget,+91-6294-842717,info@prakyathi.com,https://www.prakyathi.com,,3.5,113,,14:00,12:00,"Standard Room, Deluxe Room",OpenStreetMap
Ananya Comforts,Bangalore,Karnataka,7th Cross Road,,,,12.9295732,77.631965,"Free WiFi, Air Conditioning, 24/7 Front Desk",Budget,+91-6458-479110,info@ananyacom.com,https://www.ananyacomforts.com,,3.6,406,,14:00,12:00,"Standard Room, Deluxe Room",OpenStreetMap
Bel Air,Bangalore,Karnataka,,,,,12.9568542,77.7091393,"Free WiFi, Air Conditioning, 24/7 Front Desk",Budget,+91-9931-486126,info@belair.com,https://www.belair.com,,3.6,222,,14:00,12:00,"Standard Room, Deluxe Room",OpenStreetMap
Eyrie Nest,Bangalore,Karnataka,,,,,12.9207294,77.620094,"Free WiFi, Air Conditioning, 24/7 Front Desk",Budget,+91-8343-133964,info@eyrienest.com,https://www.eyrienest.com,,3.4,227,,14:00,12:00,"Standard Room, Deluxe Room",OpenStreetMap
Shanthi Rooms,Bangalore,Karnataka,,,,,12.9443025,77.5973,"Free WiFi, Air Conditioning, 24/7 Front Desk",Budget,+91-8033-530241,info@shanthiro.com,https://www.shanthirooms.com,,4.0,42,,14:00,12:00,"Standard Room, Deluxe Room",OpenStreetMap
The Porch Inn,Bangalore,Karnataka,,,,,12.9446454,77.5967137,Air Conditioning,Budget,+91-8861-140191,info@theporch.com,https://www.theporchinn.com,,3.9,219,,14:00,12:00,"Standard Room, Deluxe Room",OpenStreetMap
Tavizoe Stays,Bangalore,Karnataka,,,,,13.0013658,77.6237109,"Free WiFi, Air Conditioning, 24/7 Front Desk",Budget,+91-7800-628912,info@tavizoest.com,https://www.tavizoestays.com,,4.2,151,,14:00,12:00,"Standard Room, Deluxe Room",OpenStreetMap
Royal Keys,Bangalore,Karnataka,,,,,12.9644249,77.7157354,"Free WiFi, Air Conditioning, 24/7 Front Desk",Budget,+91-9317-756312,info@royalkeys.com,https://www.royalkeys.com,,3.3,87,,14:00,12:00,"Standard Room, Deluxe Room",OpenStreetMap
"Bloom Hotel, Richmond Road",Bangalore,Karnataka,,,,,12.9671589,77.6106158,Air Conditioning,Budget,+91-8216-660983,info@bloomhote.com,https://www.bloomhotelri.com,,3.7,438,,14:00,12:00,"Standard Room, Deluxe Room",OpenStreetMap
Hotel Aaccord,Bangalore,Karnataka,,,,,12.9150972,77.6001882,"Free WiFi, Air Conditioning, 24/7 Front Desk",Budget,+91-7936-751740,info@hotelaacc.com,https://www.hotelaaccord.com,,3.6,230,,14:00,12:00,"Standard Room, Deluxe Room",OpenStreetMap
Grand Country Stays,Bangalore,Karnataka,,,,,12.9152214,77.6001762,"Free WiFi, Air Conditioning, 24/7 Front Desk, Spa, Pool, Gym, Restaurant, Room Service",Luxury,+91-9827-740013,info@grandcoun.com,https://www.grandcountrys.com,,4.6,87,,14:00,12:00,"Standard Room, Deluxe Room, Suite, Executive Room",OpenStreetMap
Hotel Purple Brigade,Bangalore,Karnataka,Rest House Road,,,,12.9738833,77.6066721,"Free WiFi, Air Conditioning, 24/7 Front Desk",Budget,+91-9620-527678,info@hotelpurp.com,https://www.hotelpurplebr.com,,3.7,375,,14:00,12:00,"Standard Room, Deluxe Room",OpenStreetMap
Dream Hotel,Bangalore,Karnataka,,,,,12.9598265,77.6023759,"Free WiFi, Air Conditioning, 24/7 Front Desk",Budget,+91-6770-550459,info@dreamhote.com,https://www.dreamhotel.com,,4.0,274,,14:00,12:00,"Standard Room, Deluxe Room",OpenStreetMap
Aditya Colive,Bangalore,Karnataka,,,,,12.9665457,77.7171571,"Free WiFi, Air Conditioning, 24/7 Front Desk",Budget,+91-7092-657729,info@adityacol.com,https://www.adityacolive.com,,3.6,482,,14:00,12:00,"Standard Room, Deluxe Room",OpenStreetMap
Happy Living for Ladies,Bangalore,Karnataka,,,,,12.9664834,77.7171499,"Free WiFi, Air Conditioning, 24/7 Front Desk",Budget,+91-8151-559594,info@happylivi.com,https://www.happylivingfo.com,,4.0,394,,14:00,12:00,"Standard Room, Deluxe Room",OpenStreetMap
Hyde Park,Bangalore,Karnataka,,,,,13.0109453,77.5789338,"Free WiFi, Air Conditioning, 24/7 Front Desk",Budget,+91-6354-833634,info@hydepark.com,https://www.hydepark.com,,3.9,122,,14:00,12:00,"Standard Room, Deluxe Room",OpenStreetMap
Silver Key Hotel Rooms,Bangalore,Karnataka,,,,,13.0982579,77.5693033,"Free WiFi, Air Conditioning, 24/7 Front Desk",Budget,+91-9863-829785,info@silverkey.com,https://www.silverkeyhote.com,,3.3,160,,14:00,12:00,"Standard Room, Deluxe Room",OpenStreetMap
Paradise Living,Bangalore,Karnataka,"Site No - A1, Paradise layout, Mullur Road, Kodathi, Bengaluru, Bengaluru",,,,12.9085871,77.7270285,Internet,Budget,8951680579,info@paradisel.com,https://www.paradiseliving.com,,3.7,374,,14:00,12:00,"Standard Room, Deluxe Room",OpenStreetMap
Tranquil Inn,Bangalore,Karnataka,,,,,12.9258725,77.6695619,"Free WiFi, Air Conditioning, 24/7 Front Desk",Budget,+91-8206-578392,info@tranquili.com,https://www.tranquilinn.com,,3.2,74,,14:00,12:00,"Standard Room, Deluxe Room",OpenStreetMap
Ramanashree Brunton,Bangalore,Karnataka,,,,,12.9722804,77.6150856,"Free WiFi, Air Conditioning, 24/7 Front Desk",Budget,+91-9295-859510,info@ramanashre.com,https://www.ramanashreebru.com,,3.8,89,,14:00,12:00,"Standard Room, Deluxe Room",OpenStreetMap
Hotel AJ International,Bangalore,Karnataka,,,,,12.9815416,77.6048201,"Free WiFi, Air Conditioning, 24/7 Front Desk",Budget,+91-8901-985488,info@hotelaji.com,https://www.hotelajintern.com,,3.4,86,,14:00,12:00,"Standard Room, Deluxe Room",OpenStreetMap
Hotel Gowdru Mane,Bangalore,Karnataka,"22/A1, 80 Feet Rd, Valagerihalli, Subash Nagar, Kengeri Satellite Town, Bengaluru",,,,12.9249913,77.4846808,"Free WiFi, Air Conditioning, 24/7 Front Desk",Budget,+91-8767-834179,info@hotelgowd.com,https://www.hotelgowdruma.com,,4.2,287,,14:00,12:00,"Standard Room, Deluxe Room",OpenStreetMap
Hotel Gwen by Rivido,Bangalore,Karnataka,"895, MSRS Nagar, Vijaya Bank Layout, Bilekahalli, Bengaluru",,,,12.8907385,77.6099645,"Free WiFi, Air Conditioning, 24/7 Front Desk",Budget,+91-8022-507676,info@hotelgwen.com,https://www.rividohotels.in/m/gwen-by-rivido-bilekahalli/,,3.9,28,,14:00,12:00,"Standard Room, Deluxe Room",OpenStreetMap
Hotel Highsky,Bangalore,Karnataka,"1st Cross Rd, BEML Layout 6th Stage, BEML Layout, Brookefield, Bengaluru",,,,12.959972,77.7170562,"Free WiFi, Air Conditioning, 24/7 Front Desk",Budget,+91-6156-382409,info@hotelhigh.com,https://www.hotelhighsky.com,,3.5,354,,14:00,12:00,"Standard Room, Deluxe Room",OpenStreetMap
Brindavana Grand Hotel,Bangalore,Karnataka,,,,,12.9771116,77.5764106,"Free WiFi, Air Conditioning, 24/7 Front Desk, Spa, Pool, Gym, Restaurant, Room Service",Luxury,+91-8618-615968,info@brindavana.com,https://www.brindavanagran.com,,4.7,243,,14:00,12:00,"Standard Room, Deluxe Room, Suite, Executive Room",OpenStreetMap
Hotel Banyan Tree,Bangalore,Karnataka,,,,,13.0240406,77.5570922,"Free WiFi, Air Conditioning, 24/7 Front Desk",Budget,+91-9213-102407,info@hotelbany.com,https://www.hotelbanyantr.com,,4.2,44,,14:00,12:00,"Standard Room, Deluxe Room",OpenStreetMap
Leela Mansion,Bangalore,Karnataka,6th cross tavarekere main road,,,,12.9268189,77.6088028,"Free WiFi, Air Conditioning, 24/7 Front Desk, Spa, Pool, Gym, Restaurant, Room Service",Luxury,+91-7809-979362,info@leelamans.com,https://www.leelamansion.com,,4.2,329,,14:00,12:00,"Standard Room, Deluxe Room, Suite, Executive Room",OpenStreetMap
Hotel Dwaraka,Bangalore,Karnataka,,,,,12.9803129,77.5751582,"Free WiFi, Air Conditioning, 24/7 Front Desk",Budget,+91-9159-763202,info@hoteldwar.com,https://www.hoteldwaraka.com,,4.2,23,,14:00,12:00,"Standard Room, Deluxe Room",OpenStreetMap
The Bouvice,Bangalore,Karnataka,,,,,12.9321442,77.6331345,Air Conditioning,Budget,+91-8742-887411,info@thebouvic.com,https://www.thebouvice.com,,3.9,28,,14:00,12:00,"Standard Room, Deluxe Room",OpenStreetMap
The Anantaar,Bangalore,Karnataka,"Bannerghatta Road, Bangalore",,,,12.9137636,77.5995367,"Free WiFi, Air Conditioning, 24/7 Front Desk",Budget,+91-9903-847723,info@theananta.com,https://www.theanantaar.com,,3.7,209,,14:00,12:00,"Standard Room, Deluxe Room",OpenStreetMap
Hotel Royal Blooms,Bangalore,Karnataka,Whitefield Road,,,,12.9843483,77.7498546,"Free WiFi, Air Conditioning, 24/7 Front Desk",Budget,+91-7815-860179,info@hotelroya.com,https://www.hotelroyalblo.com,,3.2,390,,14:00,12:00,"Standard Room, Deluxe Room",OpenStreetMap
Leela Palace,Bangalore,Karnataka,,,,,12.9610224,77.6485355,"Free WiFi, Air Conditioning, 24/7 Front Desk, Spa, Pool, Gym, Restaurant, Room Service",Luxury,+91-8806-765758,info@leelapala.com,https://www.leelapalace.com,,4.3,349,,14:00,12:00,"Standard Room, Deluxe Room, Suite, Executive Room",OpenStreetMap
Crown Plaza Regency,Bangalore,Karnataka,,,,,13.0285247,77.635622,"Free WiFi, Air Conditioning, 24/7 Front Desk",Budget,+91-9762-666150,info@crownplaz.com,https://www.crownplazareg.com,,3.3,352,,14:00,12:00,"Standard Room, Deluxe Room",OpenStreetMap
The Lalit Ashok,Bangalore,Karnataka,"Kumara Krupa Road, High Grounds, Bangalore",5,,,12.9922954,77.5818863,"Internet, Air Conditioning",Budget,+918030527777,resvblr@thelalit.com,https://www.thelalit.com/,,3.7,328,,14:00,12:00,"Standard Room, Deluxe Room",OpenStreetMap
Taj West End,Bangalore,Karnataka,"Race Course Road, Bengaluru",5,,,12.9857849,77.5848345,Internet,Luxury,+91 080 66605660,westend.bangalore@tajhotels.com,https://www.tajhotels.com/en-in/taj/taj-west-end-bengaluru,,4.4,85,,14:00,12:00,"Standard Room, Deluxe Room, Suite, Executive Room",OpenStreetMap
Hotel Paraag,Bangalore,Karnataka,Dr B R Ambedkar Veedhi,,,,12.9824783,77.5945234,"Free WiFi, Air Conditioning, 24/7 Front Desk",Budget,+91-7754-824279,info@hotelpara.com,https://www.hotelparaag.com,,3.5,172,,14:00,12:00,"Standard Room, Deluxe Room",OpenStreetMap
ITC Gardenia Royal,Bangalore,Karnataka,"1, Residency Road",,,,12.9671208,77.5957228,"Free WiFi, Air Conditioning, 24/7 Front Desk",Budget,+91-7219-207664,info@itcgarden.com,https://www.itcgardeniaro.com,,3.3,209,,14:00,12:00,"Standard Room, Deluxe Room",OpenStreetMap
JW Marriott,Bangalore,Karnataka,,,,,12.9723552,77.5949114,Air Conditioning,Budget,+91-6770-874936,info@jwmarriot.com,https://www.jwmarriott.com,,4.1,473,,14:00,12:00,"Standard Room, Deluxe Room",OpenStreetMap
Transtree Corporate Guest Houses,Bangalore,Karnataka,,,,,12.9633777,77.7169385,"Free WiFi, Air Conditioning, 24/7 Front Desk, Business Center, Meeting Rooms, Gym",Business,+91-9458-946449,info@transtree.com,https://www.transtreecorpo.com,,4.4,73,,14:00,12:00,"Standard Room, Deluxe Room, Suite, Executive Room",OpenStreetMap
