hotel_name,city,state,address,star_rating,price_per_night,price_range,latitude,longitude,amenities,hotel_type,phone_number,email,website,booking_url,guest_rating,review_count,description,check_in_time,check_out_time,room_types,data_source
sri gavuri nivas,Thiruvananthapuram,Kerala,,,,,8.5231268,76.9297678,"Free WiFi, Air Conditioning, 24/7 Front Desk",Budget,+91-9000-890076,info@srigavuri.com,https://www.srigavuriniva.com,,3.9,154,,14:00,12:00,"Standard Room, Deluxe Room",OpenStreetMap
Uday Samudra,Thiruvananthapuram,Kerala,,,,,8.4014875,76.9724317,"Free WiFi, Air Conditioning, 24/7 Front Desk",Budget,+91-7227-878088,info@udaysamud.com,https://www.udaysamudra.com,,3.5,414,,14:00,12:00,"Standard Room, Deluxe Room",OpenStreetMap
Samudra,Thiruvananthapuram,Kerala,,,,,8.4001231,76.9728292,"Free WiFi, Air Conditioning, 24/7 Front Desk",Budget,+91-8560-740976,info@samudra.com,https://www.ktdc.com/samudra/,,4.1,461,,14:00,12:00,"Standard Room, Deluxe Room",OpenStreetMap
Pankaj Hotel,Thiruvananthapuram,Kerala,,,,,8.4958271,76.9479098,"Free WiFi, Air Conditioning, 24/7 Front Desk",Budget,+91 471 2464645,info@pankajhot.com,http://www.pankajhotel.com/,,3.9,109,,14:00,12:00,"Standard Room, Deluxe Room",OpenStreetMap
Highland Park,Thiruvananthapuram,Kerala,,,,,8.4890801,76.9492938,"Free WiFi, Air Conditioning, 24/7 Front Desk",Budget,+91 471 2333200,info@highlandp.com,https://highland-hotels.com,,3.6,175,,14:00,12:00,"Standard Room, Deluxe Room",OpenStreetMap
Geeth,Thiruvananthapuram,Kerala,,,,,8.4943055,76.9471179,"Free WiFi, Air Conditioning, 24/7 Front Desk",Budget,+91-9808-510834,info@geeth.com,https://www.geeth.com,,4.1,347,,14:00,12:00,"Standard Room, Deluxe Room",OpenStreetMap
Swagath Holiday Resort,Thiruvananthapuram,Kerala,Kovalam,,,,8.3896073,76.9780008,"Free WiFi, Air Conditioning, 24/7 Front Desk, Pool, Restaurant, Gym, Spa",Resort,+91 999 508 8883,info@swagathho.com,https://swagathresorts.com/,,3.4,443,,14:00,12:00,"Standard Room, Deluxe Room",OpenStreetMap
Sea View Palace,Thiruvananthapuram,Kerala,,,,,8.3857644,76.9800524,"Free WiFi, Air Conditioning, 24/7 Front Desk, Spa, Pool, Gym, Restaurant, Room Service",Luxury,+91-9217-858029,info@seaviewp.com,https://www.seaviewpalace.com,,4.7,354,,14:00,12:00,"Standard Room, Deluxe Room, Suite, Executive Room",OpenStreetMap
Kovalam Beach,Thiruvananthapuram,Kerala,"Beach Road, Kovalam",,,,8.3908083,76.9751013,"Free WiFi, Air Conditioning, 24/7 Front Desk",Budget,+91-9604-490726,info@kovalambe.com,https://kovalambeachhotel.com,,3.4,84,,14:00,12:00,"Standard Room, Deluxe Room",OpenStreetMap
Linchu Ayurvedic Beach Resort,Thiruvananthapuram,Kerala,"Beach Road, Kovalam",,,,8.3881805,76.9778989,"Free WiFi, Air Conditioning, 24/7 Front Desk, Pool, Restaurant, Gym, Spa",Resort,+91 0471 2481010,drnishavinod@gmail.com,https://www.linchuayurvedi.com,,3.7,261,,14:00,12:00,"Standard Room, Deluxe Room",OpenStreetMap
Sea Rock,Thiruvananthapuram,Kerala,"Beach Road, Kovalam",,,,8.3881602,76.976694,"Free WiFi, Air Conditioning, 24/7 Front Desk",Budget,+91-7564-910321,info@searock.com,https://www.searock.com,,3.3,273,,14:00,12:00,"Standard Room, Deluxe Room",OpenStreetMap
Sea View,Thiruvananthapuram,Kerala,Kovalam,,,,8.3902619,76.9750666,"Free WiFi, Air Conditioning, 24/7 Front Desk",Budget,+91-8391-836197,info@seaview.com,https://www.seaview.com,,3.2,25,,14:00,12:00,"Standard Room, Deluxe Room",OpenStreetMap
University Guesthouse,Thiruvananthapuram,Kerala,,,,,8.5620083,76.8837431,"Free WiFi, Air Conditioning, 24/7 Front Desk",Budget,+91-8978-594369,info@university.com,https://www.universitygues.com,,3.6,134,,14:00,12:00,"Standard Room, Deluxe Room",OpenStreetMap
Kukies Holiday Inn,Thiruvananthapuram,Kerala,,,,,8.4923643,76.947108,"Free WiFi, Air Conditioning, 24/7 Front Desk",Budget,+91-9210-697276,info@kukieshol.com,https://www.kukiesholiday.com,,3.7,220,,14:00,12:00,"Standard Room, Deluxe Room",OpenStreetMap
Raj Mahal,Thiruvananthapuram,Kerala,,,,,8.4830447,76.9386652,"Free WiFi, Air Conditioning, 24/7 Front Desk",Budget,+91-8387-486645,info@rajmahal.com,https://www.rajmahal.com,,3.2,41,,14:00,12:00,"Standard Room, Deluxe Room",OpenStreetMap
Rose Tourist Home,Thiruvananthapuram,Kerala,,,,,8.475198,76.9186927,"Free WiFi, Air Conditioning, 24/7 Front Desk",Budget,+91-7631-963097,info@rosetouri.com,https://www.rosetouristho.com,,3.9,178,,14:00,12:00,"Standard Room, Deluxe Room",OpenStreetMap
Sunday Bed & Breakfast,Thiruvananthapuram,Kerala,,,,,8.4749666,76.9191165,"Free WiFi, Air Conditioning, 24/7 Front Desk",Budget,+91-8132-358842,info@sundaybed.com,https://www.sundaybedbr.com,,3.7,258,,14:00,12:00,"Standard Room, Deluxe Room",OpenStreetMap
Govt. PWD Rest House,Thiruvananthapuram,Kerala,,,,,8.4922134,76.959032,"Free WiFi, Air Conditioning, 24/7 Front Desk",Budget,+91-6048-459372,info@govtpwd.com,https://www.govtpwdrest.com,,3.7,282,,14:00,12:00,"Standard Room, Deluxe Room",OpenStreetMap
Dolphin,Thiruvananthapuram,Kerala,Kovalam,,,,8.3828146,76.9808543,"Free WiFi, Air Conditioning, 24/7 Front Desk",Budget,+91-6507-366001,info@dolphin.com,https://www.dolphin.com,,3.6,312,,14:00,12:00,"Standard Room, Deluxe Room",OpenStreetMap
Hotel Ya Ali,Thiruvananthapuram,Kerala,,,,,8.5735131,76.8684526,"Free WiFi, Air Conditioning, 24/7 Front Desk",Budget,+91-6416-905969,info@hotelyaa.com,https://www.hotelyaali.com,,3.4,466,,14:00,12:00,"Standard Room, Deluxe Room",OpenStreetMap
Unwind Hotels,Thiruvananthapuram,Kerala,,,,,8.3865214,76.9783481,"Free WiFi, Air Conditioning, 24/7 Front Desk",Budget,+91-8449-223841,info@unwindhot.com,https://www.unwindhotels.com,,3.4,326,,14:00,12:00,"Standard Room, Deluxe Room",OpenStreetMap
Sunrise,Thiruvananthapuram,Kerala,,,,,8.3887753,76.9784602,"Free WiFi, Air Conditioning, 24/7 Front Desk",Budget,+91-6067-485990,info@sunrise.com,https://www.sunrise.com,,3.4,480,,14:00,12:00,"Standard Room, Deluxe Room",OpenStreetMap
Sreelaksmi Holiday Inn,Thiruvananthapuram,Kerala,,,,,8.3887813,76.9785082,"Free WiFi, Air Conditioning, 24/7 Front Desk",Budget,+91-7750-264667,info@sreelaksmi.com,https://www.sreelaksmiholi.com,,3.5,108,,14:00,12:00,"Standard Room, Deluxe Room",OpenStreetMap
Hill and Sea View,Thiruvananthapuram,Kerala,,,,,8.3892704,76.979807,"Free WiFi, Air Conditioning, 24/7 Front Desk",Budget,+91-6926-777916,info@hillands.com,https://www.hillandseavi.com,,3.2,251,,14:00,12:00,"Standard Room, Deluxe Room",OpenStreetMap
Aruvi Tourist Home,Thiruvananthapuram,Kerala,,,,,8.5213409,76.9412677,"Free WiFi, Air Conditioning, 24/7 Front Desk",Budget,+91-471-2445751,info@aruvitour.com,https://www.aruvitouristh.com,,3.7,314,,14:00,12:00,"Standard Room, Deluxe Room",OpenStreetMap
Hotel Rock and Beach,Thiruvananthapuram,Kerala,,,,,8.3900425,76.9772867,"Free WiFi, Air Conditioning, 24/7 Front Desk",Budget,+91 471 2486677,info@hotelrock.com,http://www.hotelrocknbeach.com,,4.0,291,,14:00,12:00,"Standard Room, Deluxe Room",OpenStreetMap
Swapna Residency,Thiruvananthapuram,Kerala,"Statue - General Hospital Road, Thiruvananthapuram, Kerala",,,,8.4981827,76.9475547,"Free WiFi, Air Conditioning, 24/7 Front Desk",Budget,+91 471 247 6891,info@swapnares.com,http://swapnaresidency.in/,,4.1,370,,14:00,12:00,"Standard Room, Deluxe Room",OpenStreetMap
Cosmic Leisure Resort,Thiruvananthapuram,Kerala,"Light House Beach, Kovalam",,,,8.3875672,76.9773477,"Free WiFi, Air Conditioning, 24/7 Front Desk, Pool, Restaurant, Gym, Spa",Resort,+91-6299-457352,info@cosmiclei.com,https://www.cosmicleisure.com,,3.4,422,,14:00,12:00,"Standard Room, Deluxe Room",OpenStreetMap
Ganesh House,Thiruvananthapuram,Kerala,,,,,8.3988422,76.9749332,"Free WiFi, Air Conditioning, 24/7 Front Desk",Budget,+91 471 2484212,info@ganeshhou.com,http://theganeshhouse.com,,3.5,382,,14:00,12:00,"Standard Room, Deluxe Room",OpenStreetMap
Galaxy Inn,Thiruvananthapuram,Kerala,,,,,8.4844212,76.9523289,"Free WiFi, Air Conditioning, 24/7 Front Desk",Budget,+91-471-2576157,info@galaxyinn.com,https://www.hotelgalaxytvm.com/,,3.9,228,,14:00,12:00,"Standard Room, Deluxe Room",OpenStreetMap
Princess Inn,Thiruvananthapuram,Kerala,Manjalikulam Road,,,,8.4909753,76.9491337,"Free WiFi, Air Conditioning, 24/7 Front Desk",Budget,+91-4712339151,info@princessi.com,https://www.princessinn.com,,3.5,284,,14:00,12:00,"Standard Room, Deluxe Room",OpenStreetMap
Abhi's Cafe,Thiruvananthapuram,Kerala,,,,,8.3895002,76.9791788,Internet,Budget,+91-6772-367055,info@abhiscaf.com,https://www.abhiscafe.com,,3.3,330,,14:00,12:00,"Standard Room, Deluxe Room",OpenStreetMap
Vedanta wake up,Thiruvananthapuram,Kerala,,,,,8.3875758,76.9786949,"Free WiFi, Air Conditioning, 24/7 Front Desk",Budget,+91-9065-617374,info@vedantawa.com,https://www.vedantawakeup.com,,3.4,121,,14:00,12:00,"Standard Room, Deluxe Room",OpenStreetMap
Moon Valley Cottage,Thiruvananthapuram,Kerala,,,,,8.3874582,76.9786628,"Free WiFi, Air Conditioning, 24/7 Front Desk",Budget,+91-7869-697377,info@moonvalle.com,https://www.moonvalleycot.com,,4.0,123,,14:00,12:00,"Standard Room, Deluxe Room",OpenStreetMap
Hotel Rohit,Thiruvananthapuram,Kerala,,,,,8.3862813,76.9802611,"Free WiFi, Air Conditioning, 24/7 Front Desk",Budget,+91-7056-561758,info@hotelrohi.com,https://www.hotelrohit.com,,3.3,474,,14:00,12:00,"Standard Room, Deluxe Room",OpenStreetMap
Hotel Greenland,Thiruvananthapuram,Kerala,,,,,8.386207,76.9803,"Free WiFi, Air Conditioning, 24/7 Front Desk",Budget,+91-8266-833921,info@hotelgree.com,https://www.hotelgreenland.com,,3.6,92,,14:00,12:00,"Standard Room, Deluxe Room",OpenStreetMap
Hotel Peacock,Thiruvananthapuram,Kerala,,,,,8.3854378,76.9810153,"Free WiFi, Air Conditioning, 24/7 Front Desk",Budget,+91-7825-831754,info@hotelpeac.com,https://www.hotelpeacock.com,,3.8,389,,14:00,12:00,"Standard Room, Deluxe Room",OpenStreetMap
Hawah Beach Resort,Thiruvananthapuram,Kerala,,,,,8.3865192,76.9815377,"Free WiFi, Air Conditioning, 24/7 Front Desk, Pool, Restaurant, Gym, Spa",Resort,+91-6842-405667,info@hawahbeac.com,https://www.hawahbeachres.com,,3.4,82,,14:00,12:00,"Standard Room, Deluxe Room",OpenStreetMap
Hotel California,Thiruvananthapuram,Kerala,,,,,8.3847933,76.9808301,"Free WiFi, Air Conditioning, 24/7 Front Desk",Budget,+91-9140-955822,info@hotelcali.com,https://www.hotelcaliforni.com,,4.1,444,,14:00,12:00,"Standard Room, Deluxe Room",OpenStreetMap
Blooms Beach Resort,Thiruvananthapuram,Kerala,,,,,8.3844152,76.9803647,"Free WiFi, Air Conditioning, 24/7 Front Desk, Pool, Restaurant, Gym, Spa",Resort,+91-7174-519147,info@bloomsbea.com,https://www.bloomsbeachre.com,,3.9,229,,14:00,12:00,"Standard Room, Deluxe Room",OpenStreetMap
Maharaju Palace,Thiruvananthapuram,Kerala,,,,,8.3843263,76.9805793,"Free WiFi, Air Conditioning, 24/7 Front Desk, Spa, Pool, Gym, Restaurant, Room Service",Luxury,+91 9946854270,info@maharajup.com,https://maharajupalace.com,,4.5,60,,14:00,12:00,"Standard Room, Deluxe Room, Suite, Executive Room",OpenStreetMap
Good Morning Residancy,Thiruvananthapuram,Kerala,,,,,8.3841034,76.9805927,"Free WiFi, Air Conditioning, 24/7 Front Desk",Budget,+91-6812-176726,info@goodmorni.com,https://www.goodmorningre.com,,3.6,99,,14:00,12:00,"Standard Room, Deluxe Room",OpenStreetMap
The Beach Hotel,Thiruvananthapuram,Kerala,,,,,8.3838022,76.9802051,"Free WiFi, Air Conditioning, 24/7 Front Desk",Budget,+91-8521-881322,info@thebeach.com,https://www.thebeachhotel.com,,4.1,292,,14:00,12:00,"Standard Room, Deluxe Room",OpenStreetMap
Patrick villa,Thiruvananthapuram,Kerala,,,,,8.3888024,76.9785763,"Free WiFi, Air Conditioning, 24/7 Front Desk",Budget,+91-8283-434926,info@patrickvi.com,https://www.patrickvilla.com,,4.0,360,,14:00,12:00,"Standard Room, Deluxe Room",OpenStreetMap
Jasmine Palace,Thiruvananthapuram,Kerala,,,,,8.388687,76.9777891,"Free WiFi, Air Conditioning, 24/7 Front Desk, Spa, Pool, Gym, Restaurant, Room Service",Luxury,+91-7813-937720,info@jasminepa.com,https://www.jasminepalace.com,,4.7,35,,14:00,12:00,"Standard Room, Deluxe Room, Suite, Executive Room",OpenStreetMap
Hotel Marine Palace,Thiruvananthapuram,Kerala,,,,,8.3885768,76.9771708,"Free WiFi, Air Conditioning, 24/7 Front Desk, Spa, Pool, Gym, Restaurant, Room Service",Luxury,+91 471 2481428,info@hotelmari.com,https://hotelmarinepalace.com/,,4.5,118,,14:00,12:00,"Standard Room, Deluxe Room, Suite, Executive Room",OpenStreetMap
Sea Shore Hotel and Restaurant,Thiruvananthapuram,Kerala,,,,,8.3874252,76.9766317,"Free WiFi, Air Conditioning, 24/7 Front Desk",Budget,+91-8708-919859,info@seashore.com,https://www.seashorehotel.com,,3.3,450,,14:00,12:00,"Standard Room, Deluxe Room",OpenStreetMap
Pappukutty,Thiruvananthapuram,Kerala,,,,,8.3865429,76.9777757,"Free WiFi, Air Conditioning, 24/7 Front Desk",Budget,+91-8093-562010,info@pappukutty.com,https://www.pappukutty.com,,3.6,277,,14:00,12:00,"Standard Room, Deluxe Room",OpenStreetMap
Coco Beach Resort and Spa,Thiruvananthapuram,Kerala,,,,,8.3872275,76.9785119,"Free WiFi, Air Conditioning, 24/7 Front Desk, Pool, Restaurant, Gym, Spa",Resort,+91-9526-812074,info@cocobeach.com,https://www.cocobeachreso.com,,3.8,325,,14:00,12:00,"Standard Room, Deluxe Room",OpenStreetMap
Dr.Unni's Nest,Thiruvananthapuram,Kerala,,,,,8.3871359,76.9801339,"Free WiFi, Air Conditioning, 24/7 Front Desk",Budget,+91-9963-347937,info@drunnis.com,http://www.unnidoc.com,,4.0,407,,14:00,12:00,"Standard Room, Deluxe Room",OpenStreetMap
Ashoka Inn,Thiruvananthapuram,Kerala,Kulathoor road,,,,8.5453275,76.8783102,"Free WiFi, Air Conditioning, 24/7 Front Desk",Budget,+91-8351-548239,info@ashokainn.com,https://www.ashokainn.com,,3.4,256,,14:00,12:00,"Standard Room, Deluxe Room",OpenStreetMap
Hotel Teekay Palace,Thiruvananthapuram,Kerala,,,,,8.4894416,76.953819,"Free WiFi, Air Conditioning, 24/7 Front Desk, Spa, Pool, Gym, Restaurant, Room Service",Luxury,+91-9955-791266,info@hotelteek.com,https://www.hotelteekaypa.com,,4.8,449,,14:00,12:00,"Standard Room, Deluxe Room, Suite, Executive Room",OpenStreetMap
Appollo Dimora,Thiruvananthapuram,Kerala,,,,,8.4888205,76.9510263,"Free WiFi, Air Conditioning, 24/7 Front Desk",Budget,+91-9289-604655,info@appollodi.com,https://www.appollodimora.com,,3.8,215,,14:00,12:00,"Standard Room, Deluxe Room",OpenStreetMap
Pattom Royal Hotel,Thiruvananthapuram,Kerala,,,,,8.5177832,76.9436289,"Free WiFi, Air Conditioning, 24/7 Front Desk",Budget,+91-6269-129835,info@pattomroy.com,https://www.pattomroyalho.com,,3.8,200,,14:00,12:00,"Standard Room, Deluxe Room",OpenStreetMap
Sandy Beach residence,Thiruvananthapuram,Kerala,,,,,8.3860851,76.9794182,"Free WiFi, Air Conditioning, 24/7 Front Desk",Budget,+91-6423-691753,info@sandybeac.com,https://www.sandybeachres.com,,4.0,316,,14:00,12:00,"Standard Room, Deluxe Room",OpenStreetMap
Hotel Sumangali,Thiruvananthapuram,Kerala,"1/857, Beach Road, Kovalam",3,,,8.3865377,76.9781814,"Free WiFi, Air Conditioning, 24/7 Front Desk",Budget,+91-8869-329839,jithinsumangali@gmail.com,https://www.hotelsumangali.com,,3.8,395,,14:00,12:00,"Standard Room, Deluxe Room",OpenStreetMap
Sagara Beach Resort,Thiruvananthapuram,Kerala,,,,,8.3836687,76.9815274,Internet,Resort,+91 471 3999 000,info@sagarakovalam.com,https://sagarakovalam.com,,3.5,126,,14:00,12:00,"Standard Room, Deluxe Room",OpenStreetMap
Hotel Ganga,Thiruvananthapuram,Kerala,,,,,8.5430659,76.8927777,"Free WiFi, Air Conditioning, 24/7 Front Desk",Budget,+91-9986-772314,info@hotelgang.com,https://www.hotelganga.com,,3.3,187,,14:00,12:00,"Standard Room, Deluxe Room",OpenStreetMap
Nutshell - An Airport Boutique by the Sea,Thiruvananthapuram,Kerala,"TC 34/34/1383/1, Lana Road, Trivandrum",,,,8.474616,76.9160146,Internet,Budget,+91-8023-392658,info@nutshell.com,https://www.nutshellana.com,,3.8,356,,14:00,12:00,"Standard Room, Deluxe Room",OpenStreetMap
Trivandrum lodge,Thiruvananthapuram,Kerala,,,,,8.4883275,76.9429832,"Free WiFi, Air Conditioning, 24/7 Front Desk",Budget,+91-9796-782261,info@trivandrum.com,https://www.trivandrumlodg.com,,3.6,205,,14:00,12:00,"Standard Room, Deluxe Room",OpenStreetMap
Rajaram Tourist Home,Thiruvananthapuram,Kerala,,,,,8.4911473,76.9540449,"Free WiFi, Air Conditioning, 24/7 Front Desk",Budget,+91-9241-188880,info@rajaramto.com,https://www.rajaramtourist.com,,3.9,94,,14:00,12:00,"Standard Room, Deluxe Room",OpenStreetMap
Rhada house,Thiruvananthapuram,Kerala,,,,,8.390817,76.9777936,"Free WiFi, Air Conditioning, 24/7 Front Desk",Budget,+91-9950-427661,info@rhadahous.com,https://www.rhadahouse.com,,3.3,375,,14:00,12:00,"Standard Room, Deluxe Room",OpenStreetMap
Windsor Rajadhani,Thiruvananthapuram,Kerala,"Hotel Windsor Rajadhani, Kowdiar Ambalamukku Rd., Thiruvananthapuram",,,,8.5284682,76.9605435,Internet,Budget,+91-6568-270493,info@windsorra.com,https://www.windsorrajadha.com,,3.4,366,,14:00,12:00,"Standard Room, Deluxe Room",OpenStreetMap
Goodland Residency,Thiruvananthapuram,Kerala,,,,,8.490431,76.9540647,"Free WiFi, Air Conditioning, 24/7 Front Desk",Budget,+91 471 2330005,info@goodlandr.com,http://goodlandresidency.com/,,4.1,320,,14:00,12:00,"Standard Room, Deluxe Room",OpenStreetMap
SM tourist home,Thiruvananthapuram,Kerala,,,,,8.4872548,76.9473237,"Free WiFi, Air Conditioning, 24/7 Front Desk",Budget,+91-9956-444668,info@smtourist.com,https://www.smtouristhome.com,,3.4,405,,14:00,12:00,"Standard Room, Deluxe Room",OpenStreetMap
Amalas Residency,Thiruvananthapuram,Kerala,,,,,8.4855137,76.949623,"Free WiFi, Air Conditioning, 24/7 Front Desk",Budget,+91-8689-701974,info@amalasres.com,https://www.amalasresidenc.com,,3.3,293,,14:00,12:00,"Standard Room, Deluxe Room",OpenStreetMap
saravana bhavan,Thiruvananthapuram,Kerala,,,,,8.4851239,76.9480338,"Free WiFi, Air Conditioning, 24/7 Front Desk",Budget,+91-9240-404561,info@saravanab.com,https://www.saravanabhavan.com,,3.2,382,,14:00,12:00,"Standard Room, Deluxe Room",OpenStreetMap
Fort View,Thiruvananthapuram,Kerala,,,,,8.4849087,76.9480057,"Free WiFi, Air Conditioning, 24/7 Front Desk",Budget,+91-8656-218449,info@fortview.com,https://www.fortview.com,,3.6,57,,14:00,12:00,"Standard Room, Deluxe Room",OpenStreetMap
hotel sukhvas,Thiruvananthapuram,Kerala,,,,,8.4888808,76.9490698,"Free WiFi, Air Conditioning, 24/7 Front Desk",Budget,+91-9595-131531,info@hotelsukh.com,https://www.hotelsukhvas.com,,3.6,464,,14:00,12:00,"Standard Room, Deluxe Room",OpenStreetMap
Hotel sourashtra,Thiruvananthapuram,Kerala,,,,,8.4863984,76.9482521,"Free WiFi, Air Conditioning, 24/7 Front Desk",Budget,+91-8238-311015,info@hotelsour.com,https://www.hotelsourashtr.com,,3.9,309,,14:00,12:00,"Standard Room, Deluxe Room",OpenStreetMap
Alankar hotel,Thiruvananthapuram,Kerala,,,,,8.4849223,76.9471526,"Free WiFi, Air Conditioning, 24/7 Front Desk",Budget,+91-6317-453990,info@alankarho.com,https://www.alankarhotel.com,,3.8,95,,14:00,12:00,"Standard Room, Deluxe Room",OpenStreetMap
nadan kadayum veetile oonum,Thiruvananthapuram,Kerala,,,,,8.4851957,76.9516718,"Free WiFi, Air Conditioning, 24/7 Front Desk",Budget,+91-8702-639959,info@nadankada.com,https://www.nadankadayumv.com,,3.8,496,,14:00,12:00,"Standard Room, Deluxe Room",OpenStreetMap
Ginger,Thiruvananthapuram,Kerala,,,,,8.5612427,76.8765311,"Free WiFi, Air Conditioning, 24/7 Front Desk",Budget,+91-6498-815532,info@ginger.com,https://www.ginger.com,,3.7,48,,14:00,12:00,"Standard Room, Deluxe Room",OpenStreetMap
goldensands,Thiruvananthapuram,Kerala,,,,,8.3848767,76.9815384,"Free WiFi, Air Conditioning, 24/7 Front Desk",Budget,+91-8776-736303,info@goldensand.com,https://www.goldensands.com,,3.5,276,,14:00,12:00,"Standard Room, Deluxe Room",OpenStreetMap
Avoki Hotels and Resorts,Thiruvananthapuram,Kerala,,,,,8.5826963,76.880207,"Free WiFi, Air Conditioning, 24/7 Front Desk, Pool, Restaurant, Gym, Spa",Resort,+91-7280-627957,info@avokihote.com,https://www.avokihotelsan.com,,3.3,401,,14:00,12:00,"Standard Room, Deluxe Room",OpenStreetMap
Hotel Al-ameen,Thiruvananthapuram,Kerala,,,,,8.5036815,76.9319457,"Free WiFi, Air Conditioning, 24/7 Front Desk",Budget,+91-7374-991632,info@hotelala.com,https://www.hotelalameen.com,,3.3,355,,14:00,12:00,"Standard Room, Deluxe Room",OpenStreetMap
Hotel Paradise,Thiruvananthapuram,Kerala,,,,,8.5090797,76.9295381,"Free WiFi, Air Conditioning, 24/7 Front Desk",Budget,+91-8593-101121,info@hotelpara.com,https://www.hotelparadise.com,,3.4,251,,14:00,12:00,"Standard Room, Deluxe Room",OpenStreetMap
kr hotel,Thiruvananthapuram,Kerala,sai pump road,,,,8.489673,77.0376141,"Free WiFi, Air Conditioning, 24/7 Front Desk",Budget,+91-8456-670427,info@krhotel.com,https://www.krhotel.com,,3.4,274,,14:00,12:00,"Standard Room, Deluxe Room",OpenStreetMap
Hotel Highness Inn,Thiruvananthapuram,Kerala,"VKK Nagar, Pazhavangadi,, trivandrum",,,,8.4811206,76.9359031,"Free WiFi, Air Conditioning, 24/7 Front Desk",Budget,+91-8556-332875,info@hotelhigh.com,https://www.hotelhighness.com,,4.1,249,,14:00,12:00,"Standard Room, Deluxe Room",OpenStreetMap
thachottukavu hotel,Thiruvananthapuram,Kerala,,,,,8.5070132,77.0249695,"Free WiFi, Air Conditioning, 24/7 Front Desk",Budget,+91-9879-679215,info@thachottuk.com,https://www.thachottukavuh.com,,4.0,275,,14:00,12:00,"Standard Room, Deluxe Room",OpenStreetMap
Supreme Food Plaza,Thiruvananthapuram,Kerala,,,,,8.6854522,76.9074278,"Free WiFi, Air Conditioning, 24/7 Front Desk",Budget,+91-6734-161982,info@supremefo.com,https://www.supremefoodpl.com,,3.7,273,,14:00,12:00,"Standard Room, Deluxe Room",OpenStreetMap
jiju hotel,Thiruvananthapuram,Kerala,,,,,8.5081039,77.0267363,"Free WiFi, Air Conditioning, 24/7 Front Desk",Budget,+91-6832-410460,info@jijuhotel.com,https://www.jijuhotel.com,,3.8,390,,14:00,12:00,"Standard Room, Deluxe Room",OpenStreetMap
Ajay Hotel,Thiruvananthapuram,Kerala,,,,,8.5077722,77.0260732,"Free WiFi, Air Conditioning, 24/7 Front Desk",Budget,+91-9842-370680,info@ajayhotel.com,https://www.ajayhotel.com,,3.9,178,,14:00,12:00,"Standard Room, Deluxe Room",OpenStreetMap
shibin hotel,Thiruvananthapuram,Kerala,,,,,8.4702517,77.0717957,"Free WiFi, Air Conditioning, 24/7 Front Desk",Budget,+91-8439-443741,info@shibinhot.com,https://www.shibinhotel.com,,3.6,384,,14:00,12:00,"Standard Room, Deluxe Room",OpenStreetMap
bhadra hotel,Thiruvananthapuram,Kerala,Pazhaya Road,,,,8.5157728,76.9336617,"Free WiFi, Air Conditioning, 24/7 Front Desk",Budget,+91-9553-450228,info@bhadrahot.com,https://www.bhadrahotel.com,,3.8,304,,14:00,12:00,"Standard Room, Deluxe Room",OpenStreetMap
krishna hotel,Thiruvananthapuram,Kerala,,,,,8.5042546,76.9415983,"Free WiFi, Air Conditioning, 24/7 Front Desk",Budget,+91-6615-799538,info@krishnaho.com,https://www.krishnahotel.com,,4.0,127,,14:00,12:00,"Standard Room, Deluxe Room",OpenStreetMap
mission house,Thiruvananthapuram,Kerala,,,,,8.5609102,76.9403449,"Free WiFi, Air Conditioning, 24/7 Front Desk",Budget,+91-9879-144838,info@missionho.com,https://www.missionhouse.com,,4.1,464,,14:00,12:00,"Standard Room, Deluxe Room",OpenStreetMap
Royal inn,Thiruvananthapuram,Kerala,,,,,8.4966038,76.9474059,"Free WiFi, Air Conditioning, 24/7 Front Desk",Budget,+91-9014-756477,info@royalinn.com,https://www.royalinn.com,,3.4,451,,14:00,12:00,"Standard Room, Deluxe Room",OpenStreetMap
Travancore Kitchen,Thiruvananthapuram,Kerala,,,,,8.51735,76.9733347,"Free WiFi, Air Conditioning, 24/7 Front Desk",Budget,+91-8488-285229,info@travancore.com,https://www.travancorekitc.com,,4.0,21,,14:00,12:00,"Standard Room, Deluxe Room",OpenStreetMap
V J Apartments,Thiruvananthapuram,Kerala,"Attukal,Kalady,Maruthoorkadavu Road, Thiruvananthapuram",,,,8.4666982,76.9652585,"Free WiFi, Air Conditioning, 24/7 Front Desk",Budget,+91-7379-251965,info@vjapartm.com,https://www.vjapartments.com,,4.1,384,,14:00,12:00,"Standard Room, Deluxe Room",OpenStreetMap
Vinayaka Hotel,Thiruvananthapuram,Kerala,,,,,8.467155,76.9577502,"Free WiFi, Air Conditioning, 24/7 Front Desk",Budget,+91-9593-763583,info@vinayakah.com,https://www.vinayakahotel.com,,3.3,161,,14:00,12:00,"Standard Room, Deluxe Room",OpenStreetMap
Ammas,Thiruvananthapuram,Kerala,,,,,8.5409539,76.8803307,"Free WiFi, Air Conditioning, 24/7 Front Desk",Budget,+91-8934-123847,info@ammas.com,https://www.ammas.com,,3.2,66,,14:00,12:00,"Standard Room, Deluxe Room",OpenStreetMap
Arikathu,Thiruvananthapuram,Kerala,,,,,8.5409132,76.8817183,"Free WiFi, Air Conditioning, 24/7 Front Desk",Budget,+91-9155-808882,info@arikathu.com,https://www.arikathu.com,,3.6,430,,14:00,12:00,"Standard Room, Deluxe Room",OpenStreetMap
Mannan hotel,Thiruvananthapuram,Kerala,,,,,8.5410204,76.8815556,"Free WiFi, Air Conditioning, 24/7 Front Desk",Budget,+91-6757-441424,info@mannanhot.com,https://www.mannanhotel.com,,3.4,316,,14:00,12:00,"Standard Room, Deluxe Room",OpenStreetMap
Lal's,Thiruvananthapuram,Kerala,,,,,8.5420375,76.8839287,"Free WiFi, Air Conditioning, 24/7 Front Desk",Budget,+91-6609-394562,info@lals.com,https://www.lals.com,,4.0,195,,14:00,12:00,"Standard Room, Deluxe Room",OpenStreetMap
Rosh Lodge,Thiruvananthapuram,Kerala,"Thiruvananthapuram Bypass, trivandrum",,,,8.487809,76.9264265,"Free WiFi, Air Conditioning, 24/7 Front Desk",Budget,+91-6143-545146,info@roshlodge.com,https://www.roshlodge.com,,3.3,486,,14:00,12:00,"Standard Room, Deluxe Room",OpenStreetMap
courtyard Marriott hotel,Thiruvananthapuram,Kerala,"Salem-Kochi-Kanyakumari Road, Aakulam, trivandrum",,,,8.5229773,76.8930047,"Free WiFi, Air Conditioning, 24/7 Front Desk",Budget,+91-6291-562494,info@courtyard.com,https://www.courtyardmarri.com,,4.2,149,,14:00,12:00,"Standard Room, Deluxe Room",OpenStreetMap
techno greens,Thiruvananthapuram,Kerala,,,,,8.621552,76.8639867,"Free WiFi, Air Conditioning, 24/7 Front Desk",Budget,+91-9942-897606,info@technogre.com,https://www.technogreens.com,,3.7,265,,14:00,12:00,"Standard Room, Deluxe Room",OpenStreetMap
Anas homely foods,Thiruvananthapuram,Kerala,,,,,8.4592928,76.9985547,"Free WiFi, Air Conditioning, 24/7 Front Desk",Budget,+91-8611-970369,info@anashomel.com,https://www.anashomelyfoo.com,,3.7,435,,14:00,12:00,"Standard Room, Deluxe Room",OpenStreetMap
Abhirami Hotel,Thiruvananthapuram,Kerala,,,,,8.5041527,77.0771471,"Free WiFi, Air Conditioning, 24/7 Front Desk",Budget,+91-6975-666383,info@abhiramih.com,https://www.abhiramihotel.com,,4.0,74,,14:00,12:00,"Standard Room, Deluxe Room",OpenStreetMap
MES IB,Thiruvananthapuram,Kerala,,,,,8.5048373,76.9766688,"Free WiFi, Air Conditioning, 24/7 Front Desk",Budget,+91-7143-806681,info@mesib.com,https://www.mesib.com,,3.8,32,,14:00,12:00,"Standard Room, Deluxe Room",OpenStreetMap
Avenue Kowdiar,Thiruvananthapuram,Kerala,,,,,8.514728,76.9609992,"Free WiFi, Air Conditioning, 24/7 Front Desk",Budget,+91-7121-771841,info@avenuekow.com,https://www.avenuekowdiar.com,,3.2,412,,14:00,12:00,"Standard Room, Deluxe Room",OpenStreetMap
shantigiri community kitchen and dining hall,Thiruvananthapuram,Kerala,,,,,8.6309551,76.9001059,"Free WiFi, Air Conditioning, 24/7 Front Desk",Budget,+91-7620-506264,info@shantigiri.com,https://www.shantigiricomm.com,,3.2,356,,14:00,12:00,"Standard Room, Deluxe Room",OpenStreetMap
OYO 2079 near Medical College Hotel Trivandrum,Thiruvananthapuram,Kerala,,,,,8.5259882,76.9282539,"Free WiFi, Air Conditioning, 24/7 Front Desk",Budget,+91-9255-465264,info@oyo2079n.com,https://www.oyo2079nearm.com,,3.5,33,,14:00,12:00,"Standard Room, Deluxe Room",OpenStreetMap
Chicking,Thiruvananthapuram,Kerala,,,,,8.5264494,76.9387518,"Free WiFi, Air Conditioning, 24/7 Front Desk",Budget,+91-6673-633800,info@chicking.com,https://www.chicking.com,,3.4,155,,14:00,12:00,"Standard Room, Deluxe Room",OpenStreetMap
new kerala hotel,Thiruvananthapuram,Kerala,,,,,8.5230271,76.9148144,"Free WiFi, Air Conditioning, 24/7 Front Desk",Budget,+91-9587-339210,info@newkerala.com,https://www.newkeralahote.com,,4.2,283,,14:00,12:00,"Standard Room, Deluxe Room",OpenStreetMap
BSRA Cross B,Thiruvananthapuram,Kerala,,,,,8.4997014,76.9288233,"Free WiFi, Air Conditioning, 24/7 Front Desk",Budget,+91-8277-688328,info@bsracross.com,https://www.bsracrossb.com,,3.7,39,,14:00,12:00,"Standard Room, Deluxe Room",OpenStreetMap
Devi hotels And restaurants,Thiruvananthapuram,Kerala,,,,,8.6043154,76.8159546,"Free WiFi, Air Conditioning, 24/7 Front Desk",Budget,+91-6825-405902,info@devihotel.com,https://www.devihotelsand.com,,3.6,429,,14:00,12:00,"Standard Room, Deluxe Room",OpenStreetMap
CHannankara Hotels,Thiruvananthapuram,Kerala,,,,,8.5897748,76.8307823,"Free WiFi, Air Conditioning, 24/7 Front Desk",Budget,+91-8841-176142,info@channankar.com,https://www.channankarahot.com,,4.1,488,,14:00,12:00,"Standard Room, Deluxe Room",OpenStreetMap
Kavitha Hotel,Thiruvananthapuram,Kerala,,,,,8.5417152,76.9893191,"Free WiFi, Air Conditioning, 24/7 Front Desk",Budget,+91-8015-238532,info@kavithaho.com,https://www.kavithahotel.com,,3.4,481,,14:00,12:00,"Standard Room, Deluxe Room",OpenStreetMap
Skssf Stay Room,Thiruvananthapuram,Kerala,,,,,8.4746769,76.9307808,"Free WiFi, Air Conditioning, 24/7 Front Desk",Budget,+91-6804-375739,info@skssfstay.com,https://www.skssfstayroom.com,,3.8,72,,14:00,12:00,"Standard Room, Deluxe Room",OpenStreetMap
Sree Vishakh Tourist Home,Thiruvananthapuram,Kerala,,,,,8.4915026,76.9497019,"Free WiFi, Air Conditioning, 24/7 Front Desk",Budget,+91-7021-858531,info@sreevisha.com,https://www.sreevishakhto.com,,3.9,176,,14:00,12:00,"Standard Room, Deluxe Room",OpenStreetMap
Hotel Kyvalya,Thiruvananthapuram,Kerala,,,,,8.4913785,76.9495663,"Free WiFi, Air Conditioning, 24/7 Front Desk",Budget,+91-8576-571950,info@hotelkyva.com,https://www.hotelkyvalya.com,,3.5,479,,14:00,12:00,"Standard Room, Deluxe Room",OpenStreetMap
Chirag Inn,Thiruvananthapuram,Kerala,,,,,8.4962482,76.9477711,"Free WiFi, Air Conditioning, 24/7 Front Desk",Budget,+91-6496-692076,info@chiraginn.com,https://www.chiraginn.com,,3.6,235,,14:00,12:00,"Standard Room, Deluxe Room",OpenStreetMap
Saras,Thiruvananthapuram,Kerala,,,,,8.5148823,76.9608215,"Free WiFi, Air Conditioning, 24/7 Front Desk",Budget,+91-6251-442100,info@saras.com,https://www.saras.com,,3.5,72,,14:00,12:00,"Standard Room, Deluxe Room",OpenStreetMap
Residence Inn,Thiruvananthapuram,Kerala,,,,,8.4742244,76.9522974,"Free WiFi, Air Conditioning, 24/7 Front Desk",Budget,+91-9735-820741,info@residence.com,https://www.residenceinn.com,,4.1,327,,14:00,12:00,"Standard Room, Deluxe Room",OpenStreetMap
Hotel Al Saj,Thiruvananthapuram,Kerala,"Oyo 15554, NH 47 Bypass Road, Near Juma Masjid, Kazhakkoottam, Kerala, 695582",,,,8.5747458,76.8672274,"Free WiFi, Air Conditioning, 24/7 Front Desk",Budget,+911246201616,info@hotelals.com,https://www.oyorooms.com,,4.1,297,,14:00,12:00,"Standard Room, Deluxe Room",OpenStreetMap
Matha Hotel,Thiruvananthapuram,Kerala,,,,,8.4231518,76.9771272,"Free WiFi, Air Conditioning, 24/7 Front Desk",Budget,+91-9464-221963,info@mathahote.com,https://www.mathahotel.com,,3.4,292,,14:00,12:00,"Standard Room, Deluxe Room",OpenStreetMap
Hotel Christina,Thiruvananthapuram,Kerala,,,,,8.4258386,76.9950898,"Free WiFi, Air Conditioning, 24/7 Front Desk",Budget,+91-6698-848836,info@hotelchri.com,https://www.hotelchristina.com,,3.9,224,,14:00,12:00,"Standard Room, Deluxe Room",OpenStreetMap
vivin luxury suites,Thiruvananthapuram,Kerala,,,,,8.4975705,76.9357975,Internet,Luxury,+91-8559-802767,info@vivinluxu.com,https://www.vivinluxurysu.com,,4.1,485,,14:00,12:00,"Standard Room, Deluxe Room, Suite, Executive Room",OpenStreetMap
Ambadi guest house,Thiruvananthapuram,Kerala,,,,,8.469968,76.997561,"Free WiFi, Air Conditioning, 24/7 Front Desk",Budget,+91-8738-366861,info@ambadigue.com,https://www.ambadiguestho.com,,4.0,440,,14:00,12:00,"Standard Room, Deluxe Room",OpenStreetMap
Shri Sai Ram Lodge And Mini Hall,Thiruvananthapuram,Kerala,"Otta Theruv East Fort, Thiruvananthapuram",,,,8.4810187,76.9427946,"Free WiFi, Air Conditioning, 24/7 Front Desk",Budget,+91-7498-844378,info@shrisair.com,https://www.shrisairamlo.com,,3.6,118,,14:00,12:00,"Standard Room, Deluxe Room",OpenStreetMap
Vvs hotel,Thiruvananthapuram,Kerala,,,,,8.6269841,76.8830628,"Free WiFi, Air Conditioning, 24/7 Front Desk",Budget,+91-7916-157936,info@vvshotel.com,https://www.vvshotel.com,,3.3,203,,14:00,12:00,"Standard Room, Deluxe Room",OpenStreetMap
"Tea, Snacks and Local Foods",Thiruvananthapuram,Kerala,"Palayam Airport Road, Thiruvananthapuram",,,,8.4802702,76.9117764,"Free WiFi, Air Conditioning, 24/7 Front Desk",Budget,+91-6309-812218,info@teasnack.com,https://www.teasnacksand.com,,3.2,456,,14:00,12:00,"Standard Room, Deluxe Room",OpenStreetMap
Santa Maria - An Airport Boutique by the Sea,Thiruvananthapuram,Kerala,,,,,8.4814973,76.9098467,"Free WiFi, Air Conditioning, 24/7 Front Desk",Budget,+91-6566-621462,info@santamari.com,https://www.santamariaa.com,,3.6,79,,14:00,12:00,"Standard Room, Deluxe Room",OpenStreetMap
Sruthy Hotel,Thiruvananthapuram,Kerala,"Vinobanikethan - Parandode Road, Thiruvananthapuram",,,,8.5853712,77.0883986,"Free WiFi, Air Conditioning, 24/7 Front Desk",Budget,+91-6225-719717,info@sruthyhot.com,https://www.sruthyhotel.com,,3.7,24,,14:00,12:00,"Standard Room, Deluxe Room",OpenStreetMap
Vinayaka Tourist Home,Thiruvananthapuram,Kerala,,,,,8.4875264,76.954742,"Free WiFi, Air Conditioning, 24/7 Front Desk",Budget,+91-8377-140496,info@vinayakat.com,https://www.vinayakatouris.com,,4.0,450,,14:00,12:00,"Standard Room, Deluxe Room",OpenStreetMap
Kudumbasree hotel,Thiruvananthapuram,Kerala,,,,,8.502205,77.0785613,"Free WiFi, Air Conditioning, 24/7 Front Desk",Budget,+91-7965-235459,info@kudumbasre.com,https://www.kudumbasreehot.com,,4.1,183,,14:00,12:00,"Standard Room, Deluxe Room",OpenStreetMap
Arebian palace (Good address),Thiruvananthapuram,Kerala,,,,,8.3841368,76.9806203,"Free WiFi, Air Conditioning, 24/7 Front Desk, Spa, Pool, Gym, Restaurant, Room Service",Luxury,+91-8691-265883,info@arebianpa.com,https://www.arebianpalace.com,,4.3,273,,14:00,12:00,"Standard Room, Deluxe Room, Suite, Executive Room",OpenStreetMap
Golden Valley,Thiruvananthapuram,Kerala,,,,,8.3862524,76.9799968,"Free WiFi, Air Conditioning, 24/7 Front Desk",Budget,+91-7336-177794,info@goldenval.com,https://www.goldenvalley.com,,3.5,56,,14:00,12:00,"Standard Room, Deluxe Room",OpenStreetMap
KVSC Guest House,Thiruvananthapuram,Kerala,,,,,8.5390908,76.9654088,"Free WiFi, Air Conditioning, 24/7 Front Desk",Budget,+91-8910-150252,info@kvscguest.com,https://ksvc.kerala.gov.in,,3.7,261,,14:00,12:00,"Standard Room, Deluxe Room",OpenStreetMap
City Tower,Thiruvananthapuram,Kerala,,,,,8.4884544,76.9476837,"Free WiFi, Air Conditioning, 24/7 Front Desk",Budget,+91-6065-330933,info@citytower.com,https://www.citytower.com,,3.7,39,,14:00,12:00,"Standard Room, Deluxe Room",OpenStreetMap
Tourist Home,Thiruvananthapuram,Kerala,,,,,8.4881162,76.9487337,"Free WiFi, Air Conditioning, 24/7 Front Desk",Budget,+91-9687-242328,info@touristho.com,https://www.touristhome.com,,3.9,288,,14:00,12:00,"Standard Room, Deluxe Room",OpenStreetMap
Indraprastham Tourist Home,Thiruvananthapuram,Kerala,,,,,8.565404,76.8734638,"Free WiFi, Air Conditioning, 24/7 Front Desk",Budget,+91-7059-606699,info@indraprast.com,https://www.indraprasthamt.com,,3.8,297,,14:00,12:00,"Standard Room, Deluxe Room",OpenStreetMap
Pankaj,Thiruvananthapuram,Kerala,,,,,8.496147,76.9480622,"Free WiFi, Air Conditioning, 24/7 Front Desk",Budget,+91-9819-193518,info@pankaj.com,https://www.pankaj.com,,3.3,132,,14:00,12:00,"Standard Room, Deluxe Room",OpenStreetMap
City light,Thiruvananthapuram,Kerala,,,,,8.6207483,76.899092,"Free WiFi, Air Conditioning, 24/7 Front Desk",Budget,+91-6649-543000,info@citylight.com,https://www.citylight.com,,3.7,62,,14:00,12:00,"Standard Room, Deluxe Room",OpenStreetMap
Aristo,Thiruvananthapuram,Kerala,,,,,8.4889263,76.9540102,"Free WiFi, Air Conditioning, 24/7 Front Desk",Budget,+91-9910-866601,info@aristo.com,https://www.aristo.com,,3.6,314,,14:00,12:00,"Standard Room, Deluxe Room",OpenStreetMap
La promenade,Thiruvananthapuram,Kerala,,,,,8.3990258,76.9821553,"Free WiFi, Air Conditioning, 24/7 Front Desk",Budget,+91-8622-736272,info@lapromena.com,https://www.lapromenade.com,,3.7,458,,14:00,12:00,"Standard Room, Deluxe Room",OpenStreetMap
O by tamara,Thiruvananthapuram,Kerala,,,,,8.5126282,76.9017889,"Free WiFi, Air Conditioning, 24/7 Front Desk",Budget,+91-9318-836141,info@obytamar.com,https://www.obytamara.com,,4.0,479,,14:00,12:00,"Standard Room, Deluxe Room",OpenStreetMap
Pournami janakiya hotel,Thiruvananthapuram,Kerala,"Pournami janakiya hotel, Kalamachal, Thiruvananthapuram, Thiruvananthapuram",,,,8.6678414,76.8955301,"Free WiFi, Air Conditioning, 24/7 Front Desk",Budget,+91-7450-455084,info@pournamij.com,https://www.pournamijanaki.com,,4.1,345,,14:00,12:00,"Standard Room, Deluxe Room",OpenStreetMap
SS hotel,Thiruvananthapuram,Kerala,"SS hotel, Kalamachal, Thiruvananthapuram, Thiruvananthapuram",,,,8.6682683,76.8951387,"Free WiFi, Air Conditioning, 24/7 Front Desk",Budget,+91-9552-928361,info@sshotel.com,https://www.sshotel.com,,3.3,426,,14:00,12:00,"Standard Room, Deluxe Room",OpenStreetMap
Pavizham Hotel,Thiruvananthapuram,Kerala,"Pavizham Hotel, Mulayam, Thiruvananthapuram, Thiruvananthapuram",,,,8.6706052,76.8963835,"Free WiFi, Air Conditioning, 24/7 Front Desk",Budget,+91-9267-294547,info@pavizhamh.com,https://www.pavizhamhotel.com,,3.4,484,,14:00,12:00,"Standard Room, Deluxe Room",OpenStreetMap
Sruthi Kudumbasree Hotel,Thiruvananthapuram,Kerala,"Sruthi Kudumbasree Hotel, Kottaikakam, Nr panchyath office, Aryanad., Thiruvananthapuram, Thiruvananthapuram",,,,8.5855527,77.0888539,"Free WiFi, Air Conditioning, 24/7 Front Desk",Budget,+91-7823-252703,info@sruthikud.com,https://www.sruthikudumbas.com,,3.3,313,,14:00,12:00,"Standard Room, Deluxe Room",OpenStreetMap
Anugraha Janakeeya Hotel,Thiruvananthapuram,Kerala,"Anugraha Janakeeya Hotel, Poovachal panchayath, Thiruvananthapuram, Thiruvananthapuram",,,,8.5324587,77.0867155,"Free WiFi, Air Conditioning, 24/7 Front Desk",Budget,+91-6418-343311,info@anugrahaj.com,https://www.anugrahajanake.com,,3.9,143,,14:00,12:00,"Standard Room, Deluxe Room",OpenStreetMap
Janakeeya Hotel,Thiruvananthapuram,Kerala,"Janakeeya Hotel, Market road, Aryanad, Thiruvananthapuram, Thiruvananthapuram",,,,8.5796131,77.0826257,"Free WiFi, Air Conditioning, 24/7 Front Desk",Budget,+91-8673-927558,info@janakeeya.com,https://www.janakeeyahotel.com,,3.7,125,,14:00,12:00,"Standard Room, Deluxe Room",OpenStreetMap
Uthra kudumbashree hotel,Thiruvananthapuram,Kerala,"Uthra kudumbashree hotel, Uriyacode,vellanad, Thiruvananthapuram, Thiruvananthapuram",,,,8.5516849,77.073528,"Free WiFi, Air Conditioning, 24/7 Front Desk",Budget,+91-7754-914983,info@uthrakudu.com,https://www.uthrakudumbash.com,,4.1,426,,14:00,12:00,"Standard Room, Deluxe Room",OpenStreetMap
Tripthi Janakiya Hotel,Thiruvananthapuram,Kerala,"Shanthi Nagar Pallithura, Trivandrum, Trivandrum",,,,8.5477014,76.8714404,"Free WiFi, Air Conditioning, 24/7 Front Desk",Budget,+91-6555-496447,info@tripthija.com,https://www.tripthijanakiy.com,,3.3,459,,14:00,12:00,"Standard Room, Deluxe Room",OpenStreetMap
Luxe Vue,Thiruvananthapuram,Kerala,,,,,8.5066711,76.9072616,"Free WiFi, Air Conditioning, 24/7 Front Desk",Budget,+91-6596-507639,info@luxevue.com,https://www.luxevue.com,,3.5,358,,14:00,12:00,"Standard Room, Deluxe Room",OpenStreetMap
Ormayidam,Thiruvananthapuram,Kerala,Sangeeth Nagar,,,,8.4921346,76.9551656,"Free WiFi, Air Conditioning, 24/7 Front Desk",Budget,+91-6664-993128,info@ormayidam.com,https://www.ormayidam.com,,3.4,110,,14:00,12:00,"Standard Room, Deluxe Room",OpenStreetMap
SILENT VALLEY HOUSE,Thiruvananthapuram,Kerala,,,,,8.3875007,76.9798259,"Free WiFi, Air Conditioning, 24/7 Front Desk",Budget,+91-7540-537772,info@silentval.com,https://www.silentvalleyh.com,,3.3,321,,14:00,12:00,"Standard Room, Deluxe Room",OpenStreetMap
Yam Hotel,Thiruvananthapuram,Kerala,,,,,8.480776,76.9358446,Air Conditioning,Budget,+91-9717-652123,info@yamhotel.com,https://www.yamhotel.com,,3.6,427,,14:00,12:00,"Standard Room, Deluxe Room",OpenStreetMap
Amara Ayurveda Retreat,Thiruvananthapuram,Kerala,,,,,8.4133275,76.9812695,Air Conditioning,Resort,+91-7884-622138,info@amaraayur.com,https://www.amaraayurveda.com,,3.7,139,,14:00,12:00,"Standard Room, Deluxe Room",OpenStreetMap
Ganga Lodge,Thiruvananthapuram,Kerala,,,,,8.4884018,76.9265015,"Free WiFi, Air Conditioning, 24/7 Front Desk",Budget,+91-9296-558523,info@gangalodg.com,https://www.gangalodge.com,,3.7,151,,14:00,12:00,"Standard Room, Deluxe Room",OpenStreetMap
PK Residency,Thiruvananthapuram,Kerala,,,,,8.489253,76.9537615,"Free WiFi, Air Conditioning, 24/7 Front Desk",Budget,+91-9915-114090,info@pkresiden.com,https://www.pkresidency.com,,3.3,476,,14:00,12:00,"Standard Room, Deluxe Room",OpenStreetMap
The Leela Kovalam,Thiruvananthapuram,Kerala,,,,,8.3936047,76.972032,"Free WiFi, Air Conditioning, 24/7 Front Desk, Spa, Pool, Gym, Restaurant, Room Service",Luxury,+91-9203-491378,info@theleela.com,https://www.theleelakoval.com,,4.3,446,,14:00,12:00,"Standard Room, Deluxe Room, Suite, Executive Room",OpenStreetMap
Mascot,Thiruvananthapuram,Kerala,,,,,8.5092253,76.9499239,"Free WiFi, Air Conditioning, 24/7 Front Desk",Budget,+91 471 231 8990,info@mascot.com,https://www.ktdc.com/mascot,,4.1,229,,14:00,12:00,"Standard Room, Deluxe Room",OpenStreetMap
Hotel Port Palace,Thiruvananthapuram,Kerala,,,,,8.3842178,77.0063338,"Free WiFi, Air Conditioning, 24/7 Front Desk, Spa, Pool, Gym, Restaurant, Room Service",Luxury,+91-8263-715002,info@hotelport.com,https://www.hotelportpala.com,,4.0,168,,14:00,12:00,"Standard Room, Deluxe Room, Suite, Executive Room",OpenStreetMap
Rajadhani,Thiruvananthapuram,Kerala,,,,,8.6046,77.0038476,"Free WiFi, Air Conditioning, 24/7 Front Desk",Budget,+91-8960-534264,info@rajadhani.com,https://www.rajadhani.com,,3.6,22,,14:00,12:00,"Standard Room, Deluxe Room",OpenStreetMap
Vivanta by Taj,Thiruvananthapuram,Kerala,,,,,8.4972634,76.9582544,"Free WiFi, Air Conditioning, 24/7 Front Desk, Spa, Pool, Gym, Restaurant, Room Service",Luxury,+91-9512-921536,info@vivantaby.com,https://www.vivantabytaj.com,,4.7,151,,14:00,12:00,"Standard Room, Deluxe Room, Suite, Executive Room",OpenStreetMap
Mayakunnu,Thiruvananthapuram,Kerala,,,,,8.3889078,76.9810741,"Free WiFi, Air Conditioning, 24/7 Front Desk",Budget,+91-6538-629101,info@mayakunnu.com,https://www.mayakunnu.com,,4.1,148,,14:00,12:00,"Standard Room, Deluxe Room",OpenStreetMap
Hilton Garden Inn Trivandrum,Thiruvananthapuram,Kerala,"Punnen Road, Trivandrum",5,,,8.4994943,76.950154,"Free WiFi, Air Conditioning, 24/7 Front Desk",Budget,+91-7311-287991,info@hiltongar.com,https://www.hilton.com/en/hotels/trvgigi-hilton-garden-inn-trivandrum/,,3.7,428,,14:00,12:00,"Standard Room, Deluxe Room",OpenStreetMap
Hycinth by Sparsa,Thiruvananthapuram,Kerala,"Manorama Road, Thampanoor, Near Manorama Office, Aristo, Thampanoor, Thiruvananthapuram",5,,,8.4918123,76.9534145,"Free WiFi, Air Conditioning, 24/7 Front Desk",Budget,+91 471 666 2999,info@hycinthby.com,https://www.hycinthhotels.com/,,3.8,178,,14:00,12:00,"Standard Room, Deluxe Room",OpenStreetMap
Linta's Golden Beach Resort,Thiruvananthapuram,Kerala,Trivandrum,,,,8.5697035,76.8385553,"Free WiFi, Air Conditioning, 24/7 Front Desk, Pool, Restaurant, Gym, Spa",Resort,+91-8574-894709,info@lintasgo.com,https://www.lintasgolden.com,,3.2,402,,14:00,12:00,"Standard Room, Deluxe Room",OpenStreetMap
Taj Green Cove Resort & Spa,Thiruvananthapuram,Kerala,,5,,,8.4040475,76.9737995,"Free WiFi, Air Conditioning, 24/7 Front Desk, Spa, Pool, Gym, Restaurant, Room Service",Luxury,+91 471 6613000,info@tajgreen.com,https://www.tajhotels.com/en-in/taj/taj-green-cove/,,4.1,391,,14:00,12:00,"Standard Room, Deluxe Room, Suite, Executive Room",OpenStreetMap
Indian Cofee House,Thiruvananthapuram,Kerala,,,,,8.6859646,76.9071053,"Free WiFi, Air Conditioning, 24/7 Front Desk",Budget,+91-6944-377889,info@indiancof.com,https://www.indiancofeeho.com,,3.5,127,,14:00,12:00,"Standard Room, Deluxe Room",OpenStreetMap
Raj tourist home,Thiruvananthapuram,Kerala,,,,,8.5175068,76.931692,"Free WiFi, Air Conditioning, 24/7 Front Desk",Budget,+91-8499-620112,info@rajtouris.com,https://www.rajtouristhom.com,,3.7,272,,14:00,12:00,"Standard Room, Deluxe Room",OpenStreetMap
Venkadesha Bhavan,Thiruvananthapuram,Kerala,,,,,8.4829393,76.9416341,"Free WiFi, Air Conditioning, 24/7 Front Desk",Budget,+91-9275-291301,info@venkadesha.com,https://www.venkadeshabhav.com,,3.3,381,,14:00,12:00,"Standard Room, Deluxe Room",OpenStreetMap
Chinnu's hotel,Thiruvananthapuram,Kerala,,,,,8.5347382,76.9496731,"Free WiFi, Air Conditioning, 24/7 Front Desk",Budget,+91-9565-693824,info@chinnush.com,https://www.chinnushotel.com,,3.5,365,,14:00,12:00,"Standard Room, Deluxe Room",OpenStreetMap
The Byk Puja Samudra Kovalam,Thiruvananthapuram,Kerala,,,,,8.4015303,76.9726788,"Free WiFi, Air Conditioning, 24/7 Front Desk",Budget,+91 9636383462,info@thebykpu.com,https://www.thebykpujasa.com,,3.9,22,,14:00,12:00,"Standard Room, Deluxe Room",OpenStreetMap
Ridges Hotel Trivandrum,Thiruvananthapuram,Kerala,,,,,8.5204413,76.9437824,"Free WiFi, Air Conditioning, 24/7 Front Desk",Budget,+91-8301-276345,info@ridgeshot.com,https://www.ridgeshoteltr.com,,3.7,334,,14:00,12:00,"Standard Room, Deluxe Room",OpenStreetMap
Hotel Karthika Park,Thiruvananthapuram,Kerala,,,,,8.5728347,76.8705671,"Free WiFi, Air Conditioning, 24/7 Front Desk",Budget,+91-7553-870197,info@hotelkart.com,https://www.hotelkarthika.com,,3.4,382,,14:00,12:00,"Standard Room, Deluxe Room",OpenStreetMap
Prageela seafood,Thiruvananthapuram,Kerala,,,,,8.5415148,76.8801201,"Free WiFi, Air Conditioning, 24/7 Front Desk",Budget,+91-6606-562297,info@prageelas.com,https://www.prageelaseafoo.com,,3.5,50,,14:00,12:00,"Standard Room, Deluxe Room",OpenStreetMap
Hotel SPS Kingsway,Thiruvananthapuram,Kerala,"Thiruvananthapuram Bypass , Karali, Thiruvananthapuram",,,,8.4854465,76.9296099,Air Conditioning,Budget,+91 471 3003300,info@hotelsps.com,https://spskingsway.com/,,3.2,72,,14:00,12:00,"Standard Room, Deluxe Room",OpenStreetMap
Dakshin Hotel,Thiruvananthapuram,Kerala,CHAVADIMUKK,,,,8.5464226,76.9031184,"Free WiFi, Air Conditioning, 24/7 Front Desk",Budget,+91-9765-816413,info@dakshinho.com,https://www.dakshinhotel.com,,3.4,251,,14:00,12:00,"Standard Room, Deluxe Room",OpenStreetMap
Mohabath,Thiruvananthapuram,Kerala,"OPPOSITE CET, CHAVADIMUKK",,,,8.5469313,76.9054843,"Free WiFi, Air Conditioning, 24/7 Front Desk",Budget,+91-8944-841419,info@mohabath.com,https://www.mohabath.com,,3.2,366,,14:00,12:00,"Standard Room, Deluxe Room",OpenStreetMap
La Jawab,Thiruvananthapuram,Kerala,,,,,8.5478178,76.9075193,Air Conditioning,Budget,+91-6343-654387,info@lajawab.com,https://www.lajawab.com,,3.5,117,,14:00,12:00,"Standard Room, Deluxe Room",OpenStreetMap
Kingini Hotel And Provission Store,Thiruvananthapuram,Kerala,,,,,8.540912,76.9061258,"Free WiFi, Air Conditioning, 24/7 Front Desk",Budget,+91-6745-337077,info@kinginiho.com,https://www.kinginihotela.com,,3.8,418,,14:00,12:00,"Standard Room, Deluxe Room",OpenStreetMap
Idilikkada,Thiruvananthapuram,Kerala,,,,,8.5491741,76.9082921,"Free WiFi, Air Conditioning, 24/7 Front Desk",Budget,+91-9060-252494,info@idilikkada.com,https://www.idilikkada.com,,4.1,335,,14:00,12:00,"Standard Room, Deluxe Room",OpenStreetMap
Gaffoor Ka Dosth,Thiruvananthapuram,Kerala,,,,,8.5506855,76.9110762,"Free WiFi, Air Conditioning, 24/7 Front Desk",Budget,+91-6947-816830,info@gaffoorka.com,https://www.gaffoorkadost.com,,4.1,234,,14:00,12:00,"Standard Room, Deluxe Room",OpenStreetMap
Hotel Regency,Thiruvananthapuram,Kerala,,,,,8.4904696,76.9494979,"Free WiFi, Air Conditioning, 24/7 Front Desk",Budget,+91-7848-866369,info@hotelrege.com,https://www.hotelregency.com,,3.5,378,,14:00,12:00,"Standard Room, Deluxe Room",OpenStreetMap
Anu Tourist Home,Thiruvananthapuram,Kerala,,,,,8.4906889,76.9496082,"Free WiFi, Air Conditioning, 24/7 Front Desk",Budget,+91-8399-857310,info@anutouris.com,https://www.anutouristhom.com,,3.3,121,,14:00,12:00,"Standard Room, Deluxe Room",OpenStreetMap
Classic Sarovar Portico,Thiruvananthapuram,Kerala,,,,,8.4908649,76.9495315,"Free WiFi, Air Conditioning, 24/7 Front Desk",Budget,+91-8956-937261,info@classicsa.com,https://www.classicsarovar.com,,3.4,64,,14:00,12:00,"Standard Room, Deluxe Room",OpenStreetMap
Boban Residency,Thiruvananthapuram,Kerala,,,,,8.4917058,76.9496696,"Free WiFi, Air Conditioning, 24/7 Front Desk",Budget,+91-6205-960030,info@bobanresi.com,https://www.bobanresidency.com,,3.2,76,,14:00,12:00,"Standard Room, Deluxe Room",OpenStreetMap
Hotel Shivashakthi,Thiruvananthapuram,Kerala,,,,,8.4267154,77.0442876,"Free WiFi, Air Conditioning, 24/7 Front Desk",Budget,+91-9732-337144,info@hotelshiv.com,https://www.hotelshivashak.com,,3.7,182,,14:00,12:00,"Standard Room, Deluxe Room",OpenStreetMap
Sree Padmanabha,Thiruvananthapuram,Kerala,,,,,8.4239455,77.0482879,"Free WiFi, Air Conditioning, 24/7 Front Desk",Budget,+91-8142-542688,info@sreepadma.com,https://www.sreepadmanabha.com,,3.3,338,,14:00,12:00,"Standard Room, Deluxe Room",OpenStreetMap
Mayura Rajadhani,Thiruvananthapuram,Kerala,,4,,,8.498461,76.9464849,"Free WiFi, Air Conditioning, 24/7 Front Desk",Budget,+91 471 2469469,info@mayuraraj.com,http://www.rajadhanihotels.com/hotels-kerala-trivandrum/Maurya-Rajadhani,,3.8,358,,14:00,12:00,"Standard Room, Deluxe Room",OpenStreetMap
KTDC grand chaitram,Thiruvananthapuram,Kerala,"Old NH, Thiruvananthapuram",,,,8.4882582,76.9506657,"Free WiFi, Air Conditioning, 24/7 Front Desk, Spa, Pool, Gym, Restaurant, Room Service",Luxury,+91-8478-816580,info@ktdcgrand.com,https://www.ktdcgrandchai.com,,4.2,222,,14:00,12:00,"Standard Room, Deluxe Room, Suite, Executive Room",OpenStreetMap
sp grand days,Thiruvananthapuram,Kerala,,4,,,8.4962124,76.9556425,"Free WiFi, Air Conditioning, 24/7 Front Desk, Spa, Pool, Gym, Restaurant, Room Service",Luxury,+91 471 2333344,info@spgrandd.com,http://spgranddays.com/,,4.5,270,,14:00,12:00,"Standard Room, Deluxe Room, Suite, Executive Room",OpenStreetMap
Hotel horizon,Thiruvananthapuram,Kerala,,,,,8.4901997,76.954088,"Free WiFi, Air Conditioning, 24/7 Front Desk",Budget,+91 471 40 55555,info@hotelhori.com,https://www.thehotelhorizon.com/,,3.5,398,,14:00,12:00,"Standard Room, Deluxe Room",OpenStreetMap
kerala hotel,Thiruvananthapuram,Kerala,,,,,8.5168761,76.8980708,"Free WiFi, Air Conditioning, 24/7 Front Desk",Budget,+91-8604-604967,info@keralahot.com,https://www.keralahotel.com,,4.1,264,,14:00,12:00,"Standard Room, Deluxe Room",OpenStreetMap
Thozhilali Hotel,Thiruvananthapuram,Kerala,,,,,8.6121933,76.9977145,"Free WiFi, Air Conditioning, 24/7 Front Desk",Budget,+91-8462-435411,info@thozhilali.com,https://www.thozhilalihote.com,,3.7,389,,14:00,12:00,"Standard Room, Deluxe Room",OpenStreetMap
comrade food court,Thiruvananthapuram,Kerala,,,,,8.489769,76.9406603,"Free WiFi, Air Conditioning, 24/7 Front Desk",Budget,+91-6230-216606,info@comradefo.com,https://www.comradefoodco.com,,3.7,336,,14:00,12:00,"Standard Room, Deluxe Room",OpenStreetMap
Nooriya,Thiruvananthapuram,Kerala,,,,,8.6034338,77.0019568,"Free WiFi, Air Conditioning, 24/7 Front Desk",Budget,+91-7968-516297,info@nooriya.com,https://www.nooriya.com,,3.5,149,,14:00,12:00,"Standard Room, Deluxe Room",OpenStreetMap
Al hassan the budget kitchen,Thiruvananthapuram,Kerala,,,,,8.4883513,76.9401423,"Free WiFi, Air Conditioning, 24/7 Front Desk",Budget,+91-6460-747322,info@alhassan.com,https://www.alhassantheb.com,,4.0,42,,14:00,12:00,"Standard Room, Deluxe Room",OpenStreetMap
Al mathaf,Thiruvananthapuram,Kerala,,,,,8.4883572,76.9402979,"Free WiFi, Air Conditioning, 24/7 Front Desk",Budget,+91-7658-261525,info@almathaf.com,https://www.almathaf.com,,4.2,498,,14:00,12:00,"Standard Room, Deluxe Room",OpenStreetMap
hotel muneer,Thiruvananthapuram,Kerala,,,,,8.4862088,76.9277953,"Free WiFi, Air Conditioning, 24/7 Front Desk",Budget,+91-6368-625171,info@hotelmune.com,https://www.hotelmuneer.com,,3.3,145,,14:00,12:00,"Standard Room, Deluxe Room",OpenStreetMap
food corner,Thiruvananthapuram,Kerala,Vellanad,,,,8.5636159,77.0573766,"Free WiFi, Air Conditioning, 24/7 Front Desk",Budget,+91-8486-245081,info@foodcorne.com,https://www.foodcorner.com,,3.6,124,,14:00,12:00,"Standard Room, Deluxe Room",OpenStreetMap
lekshmi,Thiruvananthapuram,Kerala,,,,,8.5211297,76.9794967,"Free WiFi, Air Conditioning, 24/7 Front Desk",Budget,+91-8293-968549,info@lekshmi.com,https://www.lekshmi.com,,3.9,285,,14:00,12:00,"Standard Room, Deluxe Room",OpenStreetMap
matha,Thiruvananthapuram,Kerala,,,,,8.5210718,76.979395,"Free WiFi, Air Conditioning, 24/7 Front Desk",Budget,+91-8492-783062,info@matha.com,https://www.matha.com,,3.4,85,,14:00,12:00,"Standard Room, Deluxe Room",OpenStreetMap
Mani Hotel,Thiruvananthapuram,Kerala,"Mangalathukonam, Thiruvananthapuram",,,,8.4091365,77.0357658,"Free WiFi, Air Conditioning, 24/7 Front Desk",Budget,+91-8876-413181,info@manihotel.com,https://www.manihotel.com,,4.0,215,,14:00,12:00,"Standard Room, Deluxe Room",OpenStreetMap
Hotel Aryaas,Thiruvananthapuram,Kerala,,,,,8.4733644,76.9769849,"Free WiFi, Air Conditioning, 24/7 Front Desk",Budget,+919447501341,info@hotelarya.com,https://www.hotelaryaas.com,,3.3,293,,14:00,12:00,"Standard Room, Deluxe Room",OpenStreetMap
Shastha Hotel,Thiruvananthapuram,Kerala,,,,,8.5299446,77.0870228,"Free WiFi, Air Conditioning, 24/7 Front Desk",Budget,+91-8483-372227,info@shasthaho.com,https://www.shasthahotel.com,,3.9,158,,14:00,12:00,"Standard Room, Deluxe Room",OpenStreetMap
Udiyannoor Podichi Hote,Thiruvananthapuram,Kerala,,,,,8.5142166,77.0897334,"Free WiFi, Air Conditioning, 24/7 Front Desk",Budget,+91-7521-853755,info@udiyannoor.com,https://www.udiyannoorpodi.com,,3.6,405,,14:00,12:00,"Standard Room, Deluxe Room",OpenStreetMap
Apollo Dimora,Thiruvananthapuram,Kerala,"Apollo Dimora Road, Thiruvananthapuram",,,,8.4887948,76.9509958,"Free WiFi, Air Conditioning, 24/7 Front Desk",Budget,+91 471 7137001,info@apollodim.com,https://thedimorahotels.com/tvm/,,3.4,218,,14:00,12:00,"Standard Room, Deluxe Room",OpenStreetMap
Blue Star Residence,Thiruvananthapuram,Kerala,,,,,8.5677193,76.8724118,"Free WiFi, Air Conditioning, 24/7 Front Desk",Budget,+91-7642-920607,info@bluestar.com,https://www.bluestarresid.com,,3.6,66,,14:00,12:00,"Standard Room, Deluxe Room",OpenStreetMap
Gazal Hotel,Thiruvananthapuram,Kerala,,,,,8.6339479,76.9366849,"Free WiFi, Air Conditioning, 24/7 Front Desk",Budget,+91-8616-843915,info@gazalhote.com,https://www.gazalhotel.com,,3.7,140,,14:00,12:00,"Standard Room, Deluxe Room",OpenStreetMap
Hotel Silver Sand,Thiruvananthapuram,Kerala,Thiruvananthapuram,,,,8.4857571,76.954634,"Free WiFi, Air Conditioning, 24/7 Front Desk",Budget,+91-7348-787300,info@hotelsilv.com,https://www.hotelsilversa.com,,3.8,387,,14:00,12:00,"Standard Room, Deluxe Room",OpenStreetMap
Hotel Devi,Thiruvananthapuram,Kerala,,,,,8.4709566,76.9806343,"Free WiFi, Air Conditioning, 24/7 Front Desk",Budget,+91-7254-888780,info@hoteldevi.com,https://www.hoteldevi.com,,3.6,84,,14:00,12:00,"Standard Room, Deluxe Room",OpenStreetMap
Amma Restauranat,Thiruvananthapuram,Kerala,,,,,8.5752928,77.0898856,"Free WiFi, Air Conditioning, 24/7 Front Desk",Budget,+91-6857-572722,info@ammaresta.com,https://www.ammarestaurana.com,,3.7,82,,14:00,12:00,"Standard Room, Deluxe Room",OpenStreetMap
Traditional kitchen,Thiruvananthapuram,Kerala,"karakulam, Trivandrum",,,,8.5619584,76.9827953,"Free WiFi, Air Conditioning, 24/7 Front Desk",Budget,+91-6268-123558,info@traditiona.com,https://www.traditionalkit.com,,4.1,485,,14:00,12:00,"Standard Room, Deluxe Room",OpenStreetMap
Hotel Sai Krishna,Thiruvananthapuram,Kerala,"Attakulangara Vallakadav Road, Sreevaraham Thiruvananthapuram",,,,8.4788854,76.9425082,"Free WiFi, Air Conditioning, 24/7 Front Desk",Budget,+91-6596-879054,info@hotelsai.com,https://www.hotelsaikrish.com,,4.0,95,,14:00,12:00,"Standard Room, Deluxe Room",OpenStreetMap
Anil Hotel,Thiruvananthapuram,Kerala,,,,,8.4786307,76.9421595,"Free WiFi, Air Conditioning, 24/7 Front Desk",Budget,+91-8595-500390,info@anilhotel.com,https://www.anilhotel.com,,3.3,480,,14:00,12:00,"Standard Room, Deluxe Room",OpenStreetMap
Community Kitchen,Thiruvananthapuram,Kerala,"Palaikonam, Aryanad",,,,8.575214,77.0903725,"Free WiFi, Air Conditioning, 24/7 Front Desk",Budget,+91-8491-844091,info@community.com,https://www.communitykitch.com,,3.4,347,,14:00,12:00,"Standard Room, Deluxe Room",OpenStreetMap
White Damar,Thiruvananthapuram,Kerala,,,,,8.4678955,76.9839742,"Free WiFi, Air Conditioning, 24/7 Front Desk",Budget,+91-9966-946078,info@whitedama.com,https://www.whitedamar.com,,3.8,31,,14:00,12:00,"Standard Room, Deluxe Room",OpenStreetMap
Hotel Samthrupthi,Thiruvananthapuram,Kerala,,,,,8.4802611,76.9677013,"Free WiFi, Air Conditioning, 24/7 Front Desk",Budget,+91-6705-887098,info@hotelsamt.com,https://www.hotelsamthrupt.com,,3.4,223,,14:00,12:00,"Standard Room, Deluxe Room",OpenStreetMap
Hotel Annapoorna,Thiruvananthapuram,Kerala,,,,,8.4850244,76.9479589,"Free WiFi, Air Conditioning, 24/7 Front Desk",Budget,+91-8795-479339,info@hotelanna.com,https://www.hotelannapoorn.com,,3.7,117,,14:00,12:00,"Standard Room, Deluxe Room",OpenStreetMap
Uday Suites - The Garden Hotel,Thiruvananthapuram,Kerala,"T.C. 34, 757/3, Watts Ln, Shanghumugham, Thiruvananthapuram",,,,8.4838315,76.9111778,"Free WiFi, Air Conditioning, 24/7 Front Desk",Budget,+91-9327-802726,info@udaysuite.com,https://www.udaysuitest.com,,4.1,419,,14:00,12:00,"Standard Room, Deluxe Room",OpenStreetMap
Seaside Homestay,Thiruvananthapuram,Kerala,,,,,8.4813168,76.9103188,"Free WiFi, Air Conditioning, 24/7 Front Desk",Budget,+91-7160-502135,info@seasideho.com,https://www.seasidehomesta.com,,3.7,440,,14:00,12:00,"Standard Room, Deluxe Room",OpenStreetMap
Shaji hotel,Thiruvananthapuram,Kerala,"Shaji hotel, Kaniyapuram",,,,8.5883575,76.8538894,"Free WiFi, Air Conditioning, 24/7 Front Desk",Budget,+91-9490-852323,info@shajihote.com,https://www.shajihotel.com,,3.7,41,,14:00,12:00,"Standard Room, Deluxe Room",OpenStreetMap
Manali Hotel,Thiruvananthapuram,Kerala,"Nedumangad - Shorlacode Road, Thiruvananthapuram",,,,8.5800018,77.0842193,"Free WiFi, Air Conditioning, 24/7 Front Desk",Budget,+91-7519-495353,info@manalihot.com,https://www.manalihotel.com,,3.7,406,,14:00,12:00,"Standard Room, Deluxe Room",OpenStreetMap
Punartham Janakeeya Hotel,Thiruvananthapuram,Kerala,"Vazhayila - Keezhekallayam Road, Trivandrum",,,,8.5481647,76.971197,"Free WiFi, Air Conditioning, 24/7 Front Desk",Budget,+91-6825-724077,info@punartham.com,https://www.punarthamjanak.com,,3.4,111,,14:00,12:00,"Standard Room, Deluxe Room",OpenStreetMap
Punyalan,Thiruvananthapuram,Kerala,,,,,8.5042879,76.9447973,"Free WiFi, Air Conditioning, 24/7 Front Desk",Budget,+91-7796-687205,info@punyalan.com,https://www.punyalan.com,,4.1,464,,14:00,12:00,"Standard Room, Deluxe Room",OpenStreetMap
priya hotel,Thiruvananthapuram,Kerala,,,,,8.4797577,77.02101,"Free WiFi, Air Conditioning, 24/7 Front Desk",Budget,+91-8479-326216,info@priyahote.com,https://www.priyahotel.com,,3.4,461,,14:00,12:00,"Standard Room, Deluxe Room",OpenStreetMap
Jithu Joji Poojappura,Thiruvananthapuram,Kerala,,,,,8.491104,76.9727759,"Free WiFi, Air Conditioning, 24/7 Front Desk",Budget,+91-7356-751210,info@jithujoji.com,https://www.jithujojipooj.com,,3.9,468,,14:00,12:00,"Standard Room, Deluxe Room",OpenStreetMap
Kovalam Palace,Thiruvananthapuram,Kerala,,,,,8.3929219,76.9721044,"Free WiFi, Air Conditioning, 24/7 Front Desk, Spa, Pool, Gym, Restaurant, Room Service",Luxury,+91-6876-796996,info@kovalampa.com,https://www.kovalampalace.com,,4.4,80,,14:00,12:00,"Standard Room, Deluxe Room, Suite, Executive Room",OpenStreetMap
hotel blue nest,Thiruvananthapuram,Kerala,"Manjalikulam Road, Thiruvananthapuram",,,,8.4886752,76.9494335,"Free WiFi, Air Conditioning, 24/7 Front Desk",Budget,+91 4713012800,info@hotelblue.com,https://www.hotelbluenest.in/,,4.0,110,,14:00,12:00,"Standard Room, Deluxe Room",OpenStreetMap
OYO 67520 Hotel Wintro,Thiruvananthapuram,Kerala,"NH66 Thiruvananthapuram Bypass, Trivandrum",,,,8.4427857,76.9522362,"Free WiFi, Air Conditioning, 24/7 Front Desk",Budget,+91-7519-153768,info@oyo67520.com,https://www.oyo67520hotel.com,,3.3,301,,14:00,12:00,"Standard Room, Deluxe Room",OpenStreetMap
Kailas Inn,Thiruvananthapuram,Kerala,"NSS School Junction, Airpot Road Near Padmanabha Swamy Temple, W Fort - Swathi Nagar Rd, Perunthanni, trivandrum",,,,8.4822582,76.9384969,"Free WiFi, Air Conditioning, 24/7 Front Desk",Budget,+91-8680-652570,info@kailasinn.com,https://www.kailasinn.com,,3.8,339,,14:00,12:00,"Standard Room, Deluxe Room",OpenStreetMap
Hotel Keys,Thiruvananthapuram,Kerala,"fire station road, thampanoor",,,,8.4962459,76.9527005,Internet,Budget,+91-7680-256035,info@hotelkeys.com,https://www.hotelkeys.com,,3.9,78,,14:00,12:00,"Standard Room, Deluxe Room",OpenStreetMap
