hotel_id,city,display_name,latitude,longitude,formatted_address,hospitals_count_1km,pharmacies_count_1km,shopping_count_1km,restaurants_count_1km,banks_count_1km,parks_count_1km,fuel_stations_count_2_5km,ev_charging_count_2_5km,entertainment_count_2_5km,transport_hubs_count_2_5km,walkability_score,shopping_score,restaurant_score,bank_score,green_space_score,hospital_score,pharmacy_score,entertainment_score,locality_score
ben001,Bengaluru,Holiday Inn Bengaluru Racecourse by IHG,12.9799654,77.57847850000002,"Ward No.94, 16/1, Seshadri Rd, Gandhi Nagar, Bengaluru, Karnataka 560009, India",9,8,3,77,47,0,9,5,17,238,84,37,100,100,0,100,100,100,100
ben002,Bengaluru,Goldfinch Hotel Bengaluru,12.985376899999999,77.5794755,"32/3, Crescent Rd, off Race Course Road, High Grounds, Gandhi Nagar, Bengaluru, Karnataka 560001, India",10,9,3,72,27,0,10,4,14,234,84,37,100,100,0,100,100,100,100
ben003,Bengaluru,Hotel Paramos Inn,12.916703,77.593904,"1353, Marenahalli Rd, Jayanagara 9th Block, Jayanagar, Bengaluru, Karnataka 560041, India",22,12,9,87,48,1,6,3,9,99,100,100,100,100,20,100,100,100,100
ben004,Bengaluru,GRAND KALINGA HOTEL,12.976225900000001,77.5786043,"19 & 20, 3rd Main Rd, Gandhi Nagar, Bengaluru, Karnataka 560009, India",9,6,4,72,54,0,11,6,18,225,82,50,100,100,0,100,75,100,100
ben005,Bengaluru,"The Oberoi, Bengaluru",12.9736048,77.6184025,"37-39, Mahatma Gandhi Rd, Yellappa Garden, Yellappa Chetty Layout, Sivanchetti Gardens, Bengaluru, Karnataka 560001, India",8,3,6,67,50,0,1,12,13,105,81,75,100,100,0,100,37,100,100
ben006,Bengaluru,ibis Bengaluru City Centre,12.967381999999999,77.593907,"Plot No - 30, Raja Ram Mohan Roy Rd, off Richmond Road, Sampangi Rama Nagara, Bengaluru, Karnataka 560027, India",23,11,3,116,57,0,7,7,15,160,84,37,100,100,0,100,100,100,100
ben007,Bengaluru,The Grand Magrath Hotel,12.9705151,77.608066,"The Grand Magrath Hotel, 30, Magrath Rd, Ashok Nagar, Bengaluru, Karnataka 560025, India",9,9,18,269,80,1,2,7,12,134,100,100,100,100,20,100,100,100,100
ben008,Bengaluru,FabHotel Royale Basant Residency,12.977431,77.577646,"3, 4th Main Rd, opp. Jain Temple, Gandhi Nagar, Bengaluru, Karnataka 560009, India",10,6,4,78,51,0,11,6,18,233,82,50,100,100,0,100,75,100,100
ben009,Bengaluru,LANGFORD KEYS By TGI,12.9613176,77.5951343,"35/2, Langford Rd Cross, Bheemanna Garden, Shanti Nagar, Bengaluru, Karnataka 560025, India",24,12,7,67,43,0,10,7,14,139,96,87,100,100,0,100,100,100,100
ben010,Bengaluru,"Vivanta Bengaluru, Residency Road",12.9722428,77.6086284,"66, Residency Rd, Srinivas Nagar, Shanthala Nagar, Ashok Nagar, Bengaluru, Karnataka 560025, India",8,7,15,269,84,1,2,7,13,127,97,100,100,100,20,100,87,100,100
ben011,Bengaluru,The Chancery Hotel,12.975633,77.5992626,"10/6, Lavelle Road, Shanthala Nagar, Ashok Nagar, Bengaluru, Karnataka 560001, India",7,16,10,252,76,2,5,8,19,143,100,100,100,100,40,100,100,100,100
ben012,Bengaluru,Open Hotel by Olive - The Infantry Hotel,12.9807654,77.6045479,"66, Infantry Rd, Tasker Town, Shivaji Nagar, Bengaluru, Karnataka 560001, India",13,11,12,213,75,2,3,8,16,147,100,100,100,100,40,100,100,100,100
ben013,Bengaluru,"Vividus Hotels , Bangalore",12.9846679,77.578344,"#3, Kumarakrupa Rd, Madhava Nagar, Gandhi Nagar, Bengaluru, Karnataka 560001, India",10,11,3,72,31,0,10,4,13,232,84,37,100,100,0,100,100,100,100
ben014,Bengaluru,"Treebo Apple Villa, Bangalore",12.961428699999999,77.5893619,"Left Wing, Apple Villa, No. 16, Lal Bagh Main Rd, behind SP Complex, Srinivas Colony, Sudhama Nagar, Bengaluru, Karnataka 560027, India",23,7,0,58,47,0,13,8,14,142,72,0,100,100,0,100,87,100,100
ben015,Bengaluru,Arafa Inn,12.977621099999999,77.5768501,"23, 5th Main Road, 3rd Cross Rd, behind Chicken County Restaurant, Gandhi Nagar, Bengaluru, Karnataka 560009, India",10,6,4,77,51,0,11,6,17,233,82,50,100,100,0,100,75,100,100
ben016,Bengaluru,Nahar Heritage Hotel,12.9710454,77.6007245,"14, St Mark's Rd, opposite Bishop Cotton Girls School, Shanthala Nagar, Ashok Nagar, Bengaluru, Karnataka 560001, India",11,15,12,287,64,2,6,8,15,142,100,100,100,100,40,100,100,100,100
ben017,Bengaluru,The Leela Palace Bengaluru - Garden City's Only Modern Palace Hotel,12.9603365,77.6484361,"23, HAL Old Airport Rd, HAL 2nd Stage, Kodihalli, Bengaluru, Karnataka 560008, India",20,20,11,113,34,2,1,5,3,48,100,100,100,100,40,100,100,60,100
ben018,Bengaluru,MySpace Silverstar Hotel,12.979153,77.579093,"126, 6th Cross Rd, near Freedom Park, Opposite Vajreshwari Combines, Gandhi Nagar, Bengaluru, Karnataka 560009, India",10,7,3,76,43,0,10,5,17,236,81,37,100,100,0,100,87,100,100
ben019,Bengaluru,Hotel Swagath,12.973812599999999,77.57579799999999,"75 Hospital Road, Balepete Main Rd, near Upparpet Police Station, Balepete, Chickpet, Bengaluru, Karnataka 560053, India",10,8,4,71,52,0,12,5,16,215,87,50,100,100,0,100,100,100,100
ben020,Bengaluru,Trinity Suites,12.9712518,77.6260029,"1/3, Artillery Rd, Halasuru, Cambridge Layout, Bengaluru, Karnataka 560008, India",18,9,4,47,32,0,1,8,8,98,87,50,100,100,0,100,100,100,100
ben021,Bengaluru,"Country Inn & Suites by Radisson, Bengaluru Hebbal Road",13.0419462,77.6130838,"Plot No 514, Outer Ring Rd, opp. Lumbini Garden, Kanaka Nagar, Veerannapalya, Nagavara, Bengaluru, Karnataka 560045, India",1,1,0,25,4,1,7,1,3,36,32,0,100,40,20,20,12,60,100
ben022,Bengaluru,Treebo Akshaya Bull Temple,12.9441156,77.5679755,"47, 1, Bull Temple Rd, Sunkenahalli, Gandhi Bazaar, Basavanagudi, Bengaluru, Karnataka 560004, India",41,4,6,66,39,0,18,2,6,87,83,75,100,100,0,100,50,100,100
ben023,Bengaluru,Akshaya Aura Hotel,12.9762639,77.5793778,"6, Kalidasa Marg, Gandhi Nagar, Bengaluru, Karnataka 560009, India",9,5,4,71,50,0,11,6,18,227,79,50,100,100,0,100,62,100,100
ben024,Bengaluru,"ITC Windsor, a Luxury Collection Hotel, Bengaluru",12.994131099999999,77.5858958,"Windsor Square, 25, Golf Course Rd, Abshot Layout, Vasanth Nagar, Bengaluru, Karnataka 560052, India",8,2,2,54,24,0,8,4,14,219,66,25,100,100,0,100,25,100,100
ben025,Bengaluru,Saavees Residency,12.9978999,77.5522823,"2nd Floor, XHX2+4WH, 677, 12th Main Rd, behind Navarang Theatre, 2nd Block, Rajajinagar, Bengaluru, Karnataka 560010, India",41,24,6,98,52,0,15,1,6,176,93,75,100,100,0,100,100,100,100
ben026,Bengaluru,"ICON Boutique Hotel, Domlur, Indiranagar",12.9650099,77.63835519999999,"210, 1st Main Rd, near Domlur, 2nd stage Indiranagar, Stage 2, Domlur, Bengaluru, Karnataka 560071, India",32,25,15,185,51,1,1,6,4,83,100,100,100,100,20,100,100,80,100
ben027,Bengaluru,City Centre Residency,12.979281799999999,77.6374831,"metro station, 350, 12th A Cross Rd, near Indiranagar, Indira Nagar 1st Stage, Stage 1, Indiranagar, Bengaluru, Karnataka 560038, India",49,32,10,188,73,1,2,7,5,79,100,100,100,100,20,100,100,100,100
ben028,Bengaluru,Nalapad Hotel Bangalore International,12.9847938,77.5791746,"2A-2B, Crescent Rd, near Racecourse, High Grounds, Gandhi Nagar, Bengaluru, Karnataka 560001, India",9,10,2,76,29,0,10,4,14,234,81,25,100,100,0,100,100,100,100
ben029,Bengaluru,Octave Hotel & Spa JP Nagar,12.910926,77.576825,"9th Cross Rd, SBI Colony, 1st Phase, J. P. Nagar, Bengaluru, Karnataka 560078, India",28,8,6,29,26,1,10,1,6,94,93,75,100,100,20,100,100,100,100
ben030,Bengaluru,The Kanishka Grand,12.9781546,77.5800721,"2, 2nd Main Rd, Gandhi Nagar, Bengaluru, Karnataka 560009, India",9,7,3,76,48,0,11,5,18,237,81,37,100,100,0,100,87,100,100
ben031,Bengaluru,Hotel Hindusthan International SELECT,12.906554999999999,77.592947,"686,15th Cross, Ring road, Jeewan Griha Colony, 2nd Phase, J. P. Nagar, Bengaluru, Karnataka 560078, India",16,6,8,108,34,0,7,2,9,79,95,100,100,100,0,100,75,100,100
ben032,Bengaluru,Treebo Sahara Suites,12.926214799999999,77.6169424,"84, Hosur Rd, Zuzuvadi, Madiwala, 1st Stage, BTM Layout, Bengaluru, Karnataka 560068, India",27,10,9,118,26,0,8,8,6,83,100,100,100,100,0,100,100,100,100
ben033,Bengaluru,Hotel Royal Orchid,12.957500999999999,77.64409619999999,"adjoining KGA Golf Course, 1, Golf Avenue, HAL Old Airport Rd, Domlur, Bengaluru, Karnataka 560071, India",12,18,11,68,38,1,1,5,3,57,100,100,100,100,20,100,100,60,100
ben034,Bengaluru,The Elanza Hotel,12.9652818,77.6019805,"88/2, Richmond Rd, Richmond Town, Bengaluru, Karnataka 560025, India",15,16,12,161,46,1,6,6,14,141,100,100,100,100,20,100,100,100,100
ben035,Bengaluru,SRI HARI PRESENTA,12.979314299999999,77.575181,"239, Subedar Chatram Rd, near ANAND RAO CIRCLE, Gandhi Nagar, Bengaluru, Karnataka 560001, India",10,10,4,78,44,0,9,4,15,243,87,50,100,100,0,100,100,100,100
ben036,Bengaluru,"Treebo Hotel Zion, Bangalore",12.945534499999999,77.59494819999999,"No 61, Zion Hotel, 1st Main Road, Arekapanahalli, 10th Cross Rd, Someshwara Nagar, Mavalli, Bengaluru, Karnataka 560011, India",27,17,2,33,19,0,13,3,8,96,81,25,100,100,0,100,100,100,100
ben037,Bengaluru,Radisson Hotel Bengaluru City Center,12.976218399999999,77.6196119,"2, Gangadhar Chetty Rd, Halasuru, Yellappa Chetty Layout, Sivanchetti Gardens, Bengaluru, Karnataka 560042, India",9,4,6,61,47,0,2,11,13,109,83,75,100,100,0,100,50,100,100
ben038,Bengaluru,Nice Stay - The Business Hotel,13.0233662,77.5854489,"10, Suguna House, 1st Main, Palace Ground, IISc, Between Mekhri Circle and Hebbal, &, CPRI Rd, near CBI Office, near Armane Nagar, HGH Layout, Ganganagar, Bengaluru, Karnataka 560032, India",12,8,7,27,19,0,9,0,2,74,96,87,100,100,0,100,100,40,100
ben039,Bengaluru,Laika Boutique Stay,12.9706163,77.6168498,"51/24, Rathna Avenue, Richmond Rd, Craig Park Layout, Ashok Nagar, Bengaluru, Karnataka 560025, India",8,3,12,85,55,0,1,9,13,106,87,100,100,100,0,100,37,100,100
ben040,Bengaluru,Hotel Ur Comforts Jayanagar,12.929622,77.5853989,"Brahmalingeshwara complex, 44, 28th C Cross Rd, opp. Reliance trends, Geetha Colony, 4th T Block East, 4th Block, Jayanagar, Bengaluru, Karnataka 560011, India",39,13,10,100,42,0,11,2,9,113,100,100,100,100,0,100,100,100,100
ben041,Bengaluru,The LaLiT Ashok Bengaluru,12.9922264,77.5825643,"Kumarakrupa Rd, High Grounds, Seshadripuram, Bengaluru, Karnataka 560001, India",13,7,3,65,27,0,7,4,14,237,81,37,100,100,0,100,87,100,100
ben042,Bengaluru,"Le Grandeur Hotel, Gandhi Bazaar Main Road, Bengaluru",12.9477417,77.56845460000001,"86, Gandhi Bazaar Main Rd, above Shiva Sagar Signature, above Shiva Sagar Signature Resturant, Gandhi Bazaar, Basavanagudi, Bengaluru, Karnataka 560004, India",41,2,6,60,43,0,20,2,8,91,78,75,100,100,0,100,25,100,100
ben043,Bengaluru,The Royal Comfort,12.9305753,77.5854566,"452/3/16, 27th Cross Rd, Geetha Colony, 4th T Block East, 4th Block, Jayanagar, Bengaluru, Karnataka 560011, India",36,17,11,101,42,0,11,3,9,114,100,100,100,100,0,100,100,100,100
ben044,Bengaluru,The Capitol Hotel,12.982548099999999,77.59455299999999,"3, Raj Bhavan Rd, Vasanth Nagar, Bengaluru, Karnataka 560001, India",7,9,3,102,46,1,6,8,17,197,84,37,100,100,20,100,100,100,100
ben045,Bengaluru,La Sara Hometel,12.9620667,77.6418992,"4033, 100 Feet Rd, next to Domlur Flyover, HAL 2nd Stage, Indiranagar, Bengaluru, Karnataka 560038, India",24,21,15,156,50,1,1,6,4,67,100,100,100,100,20,100,100,80,100
ben046,Bengaluru,Treebo Raj Premier - Indiranagar,12.9819788,77.637823,"32, 12th Cross Rd, opp. RTO, Indira Nagar 1st Stage, Stage 1, Indiranagar, Bengaluru, Karnataka 560038, India",45,29,9,169,64,1,2,7,6,81,100,100,100,100,20,100,100,100,100
ben047,Bengaluru,Hotel Deva Residency,12.9573675,77.5925821,"KH Main Road, opp. Ksrtc Central Office, K.S. Garden, Raja Ram Mohanroy Extension, Sudhama Nagar, Bengaluru, Karnataka 560027, India",20,9,3,54,24,0,11,4,12,127,84,37,100,100,0,100,100,100,100
ben048,Bengaluru,Quality Comforts Guest House,12.9861796,77.60594019999999,"14, New Market Rd, Sulthangunta, Shivaji Nagar, Bengaluru, Karnataka 560051, India",19,10,6,60,42,0,3,6,15,145,93,75,100,100,0,100,100,100,100
ben049,Bengaluru,VBR GrandInn Hotel,12.977861899999999,77.5787311,"#6, 4th Cross Rd, Gandhi Nagar, Bengaluru, Karnataka 560009, India",10,8,3,76,51,0,11,5,17,234,84,37,100,100,0,100,100,100,100
ben050,Bengaluru,The Porch Inn Hotel/Service Apartments.,12.944584899999999,77.596693,"1/11, Lakkasandra,13th Cross, Hosur Main Road, adjacent to NIMHANS, near to Wilson Manor Apartments, Lakkasandra, Wilson Garden, Bengaluru, Karnataka 560029, India",27,17,2,32,20,0,13,4,8,91,81,25,100,100,0,100,100,100,100
ben051,Bengaluru,Sri Sai Suites,12.8909207,77.6061327,"No 133, Sri Sai Suites, Bannerghatta Rd, near Ayyappa swamy Temple, behind INDIAN INSTITUTE OF MANAGEMENT BANGALORE, Gayathri Layout, Vijaya Bank Layout, 7899561261, Bengaluru, Karnataka 560076, India",14,5,12,31,13,0,3,0,6,11,92,100,100,100,0,100,62,100,100
ben052,Bengaluru,"jüSTa Indiranagar, Bangalore",12.971275100000002,77.6406725,"1st Cross Road, 796, 12th Main Rd, HAL 2nd Stage, Appareddipalya, Indiranagar, Bengaluru, Karnataka 560008, India",74,31,21,305,84,1,2,6,4,66,100,100,100,100,20,100,100,80,100
ben053,Bengaluru,Renaissance Bengaluru Race Course Hotel,12.9842389,77.57645409999999,"No 17 and 17/1, Race Course Rd, Madhava Nagar, Extension, Bengaluru, Karnataka 560001, India",9,11,3,75,36,0,9,4,13,238,84,37,100,100,0,100,100,100,100
ben054,Bengaluru,Dr Rajkumar International Hotel,12.9792635,77.577415,"109, 6th Cross Rd, Gandhi Nagar, Bengaluru, Karnataka 560009, India",10,9,4,79,47,0,10,5,15,245,87,50,100,100,0,100,100,100,100
ben055,Bengaluru,Hotel Kandi Tree,12.9289534,77.5825189,"#118, 119, 8th B Main Rd, 4th Block, Jayanagar, Bengaluru, Karnataka 560011, India",35,12,10,106,43,0,14,2,9,111,100,100,100,100,0,100,100,100,100
ben056,Bengaluru,MyWorkStay,12.9171858,77.6152238,"My work stay Building #56 29th main, 1st Cross Rd, Old Madiwala, Jay Bheema Nagar, 1st Stage, BTM 1st Stage, Bengaluru, Karnataka 560068, India",23,12,7,63,31,1,9,8,8,76,96,87,100,100,20,100,100,100,100
ben057,Bengaluru,"Taj MG Road, Bengaluru",12.9733456,77.6198225,"No: 41/3, Mahatma Gandhi Rd, near Memories of China, Yellappa Garden, Yellappa Chetty Layout, Sivanchetti Gardens, Bengaluru, Karnataka 560001, India",9,5,6,59,48,0,1,10,12,110,86,75,100,100,0,100,62,100,100
ben058,Bengaluru,Coastal Grand - Bangalore,12.8525787,77.66669209999999,"1793/1/12, Nalini Linga Reddy Souvenir, Phase 1 Service Road, Hosur Rd, Konappana Agrahara, Electronic City, Bengaluru, Karnataka 560100, India",11,0,0,24,16,1,2,0,1,46,54,0,96,100,20,100,0,20,100
ben059,Bengaluru,Hotel Embassy,12.978278399999999,77.5759662,"Anathashram lane, 2/1, Subedar Chatram Rd, Gandhinagar, Majestic, Bengaluru, Karnataka 560009, India",10,7,3,75,42,0,11,6,15,241,81,37,100,100,0,100,87,100,100
ben060,Bengaluru,THE ON TIME HOTEL Bangalore,12.9728547,77.6095828,"50, Residency Rd 1st Cross, Ashok Nagar, Bengaluru, Karnataka 560025, India",8,6,15,260,87,1,1,7,12,123,95,100,100,100,20,100,75,100,100
ben061,Bengaluru,"The Ritz-Carlton, Bangalore",12.968349799999999,77.6011114,"99, Residency Rd, Shanthala Nagar, Ashok Nagar, Bengaluru, Karnataka 560025, India",13,18,16,291,66,1,6,7,14,140,100,100,100,100,20,100,100,100,100
ben062,Bengaluru,Octave Himalaya Monarch,12.9758721,77.5761088,"84, Subedar Chatram Rd, Gandhi Nagar, Bengaluru, Karnataka 560009, India",9,7,4,71,53,0,11,6,17,230,84,50,100,100,0,100,87,100,100
ben063,Bengaluru,"Radisson Blu Hotel, Bengaluru Outer Ring Road",12.9502139,77.6989321,"90/4, Outer Ring Rd, Marathahalli Village, Marathahalli, Bengaluru, Karnataka 560037, India",12,21,12,86,27,0,1,0,1,8,100,100,100,100,0,100,100,20,99
ben064,Bengaluru,Royal Orchid Central Bengaluru,12.9748466,77.61541620000001,"47, Manipal Centre, 1, Dickenson Rd, Yellappa Garden, Yellappa Chetty Layout, Sivanchetti Gardens, Bengaluru, Karnataka 560042, India",6,3,13,138,66,0,2,9,12,115,87,100,100,100,0,100,37,100,100
ben065,Bengaluru,"ITC Gardenia, a Luxury Collection Hotel, Bengaluru",12.966984799999999,77.59555209999999,"1, Residency Rd, Ashok Nagar, Bengaluru, Karnataka 560025, India",24,11,5,121,55,0,7,7,14,154,90,62,100,100,0,100,100,100,100
ben066,Bengaluru,Bangalore Gate Hotel & Conferences,12.9736482,77.57919369999999,"Gajanana Towers, 9 & 12, Kempegowda Rd, opposite Menaka Theater, near Mysore Bank Circle, Anchepet, Chickpet, Bengaluru, Karnataka 560009, India",10,6,4,72,49,0,11,7,19,226,82,50,100,100,0,100,75,100,100
ben067,Bengaluru,The Signature Inn,12.973162499999999,77.5705502,"479, Old Taluk Cutchery Rd, near Mastaan Dargah, Upparpete, Cottonpete, Bengaluru, Karnataka 560053, India",10,8,4,59,33,0,14,3,15,210,87,50,100,100,0,100,100,100,100
ben068,Bengaluru,Grand Mercure Bangalore,12.9288881,77.6276195,"12th Main Rd, 3rd Block, Koramangala 3 Block, Koramangala, Bengaluru, Karnataka 560034, India",20,19,7,103,42,3,7,9,3,75,96,87,100,100,60,100,100,60,100
ben069,Bengaluru,BLR PODS,12.9625556,77.7167601,"1, ITPL Main Rd, AECS Layout, Brookefield, Bengaluru 115/6 Plot, no 2, 4th Floor, Kundalahalli, Brookefield, Bengaluru, Karnataka 560037, India",28,31,16,171,24,0,0,0,2,17,100,100,100,100,0,100,100,40,100
ben070,Bengaluru,"Radisson Blu Hotel, Atria Bengaluru",12.980234999999999,77.586061,"1, Palace Rd, Ambedkar Veedhi, Bengaluru, Karnataka 560001, India",2,1,1,45,24,0,9,6,21,245,48,12,100,100,0,40,12,100,100
ben071,Bengaluru,The Pride Hotel Bangalore,12.964786199999999,77.5998426,"93, Richmond Rd, Langford Gardens, Bengaluru, Karnataka 560025, India",19,16,10,127,50,1,6,7,14,153,100,100,100,100,20,100,100,100,100
ben072,Bengaluru,Hotel Greenpark Bengaluru,12.9082897,77.6009109,"No 75 & 172, Bannerghatta Rd, Dollar Layout, BTM 2nd Stage, J. P. Nagar, Bengaluru, Karnataka 560076, India",25,11,10,87,45,0,5,2,9,61,100,100,100,100,0,100,100,100,100
ben073,Bengaluru,Shangri-La Bengaluru,12.991869999999999,77.588293,"No. 56, 6B, Palace Rd, Abshot Layout, Vasanth Nagar, Bengaluru, Karnataka 560001, India",4,1,3,85,28,0,7,4,14,217,62,37,100,100,0,80,12,100,100
ben074,Bengaluru,Taj Bangalore,13.197113199999999,77.7101192,"Main Road, opposite Kempegowda International Airport Bengaluru, Gangamuthanahalli, Bengaluru, Karnataka 560300, India",0,0,1,35,4,0,1,1,0,30,29,12,100,40,0,0,0,0,100
ben075,Bengaluru,Novotel Bengaluru Outer Ring Road,12.929749300000001,77.683188,"ECOSPACE BUSINESS PARK, Marathahalli - Sarjapur Outer Ring Rd, opp. RMZ, Kariyammana Agrahara, Bellandur, Bengaluru, Karnataka 560103, India",2,1,1,29,8,0,1,0,3,5,45,12,100,80,0,40,12,60,60
ben076,Bengaluru,"Lemon Tree Hotel, Whitefield, Bangalore",12.9725296,77.7179596,"Plot No. 23, Whitefield Road, EPIP Zone, Brookefield, Bengaluru, Karnataka 560066, India",8,10,5,88,9,0,2,0,3,20,89,62,100,90,0,100,100,60,100
ben077,Bengaluru,"Welcomhotel by ITC Hotels, Richmond Road, Bengaluru- LEED® Platinum and Zero Carbon Certified Hotel in the Heart of Bengaluru",12.9688094,77.6144934,"46, Richmond Rd, Ashok Nagar, Bengaluru, Karnataka 560025, India",9,5,16,152,58,0,2,9,12,110,92,100,100,100,0,100,62,100,100
ben078,Bengaluru,JW Marriott Hotel Bengaluru,12.9723618,77.5950513,"24/1, Vittal Mallya Rd, KG Halli, Shanthala Nagar, Ashok Nagar, Bengaluru, Karnataka 560001, India",13,12,3,166,44,2,5,7,18,184,84,37,100,100,40,100,100,100,100
ben079,Bengaluru,Lemon Tree Premier Ulsoor Lake Bengaluru,12.987447999999999,77.61669359999999,"2/1, St Johns Rd, Halasuru, Hermit Colony, Sivanchetti Gardens, Bengaluru, Karnataka 560042, India",7,2,4,47,17,0,3,5,9,117,72,50,100,100,0,100,25,100,100
ben080,Bengaluru,The Chancery Pavilion,12.966076800000002,77.59854779999999,"135, Residency Rd, Shanthala Nagar, Ashok Nagar, Bengaluru, Karnataka 560025, India",23,16,11,135,50,1,7,7,14,156,100,100,100,100,20,100,100,100,100
ben081,Bengaluru,Hyatt Centric MG Road Bangalore,12.973455,77.62180099999999,"1/1, Swami Vivekananda Road, Mahatma Gandhi Rd, Halasuru, Someshwarpura, Bengaluru, Karnataka 560008, India",10,5,5,55,49,0,0,9,9,108,82,62,100,100,0,100,62,100,100
ben082,Bengaluru,Four Seasons Hotel Bengaluru at Embassy ONE,13.019607599999999,77.58539119999999,"8, Bellary Rd, Dena Bank Colony, Ganganagar, Bengaluru, Karnataka 560032, India",5,5,4,19,14,0,9,0,2,79,75,50,76,100,0,100,62,40,100
ben083,Bengaluru,Fairfield by Marriott Bengaluru Rajajinagar,12.9830936,77.5593393,"59th C Cross, 4th M Block, Manjunath Nagar, Rajajinagar, Bengaluru, Karnataka 560010, India",21,18,5,44,28,0,16,2,9,227,90,62,100,100,0,100,100,100,100
ben084,Bengaluru,Ramada Encore by Wyndham Bangalore Domlur,12.955429700000002,77.6412617,"282 to 285 Amarjyothi Domlur, H B C, S Layout, 1st Stage, Civil Area, Bengaluru, Karnataka 560071, India",11,16,10,56,31,1,1,4,3,49,100,100,100,100,20,100,100,60,100
ben085,Bengaluru,Raj Residency,13.0143124,77.5738748,"239/A1, Raj Residency, 11th Cross, Dr. Jeevaraj Alva Road and Mekhri Circle near Palace Grounds RMV Extension, Sadashiva Nagar, Malleshwaram, Bengaluru, Karnataka 560080, India",15,6,2,33,23,2,9,0,5,135,76,25,100,100,40,100,75,100,100
ben086,Bengaluru,Iris - The Business Hotel,12.9707621,77.6070314,"70, Brigade Rd, Shanthala Nagar, Ashok Nagar, Bengaluru, Karnataka 560025, India",9,10,18,269,82,1,2,7,12,135,100,100,100,100,20,100,100,100,100
ben087,Bengaluru,THE Park Bangalore,12.9739914,77.61986379999999,"The Park, MG Road, 14/7, Bhaskaran Rd, Yellappa Garden, Yellappa Chetty Layout, Sivanchetti Gardens, Bengaluru, Karnataka 560042, India",9,5,6,58,48,0,1,11,13,111,86,75,100,100,0,100,62,100,100
ben088,Bengaluru,Spektrum Hotel Bengaluru Airport,13.1922549,77.6464444,"37, Down Town Park, Gate, Airport Road, near to Airport toll Kempegowda International, Sadahalli, Bengaluru, Karnataka 562110, India",0,0,0,5,2,0,0,1,0,0,7,0,20,20,0,0,0,0,5
ben089,Bengaluru,Springs Hotel and Spa,12.956741899999999,77.58357029999999,"Off J.C. Road, before, Urvasi 19, Siddaiah Rd, opp. Lions eye hospital, Doddamavalli, Sudhama Nagar, Bengaluru, Karnataka 560027, India",17,4,1,52,27,0,16,6,11,124,68,12,100,100,0,100,50,100,100
ben090,Bengaluru,Octave Vels Grand,12.9592818,77.57779049999999,"125, NHK ROAD, Kalasipalya Main Rd, Kalasipalya, Bengaluru, Karnataka 560002, India",16,7,2,46,26,0,16,4,11,194,78,25,100,100,0,100,87,100,100
ben091,Bengaluru,Hilton Bangalore Embassy GolfLinks,12.9490486,77.6453672,"off Intermediate Ring Road, Embassy Golf Links Business Park, Challaghatta, Bengaluru, Karnataka 560071, India",4,0,3,16,5,0,2,0,2,35,45,37,64,50,0,80,0,40,100
ben092,Bengaluru,Bloom Hotel - Koramangala,12.936902199999999,77.61471929999999,"68, 1st Main Rd, near Swadilo Restaurant, KHB Colony, 7th Block, Koramangala, Bengaluru, Karnataka 560095, India",19,8,9,220,41,1,7,8,6,89,100,100,100,100,20,100,100,100,100
ben093,Bengaluru,RG Royal Hotel,13.0167922,77.5490882,"19 near Iskcon Temple, Rajajinagar, 2G8W+5V5, 6th Cross Rd, Karnataka Layout, Ashokapuram, Yeshwanthpur Industrial Suburb, Mahalakshmi Layout, Bengaluru, Karnataka 560022, India",9,5,4,64,27,2,9,3,4,141,79,50,100,100,40,100,62,80,100
ben094,Bengaluru,Zion - A Luxurious Hotel,12.9796719,77.5768697,"31, WH Hanumanthappa Rd, Gandhi Nagar, Bengaluru, Karnataka 560009, India",9,10,3,81,45,0,10,5,15,244,84,37,100,100,0,100,100,100,100
ben095,Bengaluru,Manpho Bell Hotel & Convention Center,12.9765441,77.57049649999999,"Railway Colony, Railway Station, 88, Gubbi Thotadappa Rd, next to Bangalore City, Kempegowda, Majestic, Bengaluru, Karnataka 560023, India",8,8,4,76,36,0,12,3,14,225,87,50,100,100,0,100,100,100,100
ben096,Bengaluru,The Liverpool Hotels,12.9749512,77.6968655,"SY NO 6, 1C, Marathalli-KR Puram, Outer Ring Rd, opp. Rainbow Children's Hospital, Brindavan Extension, Doddanekundi, Doddanekkundi, Bengaluru, Karnataka 560037, India",4,8,9,44,15,0,2,3,3,27,96,100,100,100,0,80,100,60,100
ben097,Bengaluru,Blue Bliss Hotels By PPH Living,12.981349999999999,77.604083,"35, Lady Curzon Rd, Tasker Town, Sampangi Rama Nagar, Bengaluru, Karnataka 560001, India",13,11,10,197,73,1,3,8,16,144,100,100,100,100,20,100,100,100,100
ben098,Bengaluru,H L V GRAND INN,12.978434700000001,77.5762453,"2(10) , Anantha swamy mutt road, Near Kapali Theatre, Subedar Chatram Rd, near kappali theatre, Gandhi Nagar, Bengaluru, Karnataka 560009, India",11,9,4,79,44,0,11,6,15,243,87,50,100,100,0,100,100,100,100
ben099,Bengaluru,The Leela Bhartiya City Bengaluru,13.084629399999999,77.64306599999999,"6/2, Thanisandra Main Rd, Devin Paradise Enclave, Kannuru, Thirumenahalli, Bengaluru, Karnataka 560064, India",2,0,0,11,0,0,0,0,1,21,16,0,44,0,0,40,0,20,79
ben100,Bengaluru,"Holiday Inn Bengaluru Racecourse, an IHG Hotel",12.9799654,77.57847850000002,"Ward No.94, 16/1, Seshadri Rd, Gandhi Nagar, Bengaluru, Karnataka 560009, India",9,8,3,77,47,0,9,5,17,238,84,37,100,100,0,100,100,100,100
ben101,Bengaluru,SS CROWN INN,12.9730572,77.57094250000002,"#490, Old Taluk Cutchery Rd, Upparpete, Cottonpete, Bengaluru, Karnataka 560053, India",10,8,4,60,37,0,13,3,15,210,87,50,100,100,0,100,100,100,100
ben102,Bengaluru,Sheraton Grand Bangalore Hotel at Brigade Gateway,13.012472299999999,77.5548371,"26/1 Dr. Rajkumar Road, Malleswaram, Rajajinagar, Bengaluru, Karnataka 560055, India",13,14,4,78,24,0,10,2,4,153,87,50,100,100,0,100,100,80,100
ben103,Bengaluru,Hotel Maurya,12.980896,77.576621,"22/4, Race Course Rd, Racecourse, Gandhi Nagar, Bengaluru, Karnataka 560009, India",8,10,3,81,45,0,10,4,16,242,84,37,100,100,0,100,100,100,100
ben104,Bengaluru,Ibis Bengaluru Hebbal,13.0402188,77.6187971,"Opposite, Manyata Tech Park Rd, Vyalikaval HBCS Layout, Nagavara, Bengaluru, Karnataka 560045, India",4,1,0,32,5,0,8,1,2,43,45,0,100,50,0,80,12,40,100
ben105,Bengaluru,BangaloreTimes,12.963964299999999,77.7119962,"574, AECS Main Rd opp icici bank, AECS Layout, C block, AECS Layout - A Block, Kundalahalli, Brookefield, Bengaluru, Karnataka 560037, India",17,27,16,159,18,0,1,0,2,14,100,100,100,100,0,100,100,40,100
ben106,Bengaluru,The Lounge Hotel,12.9588374,77.57698119999999,"21, 2nd Cross Rd, Kalasipalya, Bengaluru, Karnataka 560002, India",19,6,2,42,30,0,16,4,9,196,76,25,100,100,0,100,75,100,100
ben107,Bengaluru,iStayHotels Rajajinagar Bengaluru,12.9891923,77.5501124,"1, 5th Main Road, Chord Rd, next to Nandhana Restaurant, Shivanagar, Rajajinagar, Bengaluru, Karnataka 560010, India",34,22,7,69,45,0,15,1,7,170,96,87,100,100,0,100,100,100,100
ben108,Bengaluru,Sterling's Mac Hotel Bengaluru,12.9595521,77.64888510000002,"134, old, HAL Old Airport Rd, opposite to Leela Palace Road, Kodihalli, Bengaluru, Karnataka 560017, India",17,18,12,84,29,1,1,5,3,44,100,100,100,100,20,100,100,60,100
ben109,Bengaluru,Hyatt Centric Hebbal Bengaluru,13.0540779,77.5929574,"43/4, Bellary Rd, Sanjeevini Nagar, Bengaluru, Karnataka 560092, India",25,9,8,75,11,1,3,0,3,44,100,100,100,100,20,100,100,60,100
ben110,Bengaluru,Conrad Bengaluru,12.9752736,77.6205002,"25/3, Kensington Rd, Halasuru, Someshwarpura, Bengaluru, Karnataka 560008, India",9,5,5,56,47,0,2,9,11,113,82,62,100,100,0,100,62,100,100
ben111,Bengaluru,"Taj West End, Bengaluru",12.9845461,77.5845824,"41, Race Course Rd, near Indian Foundation, High Grounds, Bengaluru, Karnataka 560001, India",5,2,2,48,20,0,7,5,18,233,66,25,100,100,0,100,25,100,100
ben112,Bengaluru,La Marvella - Bengaluru,12.9369233,77.5806328,"La Marvella, 1, South End Circle, 14th Cross Rd, next to Infosys Science Foundation, 2nd Block, Jayanagar, Bengaluru, Karnataka 560011, India",41,4,6,71,37,0,14,2,7,112,83,75,100,100,0,100,50,100,100
ben113,Bengaluru,DoubleTree Suites by Hilton Bengaluru Outer Ring Road,12.9191436,77.665173,"Iblur Gate Dr. Puneeth Rajkumar Road, Sarjapur Main Rd, Amblipura, PWD Quarters, 1st Sector, HSR Layout, Bengaluru, Karnataka 560102, India",13,9,11,40,17,0,0,1,3,25,100,100,100,100,0,100,100,60,100
ben114,Bengaluru,"Taj Yeshwantpur, Bengaluru",13.0290874,77.5407647,"2275, Tumkur Rd, Yeshwanthpur Industrial Area, Phase 1, Yeswanthpur, Bengaluru, Karnataka 560022, India",3,0,1,11,11,0,10,2,3,85,38,12,44,100,0,60,0,60,100
ben115,Bengaluru,The Den Bengaluru,12.9876819,77.7333398,"ITPL Main Rd, KIADB Export Promotion Industrial Area, Whitefield, Bengaluru, Karnataka 560066, India",2,0,1,36,5,0,0,0,2,33,38,12,100,50,0,40,0,40,100
ben116,Bengaluru,Grand Mercure Bengaluru at Gopalan Mall,12.9926352,77.66115769999999,"Old Madras Rd, Rahat Bagh, Nagavarapalya, Bengaluru, Karnataka 560093, India",6,5,3,28,13,4,2,0,4,56,76,37,100,100,80,100,62,80,100
ben117,Bengaluru,Palm Meadows Resort,12.9641583,77.7391409,"Varthur Main Rd, Phase 1, Ramagondanahalli, Whitefield, Bengaluru, Karnataka 560066, India",9,6,4,32,13,3,0,0,3,10,82,50,100,100,60,100,75,60,100
ben118,Bengaluru,Sheraton Grand Bengaluru Whitefield Hotel & Convention Center,12.989243499999999,77.7296715,"Prestige Shantiniketan, Hoodi, Thigalarapalya, Whitefield, Bengaluru, Karnataka 560048, India",2,0,1,35,8,1,2,0,2,27,43,12,100,80,20,40,0,40,100
ben119,Bengaluru,DoubleTree by Hilton Bengaluru Whitefield,12.968453499999999,77.716821,"ITPL Main Rd, EPIP Zone, Brookefield, Bengaluru, Karnataka 560037, India",12,20,10,116,14,0,2,0,2,19,100,100,100,100,0,100,100,40,100
ben120,Bengaluru,"The Zuri Whitefield, Bengaluru",12.990163599999999,77.7233533,"The Zuri The Zuri Hotel Building, Hoody Village, 244, Whitefield Main Rd, Maruthi Nagar, KIADB Export Promotion Industrial Area, Whitefield, Bengaluru, Karnataka 560048, India",2,3,2,25,11,1,3,2,2,25,56,25,100,100,20,40,37,40,100
ben121,Bengaluru,Hilton Bengaluru Embassy Manyata Business Park,13.042326599999999,77.6207635,"Block A, Hotel Building, 1, Outer Ring Rd, MS Ramaiah North City, Manayata Tech Park, Nagavara, Bengaluru, Karnataka 560045, India",5,1,1,48,7,0,5,1,2,44,55,12,100,70,0,100,12,40,100
ben122,Bengaluru,Courtyard by Marriott Bengaluru Hebbal,13.042617,77.6094195,"2/55, Outer Ring Rd, Jogappa Layout, Nagavara, Bengaluru, Karnataka 560045, India",1,1,1,4,6,1,6,1,3,43,21,12,16,60,20,20,12,60,100
ben123,Bengaluru,The Oterra Hotel,12.8500283,77.6603171,"43, Velankani, Tech Park, Hosur Rd, Electronic City Phase I, Electronic City, Bengaluru, Karnataka 560100, India",12,5,1,30,16,1,2,0,1,47,70,12,100,100,20,100,62,20,100
ben124,Bengaluru,Ramada by Wyndham Bengaluru Yelahanka,13.1568215,77.56462259999999,"No 45/2,Honnenahalli, Doddaballapura Main Rd, Yelahanka, Bengaluru, Honnenahalli, Karnataka 560119, India",0,0,0,3,0,0,0,0,0,9,2,0,12,0,0,0,0,0,29
ben125,Bengaluru,Shreyas Yoga Retreat,13.159089,77.410634,"Santoshima Farm, Gollahalli Gate, Nelamangala, Bengaluru, Karnataka 562123, India",0,0,0,0,0,0,0,0,0,6,0,0,0,0,0,0,0,0,18
ben126,Bengaluru,Courtyard by Marriott Bengaluru Outer Ring Road,12.9280539,77.682513,"Marathahalli - Sarjapur Outer Ring Rd, Bellandur, Bengaluru, Karnataka 560103, India",4,1,1,67,10,0,1,0,3,5,56,12,100,100,0,80,12,60,65
ben127,Bengaluru,Fairfield by Marriott Bengaluru Outer Ring Road,12.928068999999999,77.682481,"Marathahalli - Sarjapur Outer Ring Rd, Bellandur, Bengaluru, Karnataka 560103, India",4,1,1,67,10,0,1,0,3,5,56,12,100,100,0,80,12,60,65
ben128,Bengaluru,"Vivanta Bengaluru, Whitefield",12.9871242,77.7374904,"Whitefield Main Rd, Pattandur Agrahara, Whitefield, Bengaluru, Karnataka 560066, India",2,0,0,22,7,0,0,0,2,33,36,0,88,70,0,40,0,40,100
ben129,Bengaluru,Bannerghatta Nature Camp-Jungle Lodges,12.7972878,77.5610967,"Bannerghatta Biological Park, Kaggalipura Road, near Hakki-Pikki Colony, Bannerughatta, Bengaluru, Karnataka 560083, India",0,0,0,0,0,0,0,0,0,6,0,0,0,0,0,0,0,0,18
ben130,Bengaluru,The Waverly Hotel and Residences,12.9960343,77.6956723,"Whitefield Main Rd, Devasandra Industrial Estate, Krishnarajapuram, Bengaluru, Karnataka 560048, India",10,5,1,36,11,0,5,3,1,24,70,12,100,100,0,100,62,20,100
ben131,Bengaluru,Gokulam Grand Hotel & Spa,13.0419644,77.55463329999999,"115, Mangalore - Villupuram Rd, HMR Layout, Gokula Extension, Jalahalli, Bengaluru, Karnataka 560054, India",3,3,7,7,7,1,5,2,6,67,57,87,28,70,20,60,37,100,100
ben132,Bengaluru,"Fortune Park JP Celestial, Bengaluru - Member ITC hotels' group",12.980872999999999,77.575988,"5, 43, Race Course Rd, near Anand Rao Circle, Racecourse, Gandhi Nagar, Bengaluru, Karnataka 560009, India",8,10,3,80,45,0,9,4,15,245,84,37,100,100,0,100,100,100,100
ben133,Bengaluru,Aloft Bengaluru Outer Ring Road,12.9371619,77.6951926,"Cessna Business Park Sarjapur - Marathahalli Outer Ring Road, Post, Kaverappa Layout, Kadubeesanahalli, Bellandur, Bengaluru, Karnataka 560103, India",4,1,7,49,7,0,1,0,1,4,70,87,100,70,0,80,12,20,73
ben134,Bengaluru,Holiday Inn Express & Suites Bengaluru OMR,13.055137499999999,77.7635559,"Sy No. 49, Huskur Village, Bidarahalli Hobli, Kattamnallur, Sannatammanahalli, Bengaluru, Karnataka 560049, India",0,0,0,2,0,0,0,0,0,8,1,0,8,0,0,0,0,0,25
ben135,Bengaluru,Hilton Garden Inn Bengaluru Embassy Manyata Business Park,13.0416601,77.6201796,"Block A, Hotel Building, 2, Outer Ring Rd, MS Ramaiah North City, Manayata Tech Park, Nagawara, Bengaluru, Karnataka 560045, India",5,1,1,36,5,0,6,1,2,45,52,12,100,50,0,100,12,40,100
ben136,Bengaluru,"St. Mark's Hotel Bengaluru , a member of Radisson Individuals",12.9691707,77.6001603,"4/1, St Mark's Rd, Shanthala Nagar, Ashok Nagar, Bengaluru, Karnataka 560001, India",14,16,13,281,63,2,6,7,14,139,100,100,100,100,40,100,100,100,100
ben137,Bengaluru,Howard Johnson by Wyndham Bengaluru Hebbal,13.0447341,77.62642129999999,"132 Thanisandra Main Rd, Nagawara Main Rd, 5th Block, MS Ramaiah North City, Manayata Tech Park, Nagavara, Bengaluru, Karnataka 560077, India",6,3,1,51,5,0,5,1,2,47,57,12,100,50,0,100,37,40,100
ben138,Bengaluru,Angsana Oasis Spa And Resort,13.182592399999999,77.55976450000001,"Main, Doddaballapura Main Rd, Northwest County, Adde Vishwanathapura, Rajanukunte, Karnataka 560064, India",1,0,0,0,0,0,0,0,0,8,4,0,0,0,0,20,0,0,25
ben139,Bengaluru,Hotel City Meridian,12.9703317,77.57388859999999,"The City Meridian Hotel No.21 and 23/1 P.S. Lane, KV Temple Street Cross, behind SSK Sangha, Cross, Chickpet, Bengaluru, Karnataka 560053, India",11,8,5,64,46,0,12,3,12,209,90,62,100,100,0,100,100,100,100
ben140,Bengaluru,Magaji Comfort Inn | Hotels - Best Hotel in Majestic Bangalore,12.979438499999999,77.5761584,"88, 6th Cross Rd, Gandhi Nagar, Bengaluru, Karnataka 560009, India",9,10,4,80,47,0,10,4,15,247,87,50,100,100,0,100,100,100,100
ben141,Bengaluru,Hotel Grand Bee,13.0199,77.5544449,"37/1, Railway Parallel Rd, Dr.Ambedkar Nagar, Yeswanthpur, Bengaluru, Karnataka 560022, India",4,9,3,60,20,1,9,2,5,133,80,37,100,100,20,80,100,100,100
ben142,Bengaluru,B Six Hotel,12.9628386,77.5774635,"S.L, N Plaza Complex, 304/3, Kalasipalya Main Rd, KR Market, Kalasipalya, Bengaluru, Karnataka 560002, India",14,5,3,28,25,0,14,5,11,197,76,37,100,100,0,100,62,100,100
ben143,Bengaluru,SAHARA inn,12.9453655,77.5945905,"3rd Cross Road, Arekempanahalli, Someshwara Nagar, Wilson Garden, Bengaluru, Karnataka 560011, India",27,17,1,33,19,0,13,3,8,97,78,12,100,100,0,100,100,100,100
ben144,Bengaluru,Zostel Bangalore (Indiranagar),12.9648497,77.64204430000001,"2032, 17th Main, 1st Cross Rd, HAL 2nd Stage, Indiranagar, Bengaluru, Karnataka 560038, India",31,24,16,234,61,1,2,6,4,70,100,100,100,100,20,100,100,80,100
ben145,Bengaluru,"Hotel Pai Viceroy, Jayanagar",12.9359735,77.5838327,"16th Cross, 1504, 9th Main Rd, Jaya Nagar 1st Block, Jayanagar 3rd Block, Jayanagar, Bengaluru, Karnataka 560011, India",38,9,9,75,35,0,14,2,9,114,100,100,100,100,0,100,100,100,100
ben146,Bengaluru,Narthaki Boutique Hotel,12.977499499999999,77.5768839,"24, 6th Main, WH Hanumanthappa Rd, 3rd Cross, Gandhi Nagar, Bengaluru, Karnataka 560009, India",10,6,4,76,52,0,11,6,17,232,82,50,100,100,0,100,75,100,100
ben147,Bengaluru,Komfort Terraces Hotel,12.975112699999999,77.6071785,"3rd floor, Bluemoon Complex, No 301, M G.Road, Haridevpur, Shanthala Nagar, Ashok Nagar, Bengaluru, Karnataka 560001, India",7,13,17,282,94,1,2,7,14,146,100,100,100,100,20,100,100,100,100
ben148,Bengaluru,Silicon Inn Hotel - Bangalore Airport,13.1637954,77.6315845,"Chikkajala Post, Sharavathi Castle, 12, Kempegowda International Airport Road, Brundavan Layout, Bengaluru, Karnataka 562157, India",2,0,0,1,4,0,1,0,0,2,14,0,4,40,0,40,0,0,14
ben149,Bengaluru,Prestige Residency,12.973307499999999,77.5773389,"No 49, Hospital Road, BVK Iyengar Rd, next to Abhinay Theatre, Balepete, Chickpet, Bengaluru, Karnataka 560053, India",10,8,4,73,51,0,12,6,17,228,87,50,100,100,0,100,100,100,100
ben150,Bengaluru,"Holiday Inn Express Bengaluru Whitefield Itpl, an IHG Hotel",12.9863591,77.73245059999999,"Plot No. 4, beside Harman Building, next to Itpl Back Gate, EPIP Zone, Krishnarajapuram, Bengaluru, Karnataka 560066, India",3,1,1,40,7,0,0,0,2,33,47,12,100,70,0,60,12,40,100
