{
  "pois_1km": {
    "version": 0.6,
    "generator": "Overpass API 0.7.62.8 e802775f",
    "osm3s": {
      "timestamp_osm_base": "2025-09-07T11:22:30Z",
      "copyright": "The data included in this document is from www.openstreetmap.org. The data is made available under ODbL."
    },
    "elements": [
      {
        "type": "node",
        "id": 2684626562,
        "lat": 18.5996865,
        "lon": 73.7550788,
        "tags": {
          "addr:floor": "10",
          "amenity": "restaurant",
          "cuisine": "barbecue",
          "level": "10",
          "name": "Barbeque Nation",
          "name:mr": "\u092c\u093e\u0930\u094d\u092c\u0947\u0915\u094d\u092f\u0942 \u0928\u0947\u0936\u0928"
        }
      },
      {
        "type": "node",
        "id": 6128594954,
        "lat": 18.5926457,
        "lon": 73.7599191,
        "tags": {
          "amenity": "restaurant",
          "name": "Flechazo",
          "name:mr": "\u092b\u094d\u0932\u0947\u091a\u093e\u091d\u094b"
        }
      },
      {
        "type": "node",
        "id": 6128598686,
        "lat": 18.6010603,
        "lon": 73.7545312,
        "tags": {
          "amenity": "atm",
          "brand": "IndusInd Bank",
          "brand:wikidata": "Q2040323",
          "name": "IndusInd Bank",
          "operator": "IndusInd Bank",
          "operator:wikidata": "Q2040323"
        }
      },
      {
        "type": "node",
        "id": 6128598687,
        "lat": 18.6011041,
        "lon": 73.7545332,
        "tags": {
          "amenity": "atm",
          "brand": "SBI",
          "name": "SBI",
          "operator": "SBI"
        }
      },
      {
        "type": "node",
        "id": 6128598689,
        "lat": 18.603882,
        "lon": 73.7532632,
        "tags": {
          "amenity": "cafe",
          "brand": "Cafe Coffee Day",
          "brand:wikidata": "Q5017235",
          "cuisine": "coffee_shop",
          "name": "Cafe Coffee Day",
          "name:mr": "\u0915\u0945\u092b\u0947 \u0915\u0949\u092b\u0940 \u0921\u0947",
          "takeaway": "yes"
        }
      },
      {
        "type": "node",
        "id": 6501795501,
        "lat": 18.5935946,
        "lon": 73.7571543,
        "tags": {
          "amenity": "restaurant",
          "cuisine": "pizza",
          "name": "Big Bang Pizza"
        }
      },
      {
        "type": "node",
        "id": 6501795502,
        "lat": 18.5939124,
        "lon": 73.7570927,
        "tags": {
          "amenity": "restaurant",
          "name": "Pattal"
        }
      },
      {
        "type": "node",
        "id": 6501795503,
        "lat": 18.5930786,
        "lon": 73.7571597,
        "tags": {
          "amenity": "cafe",
          "name": "Kunal Tea and Snacks"
        }
      },
      {
        "type": "node",
        "id": 6501795504,
        "lat": 18.5928955,
        "lon": 73.7571838,
        "tags": {
          "amenity": "restaurant",
          "name": "Eat Zip"
        }
      },
      {
        "type": "node",
        "id": 6501795507,
        "lat": 18.5923032,
        "lon": 73.7573904,
        "tags": {
          "amenity": "restaurant",
          "name": "Hotel Vaishnavi"
        }
      },
      {
        "type": "node",
        "id": 6501795508,
        "lat": 18.5928625,
        "lon": 73.7591875,
        "tags": {
          "amenity": "restaurant",
          "name": "Healthy Bee"
        }
      },
      {
        "type": "node",
        "id": 6513236857,
        "lat": 18.6046824,
        "lon": 73.7596309,
        "tags": {
          "amenity": "restaurant",
          "name": "Eat & Treat"
        }
      },
      {
        "type": "node",
        "id": 6513236858,
        "lat": 18.6046646,
        "lon": 73.7594217,
        "tags": {
          "amenity": "restaurant",
          "name": "Gypsey Tongue"
        }
      },
      {
        "type": "node",
        "id": 6513236859,
        "lat": 18.6046671,
        "lon": 73.7589738,
        "tags": {
          "amenity": "restaurant",
          "name": "Rolls Mania"
        }
      },
      {
        "type": "node",
        "id": 6665702819,
        "lat": 18.5987622,
        "lon": 73.7638272,
        "tags": {
          "addr:floor": "G",
          "amenity": "fast_food",
          "check_date": "2023-01-24",
          "level": "1",
          "name": "\u0936\u094d\u0930\u0940\u0930\u093e\u092e \u0935\u0921\u093e\u092a\u093e\u0935",
          "name:en": "Shri Ram vadapav",
          "name:mr": "\u0936\u094d\u0930\u0940\u0930\u093e\u092e \u0935\u0921\u093e\u092a\u093e\u0935"
        }
      },
      {
        "type": "node",
        "id": 7082518997,
        "lat": 18.5994905,
        "lon": 73.7636078,
        "tags": {
          "addr:district": "Pune",
          "addr:full": "Wakad -Dange Chowk Road ,Near Datta Mandir , Wakad",
          "addr:postcode": "411057",
          "addr:state": "Maharashtra",
          "amenity": "hospital",
          "name": "Polaris Health Care",
          "source": "OpenGovernmentData"
        }
      },
      {
        "type": "node",
        "id": 7649461740,
        "lat": 18.6020756,
        "lon": 73.7476511,
        "tags": {
          "addr:city": "Pune",
          "addr:district": "Pune",
          "addr:full": "Bhumkar, Shedge Wasti Road, Wakad, Pimpri-Chinchwad",
          "addr:housenumber": "Bhumkar, Shedge Wasti Road, Wakad, Pimpri-Chinchwad, Maharashtra 411057",
          "addr:postcode": "411057",
          "addr:state": "Maharastra",
          "addr:street": "Dange Chowk Road",
          "amenity": "hospital",
          "check_date": "2022-11-01",
          "emergency": "yes",
          "healthcare": "hospital",
          "healthcare:speciality": "gynaecology",
          "name": "Golden Care Hospital",
          "name:en": "Golden Care Hospital",
          "name:mr": "\u0917\u094b\u0932\u094d\u0921\u0928 \u0915\u0947\u0905\u0930 \u0939\u0949\u0938\u094d\u092a\u093f\u091f\u0932",
          "phone": "+91 84484 44867;+91 77750 02255",
          "source": "Local Knowledge",
          "wheelchair": "yes"
        }
      },
      {
        "type": "node",
        "id": 9872242993,
        "lat": 18.5977308,
        "lon": 73.7638132,
        "tags": {
          "addr:housenumber": "shop no2, Kalate COmplex, Mauli Chowk",
          "addr:street": "Datta Mandir Road",
          "name": "Creamy Slice By Anu",
          "opening_hours": "Mo-Su 09:00-21:00",
          "operator": "Anushri Sarang Bhagwat",
          "shop": "supermarket"
        }
      },
      {
        "type": "node",
        "id": 9957330125,
        "lat": 18.5988426,
        "lon": 73.7639936,
        "tags": {
          "addr:floor": "3",
          "addr:street": "Datta Mandir Road",
          "addr:unit": "Health Plaza",
          "alt_name": "Dr Anay Deshmukh clinic",
          "alt_name:mr": "\u0921\u0949 \u0905\u0928\u092f \u0926\u0947\u0936\u092e\u0941\u0916 \u091a\u093f\u0915\u093f\u0924\u094d\u0938\u093e\u0932\u092f",
          "amenity": "clinic",
          "check_date": "2023-07-14",
          "healthcare": "clinic",
          "healthcare:speciality": "paediatrics",
          "level": "3",
          "name": "Tiny steps childcare and vaccination clinic",
          "name:en": "Tiny steps childcare and vaccination clinic",
          "name:mr": "\u091f\u093e\u0907\u0928\u0940 \u0938\u094d\u091f\u0947\u092a\u094d\u0938 \u092c\u093e\u0932\u0930\u094b\u0917 \u0935 \u0932\u0938\u0940\u0915\u0930\u0923 \u0915\u0947\u0902\u0926\u094d\u0930",
          "opening_hours": "Mo-Sa 10:00-14:00,18:00-20:30; Su off",
          "operator": "Dr Anay Deshmukh",
          "operator:mr": "\u0921\u0949 \u0905\u0928\u092f \u0926\u0947\u0936\u092e\u0941\u0916",
          "operator:type": "private",
          "payment:upi": "yes",
          "phone": "+91 77440 88440"
        }
      },
      {
        "type": "node",
        "id": 9989065922,
        "lat": 18.5984154,
        "lon": 73.7634439,
        "tags": {
          "name": "\u0938\u094d\u091f\u093e\u0930 \u092c\u093e\u091c\u093e\u0930",
          "name:en": "Star Bazaar",
          "name:mr": "\u0938\u094d\u091f\u093e\u0930 \u092c\u093e\u091c\u093e\u0930",
          "shop": "supermarket"
        }
      },
      {
        "type": "node",
        "id": 9994019936,
        "lat": 18.598837,
        "lon": 73.764061,
        "tags": {
          "addr:housenumber": "3rd floor",
          "addr:street": "Datta Mandir Road",
          "addr:unit": "Health Plaza",
          "amenity": "clinic",
          "check_date": "2022-09-02",
          "healthcare": "clinic",
          "healthcare:speciality": "gastroenterology",
          "name": "Liver and gastro clinic",
          "name:en": "Liver and gastro clinic",
          "name:mr": "\u092f\u0915\u0943\u0924 \u0935 \u091c\u0920\u0930\u093e\u091a\u093e \u0926\u0935\u093e\u0916\u093e\u0928\u093e",
          "operator": "Dr Sachin Palnitkar"
        }
      },
      {
        "type": "node",
        "id": 9994019937,
        "lat": 18.5988097,
        "lon": 73.7640696,
        "tags": {
          "addr:floor": "3",
          "addr:housenumber": "3rd floor",
          "addr:street": "Datta Mandir Road",
          "addr:unit": "Health Plaza",
          "amenity": "clinic",
          "check_date": "2022-09-02",
          "healthcare": "clinic",
          "healthcare:speciality": "ayurved",
          "level": "3",
          "name": "\u0930\u094b\u0939\u093f\u0923\u0940 \u0906\u092f\u0941\u0930\u094d\u0935\u0947\u0926",
          "name:en": "Rohini Ayurved",
          "name:mr": "\u0930\u094b\u0939\u093f\u0923\u0940 \u0906\u092f\u0941\u0930\u094d\u0935\u0947\u0926",
          "operator": "Dr Priya"
        }
      },
      {
        "type": "node",
        "id": 10059081542,
        "lat": 18.5908419,
        "lon": 73.7530731,
        "tags": {
          "amenity": "restaurant",
          "check_date": "2022-09-28",
          "cuisine": "barbecue",
          "name": "AB's - Absolute Barbecues",
          "name:en": "AB's - Absolute Barbecues",
          "name:mr": "\u0972\u092c\u0938\u094b\u0932\u094d\u092f\u0942\u091f\u094d \u092c\u093e\u0930\u094d\u092c\u0947\u0915\u094d\u092f\u0942"
        }
      },
      {
        "type": "node",
        "id": 10059081543,
        "lat": 18.590993,
        "lon": 73.7529479,
        "tags": {
          "amenity": "atm",
          "check_date": "2022-09-28",
          "operator": "Kotak"
        }
      },
      {
        "type": "node",
        "id": 10059081544,
        "lat": 18.5909503,
        "lon": 73.7528108,
        "tags": {
          "amenity": "fast_food",
          "brand": "Venky\u2019s",
          "brand:hi": "\u0915\u0947\u090f\u092b\u0938\u0940",
          "check_date": "2022-09-28",
          "cuisine": "chicken",
          "name": "Venky\u2019s xprs",
          "name:en": "Venky\u2019s xprs",
          "name:mr": "\u0935\u0947\u0902\u0915\u0940\u091c\u094d \u090f\u0915\u094d\u0938\u092a\u094d\u0930\u0947\u0938",
          "takeaway": "yes"
        }
      },
      {
        "type": "node",
        "id": 10060203053,
        "lat": 18.5974816,
        "lon": 73.7638371,
        "tags": {
          "amenity": "atm",
          "check_date": "2022-09-29",
          "operator": "IndusInd Bank"
        }
      },
      {
        "type": "node",
        "id": 10060203054,
        "lat": 18.5973778,
        "lon": 73.763958,
        "tags": {
          "amenity": "atm",
          "check_date": "2022-09-29",
          "operator": "Saraswat Bank"
        }
      },
      {
        "type": "node",
        "id": 10060203055,
        "lat": 18.5974151,
        "lon": 73.7639848,
        "tags": {
          "amenity": "bank",
          "branch": "Wakad",
          "branch:mr": "\u0935\u093e\u0915\u0921",
          "check_date": "2022-09-29",
          "name": "Saraswat Bank",
          "name:en": "Saraswat Bank",
          "name:mr": "\u0938\u093e\u0930\u0938\u094d\u0935\u0924 \u092c\u0945\u0902\u0915",
          "wheelchair": "no"
        }
      },
      {
        "type": "node",
        "id": 10123120130,
        "lat": 18.5985965,
        "lon": 73.7638013,
        "tags": {
          "amenity": "fast_food",
          "check_date": "2022-10-23",
          "cuisine": "juice",
          "diet:vegetarian": "sugarcane juice",
          "name": "\u0915\u093e\u0928\u093f\u092b\u0928\u093e\u0925 \u0930\u0938\u0935\u093e\u0902\u0924\u0940\u0917\u0943\u0939",
          "name:en": "Rasavanti gruha",
          "name:mr": "\u0915\u093e\u0928\u093f\u092b\u0928\u093e\u0925 \u0930\u0938\u0935\u093e\u0902\u0924\u0940\u0917\u0943\u0939"
        }
      },
      {
        "type": "node",
        "id": 10125611466,
        "lat": 18.5982864,
        "lon": 73.7638665,
        "tags": {
          "branch": "Wakad",
          "check_date": "2022-10-24",
          "name": "The Superstore",
          "name:en": "The Superstore",
          "name:mr": "\u0926 \u0938\u0941\u092a\u0930\u0938\u094d\u091f\u094b\u0905\u0930",
          "shop": "supermarket"
        }
      },
      {
        "type": "node",
        "id": 10132643653,
        "lat": 18.5980621,
        "lon": 73.7634988,
        "tags": {
          "addr:floor": "G",
          "amenity": "restaurant",
          "check_date": "2023-01-24",
          "level": "1",
          "name": "Green ways",
          "name:en": "Green ways",
          "name:mr": "\u0917\u094d\u0930\u0940\u0928 \u0935\u0947\u091d"
        }
      },
      {
        "type": "node",
        "id": 10132643656,
        "lat": 18.5961726,
        "lon": 73.7635373,
        "tags": {
          "amenity": "restaurant",
          "check_date": "2022-10-27",
          "cuisine": "Rajasthani",
          "diet:vegetarian": "yes",
          "name": "\u092a\u0930\u092e\u0939\u0902\u0938",
          "name:en": "Paramhans",
          "name:mr": "\u092a\u0930\u092e\u0939\u0902\u0938"
        }
      },
      {
        "type": "node",
        "id": 10285556158,
        "lat": 18.6010007,
        "lon": 73.7621575,
        "tags": {
          "addr:floor": "1",
          "amenity": "cafe",
          "check_date": "2022-12-25",
          "level": "1",
          "name": "Urja Studio",
          "name:en": "Urja Studio",
          "name:mr": "\u0909\u0930\u094d\u091c\u093e \u0938\u094d\u091f\u0942\u0921\u093f\u092f\u094b",
          "office": "coworking",
          "phone": "+91 97305 57776",
          "website": "https://www.urja-studiocafe.com"
        }
      },
      {
        "type": "node",
        "id": 10310521656,
        "lat": 18.6007078,
        "lon": 73.7636984,
        "tags": {
          "addr:floor": "G",
          "amenity": "cafe",
          "check_date": "2023-01-04",
          "level": "1",
          "name": "\u091a\u093e\u092f \u0921\u0947\u0938\u094d\u091f\u093f\u0928\u0947\u0936\u0928",
          "name:en": "Chai destination",
          "name:mr": "\u091a\u093e\u092f \u0921\u0947\u0938\u094d\u091f\u093f\u0928\u0947\u0936\u0928",
          "opening_hours": "Mo-Su 09:00-21:00"
        }
      },
      {
        "type": "node",
        "id": 10579277150,
        "lat": 18.5984803,
        "lon": 73.7640386,
        "tags": {
          "amenity": "hospital",
          "check_date": "2023-01-24",
          "healthcare": "hospital",
          "name": "Alpha hospital",
          "name:en": "Alpha hospital",
          "name:mr": "\u0905\u0932\u094d\u092b\u093e \u0939\u0949\u0938\u094d\u092a\u093f\u091f\u0932"
        }
      },
      {
        "type": "node",
        "id": 10579277153,
        "lat": 18.5984301,
        "lon": 73.7638913,
        "tags": {
          "addr:floor": "G",
          "amenity": "cafe",
          "check_date": "2023-01-24",
          "level": "1",
          "name": "Big bean cafe",
          "name:en": "Big bean cafe",
          "name:mr": "\u092c\u093f\u0917 \u092c\u0940\u0928 \u0915\u0945\u092b\u0947"
        }
      },
      {
        "type": "node",
        "id": 10579277154,
        "lat": 18.5982697,
        "lon": 73.7638062,
        "tags": {
          "addr:floor": "G",
          "amenity": "cafe",
          "check_date": "2023-01-24",
          "level": "1",
          "name": "The Irish coffee",
          "name:en": "The Irish coffee",
          "name:mr": "\u0926 \u0906\u092f\u0930\u093f\u0936 \u0915\u0949\u092b\u0940",
          "outdoor_seating": "no"
        }
      },
      {
        "type": "node",
        "id": 10679643672,
        "lat": 18.6003542,
        "lon": 73.7636529,
        "tags": {
          "addr:floor": "G",
          "amenity": "pharmacy",
          "check_date": "2023-02-20",
          "healthcare": "pharmacy",
          "level": "1",
          "name": "Wellness healthcare",
          "name:en": "Wellness healthcare",
          "name:mr": "\u0935\u0947\u0932\u0928\u0947\u0938 \u0939\u0947\u0932\u094d\u0925\u0915\u0947\u0905\u0930"
        }
      },
      {
        "type": "node",
        "id": 10679656824,
        "lat": 18.6001101,
        "lon": 73.7634111,
        "tags": {
          "amenity": "hospital",
          "check_date": "2023-02-20",
          "emergency": "yes",
          "healthcare": "hospital",
          "name": "Orion hospital",
          "name:en": "Orion hospital",
          "name:mr": "\u0913\u0930\u093e\u092f\u0928 \u0930\u0941\u0917\u094d\u0923\u093e\u0932\u092f",
          "operator:type": "private"
        }
      },
      {
        "type": "node",
        "id": 10679656826,
        "lat": 18.5999218,
        "lon": 73.7634297,
        "tags": {
          "amenity": "hospital",
          "check_date": "2023-02-20",
          "healthcare": "hospital",
          "healthcare:speciality": "optometry",
          "name": "Nakshatra eye hospital",
          "name:en": "Nakshatra eye hospital",
          "name:mr": "\u0928\u0915\u094d\u0937\u0924\u094d\u0930 \u0928\u0947\u0924\u094d\u0930 \u0930\u0941\u0917\u094d\u0923\u093e\u0932\u092f",
          "operator:type": "private"
        }
      },
      {
        "type": "node",
        "id": 10679700961,
        "lat": 18.6006775,
        "lon": 73.7636589,
        "tags": {
          "addr:floor": "1",
          "amenity": "clinic",
          "check_date": "2023-02-20",
          "healthcare": "clinic",
          "healthcare:speciality": "gastroenterology",
          "level": "1",
          "name": "Kaizen gastro care",
          "name:en": "Kaizen gastro care",
          "name:mr": "\u0915\u093e\u0907\u091d\u0947\u0928 \u0917\u0945\u0938\u094d\u091f\u094d\u0930\u094b \u0915\u0947\u0905\u0930",
          "operator:type": "private"
        }
      },
      {
        "type": "node",
        "id": 10679700962,
        "lat": 18.6006117,
        "lon": 73.7636409,
        "tags": {
          "addr:floor": "1",
          "amenity": "clinic",
          "check_date": "2023-02-20",
          "healthcare": "clinic",
          "healthcare:speciality": "cardiology",
          "level": "1",
          "name": "Dr. Kartik Bhosale cardiology clinic",
          "name:en": "Dr. Kartik Bhosale cardiology clinic",
          "name:mr": "\u0921\u0949. \u0915\u093e\u0930\u094d\u0924\u093f\u0915 \u092d\u094b\u0938\u0932\u0947 \u0939\u0943\u0926\u092f\u0935\u093f\u0915\u093e\u0930 \u0926\u0935\u093e\u0916\u093e\u0928\u093e",
          "operator": "Dr. Kartik Bhosale",
          "operator:type": "private"
        }
      },
      {
        "type": "node",
        "id": 10679700963,
        "lat": 18.6005197,
        "lon": 73.7636319,
        "tags": {
          "addr:floor": "1",
          "amenity": "clinic",
          "check_date": "2023-02-20",
          "healthcare": "clinic",
          "healthcare:speciality": "general;gynaecology;dentist",
          "level": "1",
          "name": "Uresta speciality clinic",
          "name:en": "Uresta speciality clinic",
          "name:mr": "\u092f\u0941\u0930\u0947\u0938\u094d\u091f\u093e \u0938\u094d\u092a\u0947\u0936\u0940\u092f\u0932\u093f\u091f\u0940 \u0915\u094d\u0932\u093f\u0928\u093f\u0915",
          "operator:type": "private"
        }
      },
      {
        "type": "node",
        "id": 10692838462,
        "lat": 18.5938399,
        "lon": 73.7572326,
        "tags": {
          "amenity": "atm",
          "brand": "ICICI Bank",
          "brand:wikidata": "Q1653258",
          "name": "ICICI Bank Pimpri Chinchwad",
          "name:en": "ICICI Bank Pimpri Chinchwad",
          "operator": "ICICI Bank",
          "operator:wikidata": "Q1653258",
          "short_name": "ICICI"
        }
      },
      {
        "type": "node",
        "id": 10700895444,
        "lat": 18.5948403,
        "lon": 73.7594634,
        "tags": {
          "amenity": "restaurant",
          "check_date": "2023-03-01",
          "diet:vegetarian": "yes",
          "name": "Krishna",
          "name:en": "Krishna",
          "name:mr": "\u0915\u0943\u0937\u094d\u0923"
        }
      },
      {
        "type": "node",
        "id": 10725502202,
        "lat": 18.594223,
        "lon": 73.759654,
        "tags": {
          "brand": "Reliance",
          "check_date": "2023-09-02",
          "name": "Reliance Smart Superstore.",
          "name:mr": "\u0930\u093f\u0932\u093e\u092f\u0902\u0938 \u0938\u094d\u092e\u093e\u0930\u094d\u091f \u0938\u0941\u092a\u0930 \u0938\u094d\u091f\u094b\u0930",
          "shop": "supermarket"
        }
      },
      {
        "type": "node",
        "id": 10726485231,
        "lat": 18.6009418,
        "lon": 73.7459472,
        "tags": {
          "name": "Icon Tower",
          "shop": "mall"
        }
      },
      {
        "type": "node",
        "id": 10727125136,
        "lat": 18.5981183,
        "lon": 73.7639672,
        "tags": {
          "addr:housename": "Sai crest",
          "addr:street": "Datta Mandir Road",
          "amenity": "hospital",
          "check_date": "2022-10-24",
          "email": "chirayuhospitalpune@gmail.com",
          "emergency": "yes",
          "healthcare": "hospital",
          "healthcare:speciality": "paediatrics",
          "name": "Chirayu hospital",
          "name:en": "Chirayu hospital",
          "name:mr": "\u091a\u093f\u0930\u093e\u092f\u0942 \u0930\u0941\u0917\u094d\u0923\u093e\u0932\u092f",
          "opening_hours": "24/7",
          "phone": "+91 83800 55444; +91 84469 55444",
          "source": "survey",
          "wheelchair": "yes"
        }
      },
      {
        "type": "node",
        "id": 10875058582,
        "lat": 18.6031495,
        "lon": 73.7462361,
        "tags": {
          "amenity": "cafe",
          "name": "Crazy Cheezy Cafe",
          "opening_hours": "Mo-Su 11:00-23:00"
        }
      },
      {
        "type": "node",
        "id": 10913563337,
        "lat": 18.5945954,
        "lon": 73.7594696,
        "tags": {
          "amenity": "cafe",
          "check_date": "2023-05-20",
          "name": "Irani cafe",
          "name:en": "Irani cafe",
          "name:mr": "\u0907\u0930\u093e\u0923\u0940 \u0915\u0945\u092b\u0947"
        }
      },
      {
        "type": "node",
        "id": 11117332912,
        "lat": 18.5920001,
        "lon": 73.7541044,
        "tags": {
          "amenity": "restaurant",
          "diet:vegetarian": "yes",
          "name": "Radha Krishna Pure Veg Restaurant"
        }
      },
      {
        "type": "node",
        "id": 11179782603,
        "lat": 18.593367,
        "lon": 73.759494,
        "tags": {
          "amenity": "pharmacy",
          "check_date": "2023-09-10",
          "healthcare": "pharmacy",
          "name": "Wakad dispensary",
          "name:mr": "\u0935\u093e\u0915\u0921 \u0914\u0937\u0927\u093e\u0932\u092f"
        }
      },
      {
        "type": "node",
        "id": 11252368165,
        "lat": 18.5999333,
        "lon": 73.7635897,
        "tags": {
          "addr:floor": "G",
          "amenity": "pharmacy",
          "check_date": "2023-10-10",
          "dispensing": "yes",
          "drive_through": "no",
          "healthcare": "pharmacy",
          "level": "1",
          "name": "Drushti Medical",
          "name:en": "Drushti Medical",
          "name:mr": "\u0926\u0943\u0937\u094d\u091f\u0940 \u092e\u0947\u0921\u093f\u0915\u0932"
        }
      },
      {
        "type": "node",
        "id": 11641140355,
        "lat": 18.5932865,
        "lon": 73.759504,
        "tags": {
          "amenity": "restaurant",
          "name": "Empire Garden",
          "name:mr": "\u090f\u092e\u094d\u092a\u093e\u092f\u0930 \u0917\u093e\u0930\u094d\u0921\u0928"
        }
      },
      {
        "type": "node",
        "id": 11831057914,
        "lat": 18.6013695,
        "lon": 73.7639263,
        "tags": {
          "addr:floor": "G",
          "amenity": "restaurant",
          "check_date": "2024-04-19",
          "cuisine": "Rajasthani;thali",
          "diet:vegetarian": "yes",
          "level": "1",
          "name": "Rajwadi Gaurav",
          "name:en": "Rajwadi Gaurav",
          "name:mr": "\u0930\u091c\u0935\u093e\u0921\u0940 \u0917\u094c\u0930\u0935"
        }
      },
      {
        "type": "node",
        "id": 11930207944,
        "lat": 18.5951613,
        "lon": 73.7603514,
        "tags": {
          "addr:street": "Sakharam Waghmare Chowk",
          "amenity": "restaurant",
          "name": "Champaran Handi Junction"
        }
      },
      {
        "type": "node",
        "id": 12135341237,
        "lat": 18.6068306,
        "lon": 73.7523081,
        "tags": {
          "amenity": "restaurant",
          "name": "Dakkhan Idlee Company",
          "name:en": "Dakkhan Idlee Company",
          "name:hi": "\u0926\u0916\u094d\u0916\u0928 \u0907\u0921\u0932\u0940 \u0915\u0902\u092a\u0928\u0940",
          "name:mr": "\u0926\u0916\u094d\u0916\u0928 \u0907\u0921\u0932\u0940 \u0915\u0902\u092a\u0928\u0940"
        }
      },
      {
        "type": "node",
        "id": 12651720438,
        "lat": 18.600994,
        "lon": 73.760708,
        "tags": {
          "addr:city": "Pune",
          "addr:district": "Pune",
          "addr:postcode": "411057",
          "addr:street": "Shree Ganesh Imperia Square, Office No. 205, S. No. 175/3, B/H Postal Colony, Opp. Omega Paradise, Data Mandir Road, Shankar Kalat Nagar, Wakad",
          "amenity": "clinic",
          "healthcare": "clinic",
          "name": "Saarathi Superspeciality Clinic",
          "operator": "Novosalus Technology",
          "operator:type": "private"
        }
      },
      {
        "type": "node",
        "id": 12864243624,
        "lat": 18.6080331,
        "lon": 73.7517597,
        "tags": {
          "amenity": "fast_food",
          "brand": "McDonald's",
          "brand:wikidata": "Q38076",
          "cuisine": "burger",
          "name": "McDonald's",
          "takeaway": "yes"
        }
      },
      {
        "type": "node",
        "id": 12942413821,
        "lat": 18.5978199,
        "lon": 73.7608055,
        "tags": {
          "amenity": "cafe",
          "check_date": "2025-06-21",
          "name": "Cafe Durga",
          "name:en": "Cafe Durga",
          "name:mr": "\u0915\u0945\u092b\u0947 \u0926\u0941\u0930\u094d\u0917\u093e"
        }
      },
      {
        "type": "node",
        "id": 12942430198,
        "lat": 18.5979653,
        "lon": 73.7626681,
        "tags": {
          "amenity": "pharmacy",
          "brand": "MedPlus",
          "brand:wikidata": "Q65684234",
          "check_date": "2025-06-21",
          "healthcare": "pharmacy",
          "name": "MedPlus"
        }
      },
      {
        "type": "node",
        "id": 13014878905,
        "lat": 18.6011876,
        "lon": 73.7609645,
        "tags": {
          "addr:city": "Pune",
          "addr:district": "Pune",
          "addr:postcode": "411057",
          "addr:street": "Saarathi clinic, Shree Ganesh Imperia Square, Office No. 205, 175/3, B/H Postal Colony, Opp. Omega Paradise, Datta Mandir Road, Shankar Kalat Nagar, Wakad",
          "amenity": "hospital",
          "healthcare": "hospital",
          "healthcare:speciality": "gastroenterology",
          "name": "Dr. Abhijeet Karad",
          "operator": "Novosalus Technology",
          "operator:type": "private"
        }
      }
    ]
  },
  "pois_2_5km": {
    "version": 0.6,
    "generator": "Overpass API 0.7.62.8 e802775f",
    "osm3s": {
      "timestamp_osm_base": "2025-09-07T11:22:30Z",
      "copyright": "The data included in this document is from www.openstreetmap.org. The data is made available under ODbL."
    },
    "elements": [
      {
        "type": "node",
        "id": 1624128500,
        "lat": 18.5939372,
        "lon": 73.7355357,
        "tags": {
          "amenity": "fuel",
          "brand": "Hindustan Petroleum",
          "brand:wikidata": "Q1619375",
          "brand:wikipedia": "en:Hindustan Petroleum",
          "name": "Hindustan Petroleum (HP)",
          "official_name": "Hindustan Petroleum",
          "operator": "Hindustan Petroleum",
          "wikipedia:en": "Hindustan Petroleum"
        }
      },
      {
        "type": "node",
        "id": 1684953195,
        "lat": 18.5920603,
        "lon": 73.7611058,
        "tags": {
          "amenity": "fuel",
          "brand": "Indian Oil",
          "brand:wikidata": "Q1289348",
          "brand:wikipedia": "en:Indian Oil Corporation",
          "fuel:diesel": "yes"
        }
      },
      {
        "type": "node",
        "id": 5518862552,
        "lat": 18.5920739,
        "lon": 73.7446669,
        "tags": {
          "amenity": "cinema",
          "name": "E-Square Xion"
        }
      },
      {
        "type": "node",
        "id": 5784328171,
        "lat": 18.5911995,
        "lon": 73.7489037,
        "tags": {
          "amenity": "fuel",
          "brand": "Indian Oil Petrol Pump",
          "brand:wikidata": "Q1289348",
          "brand:wikipedia": "en:Indian Oil Corporation",
          "name": "Indian Oil Petrol Pump"
        }
      },
      {
        "type": "node",
        "id": 7837166086,
        "lat": 18.6112182,
        "lon": 73.7604376,
        "tags": {
          "amenity": "fuel",
          "check_date": "2024-12-21",
          "name": "HP Fuel Station"
        }
      },
      {
        "type": "node",
        "id": 7837166116,
        "lat": 18.6106386,
        "lon": 73.7602941,
        "tags": {
          "amenity": "fuel",
          "name": "Rahul Auto Service"
        }
      },
      {
        "type": "node",
        "id": 7944597702,
        "lat": 18.5905891,
        "lon": 73.7575185,
        "tags": {
          "construction": "subway",
          "name": "Wakad Chowk\u00a0metro Station",
          "name:en": "Wakad Chowk\u00a0metro Station",
          "name:mr": "\u0935\u093e\u0915\u0921 \u091a\u094c\u0915 \u092e\u0947\u091f\u094d\u0930\u094b \u0938\u094d\u0925\u093e\u0928\u0915",
          "public_transport": "station",
          "railway": "station"
        }
      },
      {
        "type": "node",
        "id": 9887954431,
        "lat": 18.5897385,
        "lon": 73.774282,
        "tags": {
          "addr:street": "Mankar chowk",
          "bus": "yes",
          "name": "Mankar chowk",
          "name:en": "Mankar chowk",
          "name:mr": "\u092e\u093e\u0928\u0915\u0930 \u091a\u094c\u0915",
          "public_transport": "stop_position"
        }
      },
      {
        "type": "node",
        "id": 9950727513,
        "lat": 18.6127584,
        "lon": 73.7660083,
        "tags": {
          "amenity": "fuel"
        }
      },
      {
        "type": "node",
        "id": 10230168185,
        "lat": 18.6026434,
        "lon": 73.7766737,
        "tags": {
          "bus": "yes",
          "departures_board": "no",
          "highway": "bus_stop",
          "name": "Kalewadi Phata",
          "name:mr": "\u0915\u093e\u0933\u0947\u0935\u093e\u0921\u0940 \u092b\u093e\u091f\u093e",
          "operator": "PMPML",
          "public_transport": "stop_position",
          "shelter": "yes"
        }
      },
      {
        "type": "node",
        "id": 10290789663,
        "lat": 18.5788787,
        "lon": 73.7624887,
        "tags": {
          "amenity": "charging_station",
          "brand": "Go Ego"
        }
      },
      {
        "type": "node",
        "id": 10590934028,
        "lat": 18.59443,
        "lon": 73.7735725,
        "tags": {
          "bench": "yes",
          "bin": "no",
          "bus": "yes",
          "departures_board": "no",
          "highway": "bus_stop",
          "lit": "no",
          "name": "Kaspate Vasti Shala",
          "name:mr": "\u0915\u0938\u094d\u092a\u091f\u0947 \u0935\u0938\u094d\u0924\u0940 \u0936\u093e\u0933\u093e",
          "public_transport": "stop_position",
          "shelter": "yes",
          "tactile_paving": "no"
        }
      },
      {
        "type": "node",
        "id": 10590934031,
        "lat": 18.5944711,
        "lon": 73.7737076,
        "tags": {
          "bench": "no",
          "bin": "no",
          "bus": "yes",
          "departures_board": "no",
          "highway": "bus_stop",
          "lit": "no",
          "name": "Kaspate Vasti Shala",
          "name:mr": "\u0915\u0938\u094d\u092a\u091f\u0947 \u0935\u0938\u094d\u0924\u0940 \u0936\u093e\u0933\u093e",
          "public_transport": "stop_position",
          "shelter": "no",
          "tactile_paving": "no"
        }
      },
      {
        "type": "node",
        "id": 10719100420,
        "lat": 18.6170757,
        "lon": 73.7673099,
        "tags": {
          "amenity": "charging_station",
          "brand": "goEgo Charging Station",
          "capacity": "1"
        }
      },
      {
        "type": "node",
        "id": 10719666344,
        "lat": 18.591205,
        "lon": 73.7488195,
        "tags": {
          "amenity": "fuel",
          "brand": "Indian Oil",
          "brand:wikidata": "Q1289348",
          "name": "Indian Oil Petrol Pump"
        }
      },
      {
        "type": "node",
        "id": 10725542119,
        "lat": 18.5917027,
        "lon": 73.7561869,
        "tags": {
          "amenity": "fuel",
          "name": "Kaspte Bharat Gas Agency"
        }
      },
      {
        "type": "node",
        "id": 10797010207,
        "lat": 18.5998693,
        "lon": 73.7548665,
        "tags": {
          "amenity": "charging_station",
          "brand": "Tata power",
          "operator": "Tata power",
          "socket:type2": "1"
        }
      },
      {
        "type": "node",
        "id": 10797010208,
        "lat": 18.5995979,
        "lon": 73.7548745,
        "tags": {
          "amenity": "charging_station",
          "brand": "Tata power",
          "operator": "Tata power",
          "socket:type2_combo": "1"
        }
      },
      {
        "type": "node",
        "id": 10870849607,
        "lat": 18.5906635,
        "lon": 73.7457888,
        "tags": {
          "amenity": "charging_station",
          "brand": "GoEgo",
          "fee": "yes"
        }
      },
      {
        "type": "node",
        "id": 11033745938,
        "lat": 18.5897559,
        "lon": 73.7381716,
        "tags": {
          "amenity": "charging_station",
          "brand": "Tata Power",
          "brand:mr": "\u091f\u093e\u091f\u093e \u092a\u093e\u0935\u0930",
          "capacity": "2",
          "covered": "no",
          "fee": "yes",
          "source": "survey"
        }
      },
      {
        "type": "node",
        "id": 12350440058,
        "lat": 18.5907601,
        "lon": 73.7410354,
        "tags": {
          "access": "customers",
          "amenity": "charging_station",
          "brand": "shell",
          "capacity": "30 kw",
          "fee": "yes",
          "operator": "shell"
        }
      }
    ]
  }
}