{
  "pois_1km": {
    "version": 0.6,
    "generator": "Overpass API 0.7.62.8 e802775f",
    "osm3s": {
      "timestamp_osm_base": "2025-09-07T11:07:15Z",
      "copyright": "The data included in this document is from www.openstreetmap.org. The data is made available under ODbL."
    },
    "elements": [
      {
        "type": "node",
        "id": 283152697,
        "lat": 18.5457237,
        "lon": 73.9062599,
        "tags": {
          "amenity": "fast_food",
          "brand": "McDonald's",
          "brand:pa": "\u0a2e\u0a48\u0a15\u0a21\u0a4b\u0a28\u0a32\u0a21\u2019\u0a1c\u0a3c",
          "brand:ur": "\u0645\u06a9\u0688\u0648\u0646\u0644\u0688\u0632",
          "brand:wikidata": "Q38076",
          "brand:wikipedia": "en:McDonald's",
          "brand:wikipedia:pa": "\u0a2e\u0a48\u0a15\u0a21\u0a4b\u0a28\u0a32\u0a21\u2019\u0a1c\u0a3c",
          "brand:wikipedia:ur": "\u0645\u06a9\u0688\u0648\u0646\u0644\u0688\u0632",
          "cuisine": "burger",
          "name": "McDonald's",
          "name:pa": "\u0a2e\u0a48\u0a15\u0a21\u0a4b\u0a28\u0a32\u0a21\u2019\u0a1c\u0a3c",
          "name:ur": "\u0645\u06a9\u0688\u0648\u0646\u0644\u0688\u0632",
          "takeaway": "yes"
        }
      },
      {
        "type": "node",
        "id": 546289209,
        "lat": 18.5459611,
        "lon": 73.9045987,
        "tags": {
          "name": "Megamart Shop",
          "shop": "supermarket"
        }
      },
      {
        "type": "node",
        "id": 831251526,
        "lat": 18.5540074,
        "lon": 73.9051438,
        "tags": {
          "addr:city": "Kalyani Nagar",
          "addr:postcode": "411006",
          "addr:street": "East Avenue",
          "amenity": "restaurant",
          "email": "toitpune@toit.in",
          "name": "Toit brewery and Resturant",
          "phone": "+91 7796694400",
          "source": "survey",
          "website": "https://toit.in/toit-on-tap/pune/"
        }
      },
      {
        "type": "node",
        "id": 1609994720,
        "lat": 18.5464794,
        "lon": 73.9065617,
        "tags": {
          "amenity": "restaurant",
          "cuisine": "indian",
          "name": "Tiger Trail"
        }
      },
      {
        "type": "node",
        "id": 1804237966,
        "lat": 18.5487745,
        "lon": 73.9056726,
        "tags": {
          "amenity": "restaurant",
          "cuisine": "kebab",
          "name": "Marrakesh",
          "name:mr": "\u092e\u0930\u093e\u0915\u0947\u0936"
        }
      },
      {
        "type": "node",
        "id": 2263018409,
        "lat": 18.5490038,
        "lon": 73.9004452,
        "tags": {
          "addr:housename": "Nirvana Complex",
          "addr:postcode": "411006",
          "addr:street": "North Avenue",
          "amenity": "restaurant",
          "cuisine": "international",
          "name": "The Flour Works",
          "website": "https://theflourworks.com/"
        }
      },
      {
        "type": "node",
        "id": 2550695928,
        "lat": 18.5457379,
        "lon": 73.9058142,
        "tags": {
          "amenity": "restaurant",
          "cuisine": "indian",
          "name": "Kalyani Veg",
          "name:mr": "\u0915\u0932\u094d\u092f\u093e\u0923\u0940 \u0935\u094d\u0939\u0947\u091c"
        }
      },
      {
        "type": "node",
        "id": 2550695930,
        "lat": 18.5488016,
        "lon": 73.9054218,
        "tags": {
          "amenity": "restaurant",
          "name": "The Bounty Sizzlers",
          "name:mr": "\u0926 \u092c\u093e\u0909\u0902\u091f\u0940 \u0938\u093f\u091d\u0932\u0930\u094d\u0938"
        }
      },
      {
        "type": "node",
        "id": 2836383187,
        "lat": 18.5524942,
        "lon": 73.899794,
        "tags": {
          "amenity": "restaurant",
          "brand": "Barbeque Nation",
          "brand:wikidata": "Q4859568",
          "cuisine": "barbecue",
          "name": "Barbeque Nation",
          "name:mr": "\u092c\u093e\u0930\u094d\u092c\u0947\u0915\u094d\u092f\u0942 \u0928\u0947\u0936\u0928"
        }
      },
      {
        "type": "node",
        "id": 3788763375,
        "lat": 18.549017,
        "lon": 73.9063415,
        "tags": {
          "amenity": "restaurant",
          "name": "Classic Rock Coffee Co."
        }
      },
      {
        "type": "node",
        "id": 5237312324,
        "lat": 18.5529046,
        "lon": 73.8978373,
        "tags": {
          "amenity": "atm"
        }
      },
      {
        "type": "node",
        "id": 5237312521,
        "lat": 18.5453435,
        "lon": 73.9062706,
        "tags": {
          "amenity": "restaurant",
          "name:en": "Domino's pizza",
          "name:ko": "\ub3c4\ubbf8\ub178\ud53c\uc790"
        }
      },
      {
        "type": "node",
        "id": 5237312522,
        "lat": 18.5542296,
        "lon": 73.8970975,
        "tags": {
          "amenity": "doctors",
          "healthcare": "doctor",
          "name:ko": "\ubcd1\uc6d0"
        }
      },
      {
        "type": "node",
        "id": 6186406656,
        "lat": 18.546563,
        "lon": 73.9009497,
        "tags": {
          "amenity": "cafe",
          "brand": "Starbucks",
          "brand:wikidata": "Q37158",
          "cuisine": "coffee_shop",
          "name": "Starbucks",
          "name:mr": "\u092a\u093f\u091d\u094d\u091d\u093e \u0939\u091f",
          "official_name": "Starbucks Coffee",
          "takeaway": "yes"
        }
      },
      {
        "type": "node",
        "id": 6186406657,
        "lat": 18.5469018,
        "lon": 73.9011931,
        "tags": {
          "amenity": "bank",
          "brand": "Indian Bank",
          "brand:wikidata": "Q2003789",
          "name": "Indian Bank",
          "name:mr": "\u0907\u0902\u0921\u093f\u092f\u0928 \u092c\u0901\u0915",
          "operator": "Indian Bank"
        }
      },
      {
        "type": "node",
        "id": 6186406658,
        "lat": 18.5464892,
        "lon": 73.9014338,
        "tags": {
          "amenity": "bank",
          "brand": "Bank of Baroda",
          "brand:wikidata": "Q2003797",
          "name": "Bank of Baroda",
          "name:mr": "\u092c\u0901\u0915 \u0911\u092b \u092c\u0921\u094b\u0926\u093e",
          "operator": "Bank of Baroda"
        }
      },
      {
        "type": "node",
        "id": 6186406665,
        "lat": 18.5460372,
        "lon": 73.9041247,
        "tags": {
          "amenity": "bank",
          "brand": "HDFC Bank",
          "brand:wikidata": "Q631047",
          "name": "HDFC Bank",
          "name:mr": "\u090f\u091a\u0921\u0940\u090f\u092b\u0938\u0940 \u092c\u0901\u0915",
          "operator": "HDFC Bank",
          "short_name": "HDFC"
        }
      },
      {
        "type": "node",
        "id": 6186406666,
        "lat": 18.5460101,
        "lon": 73.9041911,
        "tags": {
          "amenity": "restaurant",
          "name": "Mineority",
          "name:mr": "\u092e\u093e\u0908\u0928\u094b\u0930\u093f\u091f\u0940"
        }
      },
      {
        "type": "node",
        "id": 6186406667,
        "lat": 18.5459699,
        "lon": 73.9064354,
        "tags": {
          "amenity": "restaurant",
          "name": "Cream Craver",
          "name:mr": "\u0915\u094d\u0930\u0940\u092e \u0915\u094d\u0930\u0947\u0935\u094d\u0939\u0930"
        }
      },
      {
        "type": "node",
        "id": 6186406669,
        "lat": 18.5460379,
        "lon": 73.9063865,
        "tags": {
          "amenity": "atm",
          "brand": "Kotak Mahindra Bank",
          "brand:wikidata": "Q2040404",
          "check_date": "2022-09-11",
          "name": "Kotak Mahindra Bank",
          "name:mr": "\u0915\u094b\u091f\u0915 \u092e\u0939\u093f\u0902\u0926\u094d\u0930\u093e \u092c\u0901\u0915",
          "operator": "Kotak Mahindra Bank",
          "operator:wikidata": "Q2040404"
        }
      },
      {
        "type": "node",
        "id": 6201928764,
        "lat": 18.555557,
        "lon": 73.8970189,
        "tags": {
          "amenity": "bank",
          "brand": "State Bank of India",
          "brand:wikidata": "Q1340361",
          "name": "State Bank of India",
          "name:mr": "\u092d\u093e\u0930\u0924\u0940\u092f \u0938\u094d\u091f\u0947\u091f \u092c\u0901\u0915",
          "operator": "State Bank of India",
          "short_name": "SBI",
          "wikidata": "Q65991600"
        }
      },
      {
        "type": "node",
        "id": 6226505409,
        "lat": 18.5488623,
        "lon": 73.9022208,
        "tags": {
          "addr:city": "Pune",
          "addr:housenumber": "Lane 13",
          "addr:postcode": "411014",
          "addr:street": "Opposite Joggers Park Entrance, Kalyani Nagar",
          "amenity": "restaurant",
          "name": "Cafe Pondi"
        }
      },
      {
        "type": "node",
        "id": 7021193003,
        "lat": 18.5519864,
        "lon": 73.8971899,
        "tags": {
          "amenity": "atm",
          "name": "Janaseva Sahakari Bank Ltd."
        }
      },
      {
        "type": "node",
        "id": 7021208122,
        "lat": 18.5465045,
        "lon": 73.9013733,
        "tags": {
          "amenity": "bank",
          "name": "Vijaya Bank"
        }
      },
      {
        "type": "node",
        "id": 7063909902,
        "lat": 18.5569451,
        "lon": 73.9074788,
        "tags": {
          "addr:district": "Pune",
          "addr:full": "A - 1/II Floor, Hi Line Park Road, Ramwadi Naka, Nagar Road",
          "addr:postcode": "411014",
          "addr:state": "Maharashtra",
          "amenity": "hospital",
          "name": "Jeewan Jyot Multispeciality Medical Care Center",
          "source": "OpenGovernmentData"
        }
      },
      {
        "type": "node",
        "id": 7073438342,
        "lat": 18.5577324,
        "lon": 73.9089614,
        "tags": {
          "addr:district": "Pune",
          "addr:full": "1st Floor, Satyam Arcade, Ramwadi, Nagar Road",
          "addr:postcode": "411014",
          "addr:state": "Maharashtra",
          "amenity": "clinic",
          "name": "Dr. Bumb Nursing Home",
          "source": "OpenGovernmentData"
        }
      },
      {
        "type": "node",
        "id": 7080269610,
        "lat": 18.5515102,
        "lon": 73.8974829,
        "tags": {
          "addr:district": "Pune",
          "addr:full": "Deepak Park,Opp Shashtri Nagar, Police Station , Nagar Road",
          "addr:postcode": "411006",
          "addr:state": "Maharashtra",
          "amenity": "clinic",
          "name": "Adarsh Nursing Home, Pune",
          "source": "OpenGovernmentData"
        }
      },
      {
        "type": "node",
        "id": 7213421048,
        "lat": 18.5543086,
        "lon": 73.8971383,
        "tags": {
          "addr:district": "Pune",
          "addr:full": "Near Hermes Heritage, Nagar Rd, Yerawada",
          "addr:postcode": "411006",
          "addr:state": "Maharashtra",
          "amenity": "hospital",
          "contact:phone": "088062 52525",
          "healthcare": "hospital",
          "name": "Sahyadri Super Speciality Hospital",
          "source": "OpenGovernmentData"
        }
      },
      {
        "type": "node",
        "id": 7213437174,
        "lat": 18.5565024,
        "lon": 73.8972835,
        "tags": {
          "addr:district": "Pune",
          "addr:full": "Shastrinagar, Yerawada",
          "addr:postcode": "411006",
          "addr:state": "Maharashtra",
          "amenity": "hospital",
          "healthcare": "hospital",
          "name": "Freedom Fighter Gangaram Karne Hospital",
          "source": "OpenGovernmentData"
        }
      },
      {
        "type": "node",
        "id": 7213470815,
        "lat": 18.5533588,
        "lon": 73.8989792,
        "tags": {
          "addr:district": "Pune",
          "addr:full": "Nagar Rd, Opp Agakhan Palace, Shastrinagar, Yerawada",
          "addr:postcode": "411006",
          "addr:state": "Maharashtra",
          "amenity": "hospital",
          "healthcare": "hospital",
          "name": "Shree Hospital",
          "source": "OpenGovernmentData"
        }
      },
      {
        "type": "node",
        "id": 7213492164,
        "lat": 18.5536181,
        "lon": 73.899622,
        "tags": {
          "addr:district": "Pune",
          "addr:full": "Flat 9, Uttam Tower, Shastrinagar, Yerawada",
          "addr:postcode": "411006",
          "addr:state": "Maharashtra",
          "amenity": "hospital",
          "healthcare": "hospital",
          "name": "Neney's Hospital",
          "source": "OpenGovernmentData"
        }
      },
      {
        "type": "node",
        "id": 8273627424,
        "lat": 18.5484717,
        "lon": 73.9062288,
        "tags": {
          "addr:city": "Pune",
          "addr:housenumber": "First floor",
          "addr:postcode": "411014",
          "addr:street": "Chinar Building, Silver Oak Society, kalyani nagar",
          "amenity": "clinic",
          "healthcare": "clinic",
          "healthcare:speciality": "Dentistry;Dental_Implantation_and_Cosmetic_Dentistry",
          "name": "THE SPECIALITY DENTAL CLINIC",
          "website": "https://www.specialitydentalcarepune.com/speciality-dental-clinic-pune"
        }
      },
      {
        "type": "node",
        "id": 8811347772,
        "lat": 18.5569898,
        "lon": 73.9077765,
        "tags": {
          "addr:district": "Pune",
          "addr:full": "Sakore Nagar, Viman Nagar, Pune",
          "addr:postcode": "411014",
          "addr:state": "Maharashtra",
          "amenity": "doctors",
          "name": "Dr. Bartakke Hi Line",
          "source": "Local Knowledge"
        }
      },
      {
        "type": "node",
        "id": 9410145905,
        "lat": 18.5539234,
        "lon": 73.9039502,
        "tags": {
          "access": "employees",
          "amenity": "cafe",
          "brand": "Barista",
          "brand:wikidata": "Q644735",
          "brand:wikipedia": "en:Barista (company)",
          "check_date": "2023-12-18",
          "cuisine": "coffee_shop",
          "name": "Barista",
          "opening_hours": "Mo-Fr 09:00-18:00",
          "outdoor_seating": "no",
          "takeaway": "yes"
        }
      },
      {
        "type": "node",
        "id": 9847434087,
        "lat": 18.5471326,
        "lon": 73.9006668,
        "tags": {
          "addr:postcode": "411006",
          "addr:street": "Central Avenue",
          "amenity": "restaurant",
          "name": "Elephant & Co."
        }
      },
      {
        "type": "node",
        "id": 11861983581,
        "lat": 18.5594382,
        "lon": 73.9114359,
        "tags": {
          "addr:city": "Pune",
          "addr:district": "Pune",
          "addr:street": "Viman Nagar Road",
          "amenity": "bank",
          "brand": "Yes Bank",
          "brand:wikidata": "Q2040394",
          "name": "Yes Bank"
        }
      },
      {
        "type": "node",
        "id": 11862030072,
        "lat": 18.5596765,
        "lon": 73.9114367,
        "tags": {
          "addr:city": "Pune",
          "addr:district": "Pune",
          "addr:street": "Viman Nagar Road",
          "amenity": "bank",
          "brand": "UCO Bank",
          "brand:wikidata": "Q2005310",
          "name": "UCO Bank"
        }
      },
      {
        "type": "node",
        "id": 12500831136,
        "lat": 18.5526491,
        "lon": 73.8997102,
        "tags": {
          "amenity": "restaurant",
          "check_date": "2025-01-14",
          "internet_access": "wlan",
          "internet_access:fee": "no",
          "name": "OI Brewhouse",
          "payment:cash": "yes",
          "payment:credit_cards": "yes",
          "payment:debit_cards": "yes",
          "wheelchair": "yes"
        }
      },
      {
        "type": "node",
        "id": 12533783065,
        "lat": 18.5502821,
        "lon": 73.9029182,
        "tags": {
          "addr:city": "Pune",
          "addr:district": "Pune",
          "addr:housenumber": "Kalyani nagar",
          "addr:postcode": "411006",
          "addr:street": "North Avenue",
          "leisure": "park",
          "name": "Kalyani nagar joggers park",
          "opening_hours": "Mo-Su 06:00-11:00,16:00-20:00"
        }
      }
    ]
  },
  "pois_2_5km": {
    "version": 0.6,
    "generator": "Overpass API 0.7.62.8 e802775f",
    "osm3s": {
      "timestamp_osm_base": "2025-09-07T11:07:15Z",
      "copyright": "The data included in this document is from www.openstreetmap.org. The data is made available under ODbL."
    },
    "elements": [
      {
        "type": "node",
        "id": 763513035,
        "lat": 18.5751841,
        "lon": 73.8995588,
        "tags": {
          "bus": "yes",
          "highway": "bus_stop",
          "name": "509",
          "public_transport": "stop_position"
        }
      },
      {
        "type": "node",
        "id": 763515722,
        "lat": 18.5751028,
        "lon": 73.8970804,
        "tags": {
          "amenity": "fuel",
          "name": "Kekan Petrol Pump (HP)"
        }
      },
      {
        "type": "node",
        "id": 11699340494,
        "lat": 18.5571164,
        "lon": 73.9085719,
        "tags": {
          "layer": "2",
          "name": "Ramwadi",
          "name:mr": "\u0930\u093e\u092e\u0935\u093e\u0921\u0940",
          "operator": "MahaMetro",
          "public_transport": "stop_position",
          "railway": "stop",
          "subway": "yes"
        }
      },
      {
        "type": "node",
        "id": 11699340650,
        "lat": 18.5453203,
        "lon": 73.8866176,
        "tags": {
          "layer": "2",
          "name": "Yerwada",
          "name:hi": "\u092f\u0947\u0930\u0935\u0921\u093e",
          "name:mr": "\u092f\u0947\u0930\u0935\u0921\u093e",
          "operator": "MahaMetro",
          "public_transport": "stop_position",
          "railway": "stop",
          "subway": "yes"
        }
      },
      {
        "type": "node",
        "id": 11699340651,
        "lat": 18.5452822,
        "lon": 73.8866239,
        "tags": {
          "layer": "2",
          "name": "Yerwada",
          "name:hi": "\u092f\u0947\u0930\u0935\u0921\u093e",
          "name:mr": "\u092f\u0947\u0930\u0935\u0921\u093e",
          "operator": "MahaMetro",
          "public_transport": "stop_position",
          "railway": "stop",
          "subway": "yes"
        }
      },
      {
        "type": "node",
        "id": 11699340652,
        "lat": 18.5453173,
        "lon": 73.8866882,
        "tags": {
          "name": "Yerwada",
          "name:hi": "\u092f\u0947\u0930\u0935\u0921\u093e",
          "name:mr": "\u092f\u0947\u0930\u0935\u0921\u093e",
          "network": "Pune Metro",
          "network:wikidata": "Q3595697",
          "public_transport": "station",
          "railway": "station",
          "station": "subway",
          "subway": "yes",
          "wikipedia": "en:Yerwada metro station"
        }
      },
      {
        "type": "node",
        "id": 11699340653,
        "lat": 18.5444651,
        "lon": 73.9056677,
        "tags": {
          "layer": "2",
          "name": "Kalyani Nagar",
          "name:mr": "\u0915\u0932\u094d\u092f\u093e\u0923\u0940 \u0928\u0917\u0930",
          "operator": "MahaMetro",
          "public_transport": "stop_position",
          "railway": "stop",
          "subway": "yes"
        }
      },
      {
        "type": "node",
        "id": 11699340654,
        "lat": 18.5444493,
        "lon": 73.9057122,
        "tags": {
          "layer": "2",
          "name": "Kalyani Nagar",
          "name:mr": "\u0915\u0932\u094d\u092f\u093e\u0923\u0940 \u0928\u0917\u0930",
          "operator": "MahaMetro",
          "public_transport": "stop_position",
          "railway": "stop",
          "subway": "yes"
        }
      },
      {
        "type": "node",
        "id": 11699340655,
        "lat": 18.5444806,
        "lon": 73.9056979,
        "tags": {
          "name": "Kalyani Nagar",
          "name:mr": "\u0915\u0932\u094d\u092f\u093e\u0923\u0940 \u0928\u0917\u0930",
          "network": "Pune Metro",
          "network:wikidata": "Q3595697",
          "public_transport": "station",
          "railway": "station",
          "station": "subway",
          "subway": "yes",
          "wikipedia": "en:Kalyani Nagar metro station"
        }
      },
      {
        "type": "node",
        "id": 11699340656,
        "lat": 18.5570831,
        "lon": 73.9085916,
        "tags": {
          "layer": "2",
          "name": "Ramwadi",
          "name:mr": "\u0930\u093e\u092e\u0935\u093e\u0921\u0940",
          "operator": "MahaMetro",
          "public_transport": "stop_position",
          "railway": "stop",
          "subway": "yes"
        }
      },
      {
        "type": "node",
        "id": 11699340657,
        "lat": 18.5571183,
        "lon": 73.9086071,
        "tags": {
          "name": "Ramwadi",
          "name:mr": "\u0930\u093e\u092e\u0935\u093e\u0921\u0940",
          "network": "Pune Metro",
          "network:wikidata": "Q3595697",
          "public_transport": "station",
          "railway": "station",
          "station": "subway",
          "subway": "yes",
          "wikipedia": "en:Ramwadi metro station"
        }
      },
      {
        "type": "node",
        "id": 12863629710,
        "lat": 18.5795095,
        "lon": 73.9099537,
        "tags": {
          "aeroway": "terminal"
        }
      }
    ]
  }
}