{
  "pois_1km": {
    "version": 0.6,
    "generator": "Overpass API 0.7.62.8 e802775f",
    "osm3s": {
      "timestamp_osm_base": "2025-09-07T11:24:30Z",
      "copyright": "The data included in this document is from www.openstreetmap.org. The data is made available under ODbL."
    },
    "elements": [
      {
        "type": "node",
        "id": 669519722,
        "lat": 18.5191906,
        "lon": 73.877407,
        "tags": {
          "amenity": "fast_food",
          "brand": "McDonald's",
          "brand:pa": "\u0a2e\u0a48\u0a15\u0a21\u0a4b\u0a28\u0a32\u0a21\u2019\u0a1c\u0a3c",
          "brand:ur": "\u0645\u06a9\u0688\u0648\u0646\u0644\u0688\u0632",
          "brand:wikidata": "Q38076",
          "brand:wikipedia": "en:McDonald's",
          "brand:wikipedia:pa": "\u0a2e\u0a48\u0a15\u0a21\u0a4b\u0a28\u0a32\u0a21\u2019\u0a1c\u0a3c",
          "brand:wikipedia:ur": "\u0645\u06a9\u0688\u0648\u0646\u0644\u0688\u0632",
          "cuisine": "burger",
          "name": "McDonald's",
          "name:pa": "\u0a2e\u0a48\u0a15\u0a21\u0a4b\u0a28\u0a32\u0a21\u2019\u0a1c\u0a3c",
          "name:ur": "\u0645\u06a9\u0688\u0648\u0646\u0644\u0688\u0632",
          "takeaway": "yes"
        }
      },
      {
        "type": "node",
        "id": 671446340,
        "lat": 18.5199422,
        "lon": 73.8804464,
        "tags": {
          "addr:city": "Pune",
          "addr:country": "IN",
          "addr:housenumber": "Virwani Plaza 11",
          "addr:postcode": "411001",
          "addr:state": "Maharashtra",
          "addr:street": "East Street",
          "amenity": "restaurant",
          "internet_access": "no",
          "name": "11 East Street Cafe",
          "outdoor_seating": "yes",
          "phone": "+91 20 41045500",
          "smoking": "yes",
          "takeaway": "yes"
        }
      },
      {
        "type": "node",
        "id": 672226924,
        "lat": 18.5272989,
        "lon": 73.877989,
        "tags": {
          "amenity": "restaurant",
          "name": "Flags",
          "name:mr": "\u092b\u094d\u0932\u0945\u0917\u094d\u091c"
        }
      },
      {
        "type": "node",
        "id": 672232247,
        "lat": 18.5187719,
        "lon": 73.8772441,
        "tags": {
          "amenity": "cafe",
          "name": "Coffee House"
        }
      },
      {
        "type": "node",
        "id": 672232340,
        "lat": 18.5191213,
        "lon": 73.8785611,
        "tags": {
          "amenity": "restaurant",
          "name": "Ram Krishna"
        }
      },
      {
        "type": "node",
        "id": 772571829,
        "lat": 18.5251434,
        "lon": 73.8695664,
        "tags": {
          "amenity": "hospital",
          "healthcare": "hospital",
          "name": "Sassoon Hospital",
          "name:etymology:wikidata": "Q1176501",
          "wikidata": "Q7425789",
          "wikimedia_commons": "Category:Sassoon Hospital",
          "wikipedia": "en:Sassoon Hospital"
        }
      },
      {
        "type": "node",
        "id": 789617167,
        "lat": 18.5269924,
        "lon": 73.8779918,
        "tags": {
          "amenity": "fast_food",
          "brand": "McDonald's",
          "brand:pa": "\u0a2e\u0a48\u0a15\u0a21\u0a4b\u0a28\u0a32\u0a21\u2019\u0a1c\u0a3c",
          "brand:ur": "\u0645\u06a9\u0688\u0648\u0646\u0644\u0688\u0632",
          "brand:wikidata": "Q38076",
          "brand:wikipedia": "en:McDonald's",
          "brand:wikipedia:pa": "\u0a2e\u0a48\u0a15\u0a21\u0a4b\u0a28\u0a32\u0a21\u2019\u0a1c\u0a3c",
          "brand:wikipedia:ur": "\u0645\u06a9\u0688\u0648\u0646\u0644\u0688\u0632",
          "cuisine": "burger",
          "name": "McDonald's",
          "name:mr": "\u092e\u0945\u0915\u0921\u0949\u0928\u0932\u094d\u0921\u094d\u0938",
          "name:pa": "\u0a2e\u0a48\u0a15\u0a21\u0a4b\u0a28\u0a32\u0a21\u2019\u0a1c\u0a3c",
          "name:ur": "\u0645\u06a9\u0688\u0648\u0646\u0644\u0688\u0632",
          "takeaway": "yes"
        }
      },
      {
        "type": "node",
        "id": 789623167,
        "lat": 18.5217526,
        "lon": 73.8774667,
        "tags": {
          "amenity": "restaurant",
          "name": "Blue Nile",
          "wheelchair": "limited"
        }
      },
      {
        "type": "node",
        "id": 789630715,
        "lat": 18.5173226,
        "lon": 73.8794126,
        "tags": {
          "amenity": "restaurant",
          "diet:non-vegetarian": "yes",
          "diet:vegetarian": "yes",
          "name": "George",
          "name:mr": "\u091c\u0949\u0930\u094d\u091c"
        }
      },
      {
        "type": "node",
        "id": 811226430,
        "lat": 18.5208896,
        "lon": 73.8725539,
        "tags": {
          "amenity": "restaurant",
          "name": "Mahesh Lunch Home"
        }
      },
      {
        "type": "node",
        "id": 824468982,
        "lat": 18.519486,
        "lon": 73.8772595,
        "tags": {
          "amenity": "fast_food",
          "name": "Yo! China"
        }
      },
      {
        "type": "node",
        "id": 824469199,
        "lat": 18.521763,
        "lon": 73.8763897,
        "tags": {
          "amenity": "fast_food",
          "brand": "KFC",
          "brand:pa": "\u0a15\u0a47\u0a10\u0a2b\u0a38\u0a40",
          "brand:ur": "\u06a9\u06cc\u0646\u0679\u06a9\u06cc \u0641\u0631\u0627\u0626\u06cc\u0688 \u0686\u06a9\u0646",
          "brand:wikidata": "Q524757",
          "brand:wikipedia": "en:KFC",
          "brand:wikipedia:pa": "\u0a15\u0a47\u0a10\u0a2b\u0a38\u0a40",
          "brand:wikipedia:ur": "\u06a9\u06cc\u0646\u0679\u06a9\u06cc \u0641\u0631\u0627\u0626\u06cc\u0688 \u0686\u06a9\u0646",
          "cuisine": "chicken",
          "name": "KFC",
          "name:pa": "\u0a15\u0a47\u0a10\u0a2b\u0a38\u0a40",
          "name:ur": "\u06a9\u06cc\u0646\u0679\u06a9\u06cc \u0641\u0631\u0627\u0626\u06cc\u0688 \u0686\u06a9\u0646",
          "takeaway": "yes"
        }
      },
      {
        "type": "node",
        "id": 824469850,
        "lat": 18.5181975,
        "lon": 73.8793295,
        "tags": {
          "amenity": "cafe",
          "name": "Barista Lavazza"
        }
      },
      {
        "type": "node",
        "id": 1242067056,
        "lat": 18.5191455,
        "lon": 73.8775238,
        "tags": {
          "amenity": "restaurant",
          "brand": "Pizza Hut",
          "brand:wikidata": "Q191615",
          "brand:wikipedia": "en:Pizza Hut",
          "cuisine": "pizza",
          "name": "Pizza Hut"
        }
      },
      {
        "type": "node",
        "id": 1243064186,
        "lat": 18.5243164,
        "lon": 73.873222,
        "tags": {
          "amenity": "cafe",
          "name": "Judicial Canteen"
        }
      },
      {
        "type": "node",
        "id": 1846908244,
        "lat": 18.5175183,
        "lon": 73.8748581,
        "tags": {
          "amenity": "restaurant",
          "name": "Eddie's Kitchen"
        }
      },
      {
        "type": "node",
        "id": 3377423145,
        "lat": 18.5258909,
        "lon": 73.8762877,
        "tags": {
          "amenity": "bank",
          "atm": "yes",
          "brand": "Syndicate Bank",
          "brand:wikidata": "Q2004088",
          "name": "Syndicate Bank",
          "name:en": "Syndicate Bank",
          "website": "https://www.syndicatebank.in",
          "wikidata": "Q2004088",
          "wikimedia_commons": "Category:Syndicate Bank",
          "wikipedia": "en:Syndicate Bank"
        }
      },
      {
        "type": "node",
        "id": 4610141290,
        "lat": 18.5276119,
        "lon": 73.8732877,
        "tags": {
          "amenity": "cafe",
          "name:en": "Madhav Thali"
        }
      },
      {
        "type": "node",
        "id": 4678212192,
        "lat": 18.5273657,
        "lon": 73.8731681,
        "tags": {
          "amenity": "restaurant",
          "name:en": "Pure Veg"
        }
      },
      {
        "type": "node",
        "id": 4678263490,
        "lat": 18.5272704,
        "lon": 73.8731116,
        "tags": {
          "amenity": "restaurant",
          "name:en": "Laxmi vilas"
        }
      },
      {
        "type": "node",
        "id": 4678263491,
        "lat": 18.5273639,
        "lon": 73.8732114,
        "tags": {
          "amenity": "fast_food",
          "name:en": "Shri krishna juices"
        }
      },
      {
        "type": "node",
        "id": 6116290219,
        "lat": 18.5309533,
        "lon": 73.8756088,
        "tags": {
          "amenity": "restaurant",
          "name": "Kailas",
          "name:mr": "\u0915\u0948\u0932\u093e\u0938"
        }
      },
      {
        "type": "node",
        "id": 6116290220,
        "lat": 18.5310569,
        "lon": 73.8757443,
        "tags": {
          "amenity": "restaurant",
          "name": "Shivprasad",
          "name:mr": "\u0936\u093f\u0935\u092a\u094d\u0930\u0938\u093e\u0926"
        }
      },
      {
        "type": "node",
        "id": 6168664143,
        "lat": 18.5274074,
        "lon": 73.8789837,
        "tags": {
          "amenity": "bank",
          "atm": "yes",
          "brand": "HSBC",
          "brand:wikidata": "Q190464",
          "name": "HSBC",
          "name:mr": "\u090f\u091a\u090f\u0938\u092c\u0940\u0938\u0940",
          "operator": "HSBC"
        }
      },
      {
        "type": "node",
        "id": 6180459785,
        "lat": 18.527412,
        "lon": 73.87908,
        "tags": {
          "amenity": "bank",
          "name:en": "HSBC"
        }
      },
      {
        "type": "node",
        "id": 6201856583,
        "lat": 18.53323,
        "lon": 73.8767414,
        "tags": {
          "amenity": "bank",
          "brand": "Kotak Mahindra Bank",
          "brand:wikidata": "Q2040404",
          "name": "Kotak Mahindra Bank",
          "name:mr": "\u0915\u094b\u091f\u0915 \u092e\u0939\u093f\u0902\u0926\u094d\u0930\u093e \u092c\u0901\u0915",
          "operator": "Kotak Mahindra Bank"
        }
      },
      {
        "type": "node",
        "id": 6315701310,
        "lat": 18.53083,
        "lon": 73.8747421,
        "tags": {
          "addr:city": "Pune",
          "addr:housenumber": "11, Sohrab Hall",
          "addr:postcode": "411001",
          "addr:street": "Tadiwala Road",
          "brand": "Gold; Diamond; Silver; Gemstones; Swarovski",
          "description": "Big on Style.",
          "email": "jewelparadise2012@gmail.com",
          "name": "Jewel Paradise",
          "opening_hours": "Mo-Su 12:00-19:00",
          "operator": "Pearl Paradise",
          "payment:cash": "yes",
          "payment:credit_cards": "yes",
          "payment:debit_cards": "yes",
          "payment:paytm": "yes",
          "payment:upi": "yes",
          "phone": "+91 9823779837",
          "shop": "supermarket",
          "website": "https://www.jewelparadise.net/"
        }
      },
      {
        "type": "node",
        "id": 6986217509,
        "lat": 18.5285912,
        "lon": 73.8752161,
        "tags": {
          "amenity": "atm",
          "name": "Canara Bank ATM"
        }
      },
      {
        "type": "node",
        "id": 7008374416,
        "lat": 18.5224248,
        "lon": 73.866525,
        "tags": {
          "amenity": "atm",
          "brand": "ICICI Bank",
          "brand:wikidata": "Q1653258",
          "name": "ICICI Bank",
          "operator": "ICICI Bank",
          "operator:wikidata": "Q1653258",
          "short_name": "ICICI"
        }
      },
      {
        "type": "node",
        "id": 7008397193,
        "lat": 18.5332945,
        "lon": 73.873822,
        "tags": {
          "amenity": "atm",
          "brand": "ICICI Bank",
          "brand:wikidata": "Q1653258",
          "name": "ICICI Bank",
          "operator": "ICICI Bank",
          "operator:wikidata": "Q1653258",
          "short_name": "ICICI"
        }
      },
      {
        "type": "node",
        "id": 7054944580,
        "lat": 18.5327481,
        "lon": 73.8743435,
        "tags": {
          "addr:district": "Pune",
          "addr:full": "K-102, Kumar Garima,Tadiwala Road,Behind Pune Rly Station",
          "addr:postcode": "411001",
          "addr:state": "Maharashtra",
          "amenity": "clinic",
          "name": "Dr. Gogate's Eye Clinic",
          "source": "OpenGovernmentData"
        }
      },
      {
        "type": "node",
        "id": 7068194960,
        "lat": 18.526235,
        "lon": 73.871161,
        "tags": {
          "addr:district": "Pune",
          "addr:full": "Near Pune Railway Station",
          "addr:postcode": "411001",
          "addr:state": "Maharashtra",
          "amenity": "hospital",
          "healthcare": "hospital",
          "name": "B.J.Medical College and Sassoon Hospital",
          "operator:type": "private",
          "source": "OpenGovernmentData",
          "website": "http://www.bjmcpune.org"
        }
      },
      {
        "type": "node",
        "id": 7072638950,
        "lat": 18.5298629,
        "lon": 73.8760869,
        "tags": {
          "addr:city": "Pune",
          "addr:district": "Pune",
          "addr:full": "Bharat Arcade Qff No-3/2394-A ,Genthimayya Road,Opp Polgate Police Station",
          "addr:postcode": "411001",
          "addr:state": "Maharashtra",
          "addr:street": "Bund Garden Road",
          "amenity": "hospital",
          "healthcare": "hospital",
          "healthcare:speciality": "general",
          "name": "Pune City Eye Hospital",
          "source": "OpenGovernmentData"
        }
      },
      {
        "type": "node",
        "id": 7073949908,
        "lat": 18.5307444,
        "lon": 73.8771894,
        "tags": {
          "addr:district": "Pune",
          "addr:full": "32 Sassoon Road Pune Station",
          "addr:postcode": "411001",
          "addr:state": "Maharashtra",
          "amenity": "hospital",
          "name": "Nm Wadia Institute Of Cardiology",
          "source": "OpenGovernmentData"
        }
      },
      {
        "type": "node",
        "id": 7076620098,
        "lat": 18.525598,
        "lon": 73.8763618,
        "tags": {
          "addr:district": "Pune",
          "addr:full": "215,Parmar Chambers,B Block,2nd Floor",
          "addr:postcode": "411001",
          "addr:state": "Maharashtra",
          "amenity": "clinic",
          "name": "Dr. Balani's Speciality Dental Clinic",
          "source": "OpenGovernmentData"
        }
      },
      {
        "type": "node",
        "id": 7226727441,
        "lat": 18.521872,
        "lon": 73.873118,
        "tags": {
          "addr:district": "Pune",
          "addr:full": "Jay Prakash Narayan Road, Railway Station, Pune",
          "addr:postcode": "411001",
          "addr:state": "Maharashtra",
          "addr:subdistrict": "Pune City",
          "amenity": "hospital",
          "healthcare": "hospital",
          "name": "Sasoon Hospital",
          "source": "OpenGovernmentData"
        }
      },
      {
        "type": "node",
        "id": 7649461743,
        "lat": 18.5334836,
        "lon": 73.8769949,
        "tags": {
          "addr:district": "Pune",
          "addr:full": "Sasoon Road, Sangamvadi, Pune",
          "addr:postcode": "411001",
          "addr:state": "Maharashtra",
          "amenity": "clinic",
          "name": "Ruby Hall Clinic",
          "source": "Local Knowledge"
        }
      },
      {
        "type": "node",
        "id": 7649461754,
        "lat": 18.530716,
        "lon": 73.876952,
        "tags": {
          "addr:district": "Pune",
          "addr:full": "Sasoon Road, Central Excise Colony, Sangamvadi, Pune",
          "addr:postcode": "411001",
          "addr:state": "Maharashtra",
          "amenity": "hospital",
          "name": "N. M. Wadia Hospital",
          "source": "Local Knowledge"
        }
      },
      {
        "type": "node",
        "id": 7651453328,
        "lat": 18.51988,
        "lon": 73.872171,
        "tags": {
          "addr:district": "Pune",
          "addr:full": "B6 Mittal Court, 478, Rasta Peth, Pune",
          "addr:postcode": "411011",
          "addr:state": "Maharastra",
          "amenity": "clinic",
          "name": "Dr. Otiv Clinic",
          "source": "Local Knowledge"
        }
      },
      {
        "type": "node",
        "id": 7651453373,
        "lat": 18.5166948,
        "lon": 73.8782288,
        "tags": {
          "addr:district": "Pune",
          "addr:full": "West Cottage, Taboot Street, Opposite Dabolkar Press, Pune",
          "addr:postcode": "411001",
          "addr:state": "Maharastra",
          "amenity": "doctors",
          "name": "Dr. Pradeep Divate",
          "source": "Local Knowledge"
        }
      },
      {
        "type": "node",
        "id": 7651453375,
        "lat": 18.5231039,
        "lon": 73.8681573,
        "tags": {
          "addr:district": "Pune",
          "addr:full": "Sai Niketan Building, Narpatgir Chowk, Station Road, Somwar Peth, Pune",
          "addr:postcode": "411011",
          "addr:state": "Maharastra",
          "amenity": "hospital",
          "healthcare": "hospital",
          "name": "Sai Samarth Hospital",
          "source": "Local Knowledge"
        }
      },
      {
        "type": "node",
        "id": 7651453417,
        "lat": 18.525279,
        "lon": 73.870499,
        "tags": {
          "addr:district": "Pune",
          "addr:full": "Agarkar Nagar, Pune",
          "addr:postcode": "411001",
          "addr:state": "Maharashtra",
          "amenity": "hospital",
          "healthcare": "hospital",
          "name": "David Sassoon Hospital",
          "name:etymology:wikidata": "Q1176501",
          "source": "Local Knowledge"
        }
      },
      {
        "type": "node",
        "id": 8261294865,
        "lat": 18.5180162,
        "lon": 73.8793029,
        "tags": {
          "addr:city": "Pune",
          "addr:housenumber": "214",
          "addr:postcode": "411001",
          "addr:street": "2nd floor, Sterling Tower, Opposite Hotel Arora Towers, Camp",
          "amenity": "clinic",
          "healthcare": "clinic",
          "healthcare:speciality": "endocrinology",
          "name": "Diabetologist Endocrinologist In Pune - Dr Milind Patil SHRI SWAMI DIABETES,& ENDOCRINE CENTER",
          "website": "https://www.swamiclinic.in/"
        }
      },
      {
        "type": "node",
        "id": 8261638091,
        "lat": 18.5199725,
        "lon": 73.8720724,
        "tags": {
          "addr:city": "Pune",
          "addr:housenumber": "478",
          "addr:postcode": "411011",
          "addr:street": "Mittal Court, 3rd Floor, near samarth police station, Rasta Peth",
          "amenity": "clinic",
          "healthcare": "clinic",
          "healthcare:speciality": "Consulting_Pediatrician_and_Neonatologist;Urologist",
          "name": "SNEH CHILD CARE CLINIC",
          "website": "https://www.drdesalechildclinic.in/"
        }
      },
      {
        "type": "node",
        "id": 8266067580,
        "lat": 18.5231703,
        "lon": 73.8766107,
        "tags": {
          "addr:city": "Pune",
          "addr:housenumber": "1st Floor",
          "addr:postcode": "411001",
          "addr:street": "Connaught Plaza, Above Sahara Dining Hall, Opposite G.P.O, Camp",
          "amenity": "clinic",
          "healthcare": "clinic",
          "healthcare:speciality": "paediatrics",
          "name": "Dr Leena Hiremath",
          "website": "https://www.drleenahiremath.com/"
        }
      },
      {
        "type": "node",
        "id": 8266430212,
        "lat": 18.5336705,
        "lon": 73.8771566,
        "tags": {
          "addr:city": "Pune",
          "addr:housenumber": "40",
          "addr:postcode": "411001",
          "addr:street": "Sasoon Rd, Ruby Hall Clinic - Sangamvadi",
          "amenity": "clinic",
          "healthcare": "clinic",
          "healthcare:speciality": "Joint_Replacement;Orthopaedic_Surgeon",
          "name": "Dr Kiran Kharat",
          "website": "https://www.jointreplacementexpert.in/dr-kiran-kharat"
        }
      },
      {
        "type": "node",
        "id": 8266435006,
        "lat": 18.5338589,
        "lon": 73.8771398,
        "tags": {
          "addr:city": "Pune",
          "addr:housenumber": "40",
          "addr:postcode": "411001",
          "addr:street": "Sasoon Rd,, Sangamvadi",
          "amenity": "clinic",
          "healthcare": "clinic",
          "healthcare:speciality": "HPB_&_Liver_Transplantation;Liver_transplant_&_Hepato-Biliary_&_Pancreatic",
          "name": "RELA INSTITUTE - RUBY HALL CLINIC",
          "website": "https://www.comprehensivelivercare.in/"
        }
      },
      {
        "type": "node",
        "id": 8375570707,
        "lat": 18.5199427,
        "lon": 73.8721146,
        "tags": {
          "addr:city": "Pune",
          "addr:postcode": "411011",
          "addr:street": "SPINE CLINIC .Block No. -18, '\"B\"\" Wing, 3rd Floor,, MITTAL COURT,Near Shantai Hotel, Rastapeeth",
          "amenity": "clinic",
          "healthcare": "clinic",
          "healthcare:speciality": "spine;Spine_Specialist",
          "name": "Partly cloudy Dr. Sanjay Patil | Spine Surgeon",
          "website": "https://spinespecialistpune.in/"
        }
      },
      {
        "type": "node",
        "id": 8384146352,
        "lat": 18.5337203,
        "lon": 73.8770286,
        "tags": {
          "addr:city": "Pune",
          "addr:housenumber": "40",
          "addr:postcode": "431001",
          "addr:street": "RUBY HALL CLINIC,  Sasoon Road, Sangamvadi",
          "amenity": "clinic",
          "healthcare": "clinic",
          "healthcare:speciality": "Pediatrics_&_Neonatology",
          "name": "dr kanchankumar Bhagyawant",
          "website": "https://www.drkanchankumar.in/"
        }
      },
      {
        "type": "node",
        "id": 9022991240,
        "lat": 18.5198011,
        "lon": 73.8712374,
        "tags": {
          "addr:city": "pune",
          "addr:housenumber": "Flat no 1,1st floor,",
          "addr:postcode": "411011",
          "addr:street": "Rajbharati building, opposite Hotel Shantai, Rasta Peth, Pune, Maharashtra 411011",
          "amenity": "clinic",
          "healthcare": "clinic",
          "healthcare:speciality": "paediatrics",
          "name": "Sneh Child Care Clinic",
          "website": "https://www.drdesalechildclinic.in/"
        }
      },
      {
        "type": "node",
        "id": 9055379286,
        "lat": 18.5211477,
        "lon": 73.872096,
        "tags": {
          "leisure": "park",
          "name": "J J Garden"
        }
      },
      {
        "type": "node",
        "id": 9090380090,
        "lat": 18.5191226,
        "lon": 73.8759631,
        "tags": {
          "amenity": "cafe",
          "name": "best cafe",
          "opening_hours": "Mo-Su 09:00-21:00"
        }
      },
      {
        "type": "node",
        "id": 9128917148,
        "lat": 18.5216088,
        "lon": 73.8792163,
        "tags": {
          "amenity": "cafe",
          "name": "cafe  coffee  day",
          "opening_hours": "Mo-Su 10:00-22:00"
        }
      },
      {
        "type": "node",
        "id": 9296005824,
        "lat": 18.5334658,
        "lon": 73.8769727,
        "tags": {
          "addr:city": "Pune",
          "addr:housenumber": "40",
          "addr:postcode": "411001",
          "addr:street": "Ruby Hall Clinic, Sassoon Road, Sangamvadi, Ruby Hall Clinic,",
          "amenity": "hospital",
          "healthcare": "hospital",
          "healthcare:speciality": "cardiology",
          "name": "Ruby Hall",
          "operator": "Novosalus",
          "operator:type": "private",
          "website": "https://www.cardiologyindia.in/"
        }
      },
      {
        "type": "node",
        "id": 9314473941,
        "lat": 18.521665,
        "lon": 73.8717493,
        "tags": {
          "addr:city": "Pune",
          "addr:housenumber": "Camp",
          "addr:postcode": "411001",
          "addr:street": "Babasaheb Ambedkar Marg",
          "amenity": "restaurant",
          "cuisine": "pizza;italian",
          "diet:non-vegetarian": "yes",
          "name": "signature",
          "opening_hours": "Mo-Su 10:00-22:00"
        }
      },
      {
        "type": "node",
        "id": 9620616342,
        "lat": 18.5199582,
        "lon": 73.8721693,
        "tags": {
          "addr:city": "Pune",
          "addr:postcode": "411011",
          "addr:street": "Shop 13,14,15/B,#478 Ground floor , Mittal Court, Rasta Peth",
          "amenity": "clinic",
          "healthcare": "clinic",
          "healthcare:speciality": "general_practice;general",
          "name": "Dr. Bharat Patel Clinic",
          "opening_hours": "24/7",
          "operator": "Novosalus",
          "operator:type": "private",
          "website": "https://www.drbharatpatel.com/"
        }
      },
      {
        "type": "node",
        "id": 9967066414,
        "lat": 18.5324382,
        "lon": 73.8768496,
        "tags": {
          "addr:city": "Pune",
          "addr:street": "Rajarshi Shahu Maharaj Path",
          "amenity": "cafe",
          "name": "Vohuman Cafe",
          "opening_hours": "Mo-Su 06:00-18:30",
          "outdoor_seating": "no",
          "phone": "+919373323263",
          "website": "https://www.facebook.com/vohumancafe/"
        }
      },
      {
        "type": "node",
        "id": 10016369109,
        "lat": 18.5310171,
        "lon": 73.8756821,
        "tags": {
          "amenity": "pharmacy",
          "name": "Omkar"
        }
      },
      {
        "type": "node",
        "id": 10171128086,
        "lat": 18.5259779,
        "lon": 73.8838753,
        "tags": {
          "leisure": "park",
          "name": "asd"
        }
      },
      {
        "type": "node",
        "id": 10172977877,
        "lat": 18.5327841,
        "lon": 73.8773654,
        "tags": {
          "amenity": "hospital",
          "healthcare": "hospital",
          "name": "Ruby Hall Clinic"
        }
      },
      {
        "type": "node",
        "id": 10172977879,
        "lat": 18.5273893,
        "lon": 73.8710163,
        "tags": {
          "addr:city": "Pune",
          "addr:postcode": "411001",
          "addr:street": "Sassoon Marg",
          "amenity": "hospital",
          "healthcare": "hospital",
          "healthcare:speciality": "general;gynaecology;internal;psychiatry;vaccination;radiology;ear;nose_&_throat",
          "name": "Red blood hospital",
          "wheelchair": "yes"
        }
      },
      {
        "type": "node",
        "id": 10172977880,
        "lat": 18.5278495,
        "lon": 73.8760898,
        "tags": {
          "amenity": "hospital",
          "healthcare": "hospital",
          "name": "Nityashraddha super speciality hospital"
        }
      },
      {
        "type": "node",
        "id": 10172977881,
        "lat": 18.5307461,
        "lon": 73.8771922,
        "tags": {
          "amenity": "hospital",
          "healthcare": "hospital",
          "name": "N. M. Wadia Institute of Cardiology"
        }
      },
      {
        "type": "node",
        "id": 10172977888,
        "lat": 18.5221641,
        "lon": 73.8676777,
        "tags": {
          "amenity": "hospital",
          "healthcare": "hospital",
          "name": "Unique Hospital"
        }
      },
      {
        "type": "node",
        "id": 10246254345,
        "lat": 18.5251221,
        "lon": 73.8754537,
        "tags": {
          "addr:city": "Pune",
          "addr:housename": "Hotel Woodland",
          "addr:postcode": "411001",
          "addr:street": "Dr. Annie Besant Path",
          "amenity": "restaurant",
          "name": "Swaadah Veg All Day Kitchen"
        }
      },
      {
        "type": "node",
        "id": 11126719893,
        "lat": 18.5325235,
        "lon": 73.876734,
        "tags": {
          "addr:housenumber": "Millennium Star",
          "addr:street": "Chatrapati Shahu Maharaja Road, bear Ruby Hall",
          "amenity": "cafe",
          "description": "Local street food place with a casual but pleasant ambience. Chai and butter toast are on point.",
          "name": "Vohuman Caf\u00e9",
          "opening_hours": "Mo-Su 06:00-19:30",
          "phone": "+919373323263"
        }
      },
      {
        "type": "node",
        "id": 11468652848,
        "lat": 18.5336185,
        "lon": 73.8771317,
        "tags": {
          "addr:city": "Pune",
          "addr:district": "Pune",
          "addr:postcode": "411001",
          "addr:street": "Ruby Hall Clinic, Sassson Road",
          "amenity": "clinic",
          "healthcare": "clinic",
          "healthcare:speciality": "neurosurgery",
          "name": "Brain & Spine Clinic",
          "operator": "Novosalus Technology",
          "operator:type": "private"
        }
      },
      {
        "type": "node",
        "id": 11680933086,
        "lat": 18.5324019,
        "lon": 73.8708397,
        "tags": {
          "amenity": "cafe",
          "cuisine": "italian;burger;regional;international",
          "name": "One8 Commune"
        }
      },
      {
        "type": "node",
        "id": 12473131484,
        "lat": 18.5315727,
        "lon": 73.8758307,
        "tags": {
          "amenity": "doctors",
          "check_date": "2025-01-04",
          "healthcare": "doctor",
          "healthcare:speciality": "ophthalmology",
          "name": "Asian Eye Hospital",
          "name:en": "Asian Eye Hospital",
          "name:mr": "\u0906\u0936\u093f\u092f\u093e\u0928 \u0906\u092f \u0939\u0949\u0938\u094d\u092a\u093f\u091f\u0932",
          "operator": "\u0921\u0949. \u0915\u093e\u0902\u0915\u0930\u093f\u092f\u093e",
          "phone": "+91 88889 42222; +91 91758 96408; +91 20 2616 2424"
        }
      },
      {
        "type": "node",
        "id": 13028616259,
        "lat": 18.5182802,
        "lon": 73.8800352,
        "tags": {
          "addr:city": "Pune",
          "addr:district": "Pune District",
          "addr:postcode": "411001",
          "amenity": "cafe",
          "cuisine": "irani;coffee_shop",
          "name": "Diamond Queen"
        }
      }
    ]
  },
  "pois_2_5km": {
    "version": 0.6,
    "generator": "Overpass API 0.7.62.8 e802775f",
    "osm3s": {
      "timestamp_osm_base": "2025-09-07T11:24:30Z",
      "copyright": "The data included in this document is from www.openstreetmap.org. The data is made available under ODbL."
    },
    "elements": [
      {
        "type": "node",
        "id": 283204710,
        "lat": 18.539254,
        "lon": 73.885693,
        "tags": {
          "addr:city": "Pune",
          "addr:country": "IN",
          "addr:state": "MH",
          "amenity": "fuel",
          "brand": "BPCL",
          "compressed_air": "yes",
          "fuel:diesel": "yes",
          "fuel:octane_91": "yes",
          "fuel:octane_95": "yes",
          "name": "Roshini Petrol Pump",
          "wheelchair": "no"
        }
      },
      {
        "type": "node",
        "id": 343304315,
        "lat": 18.5288773,
        "lon": 73.8744146,
        "tags": {
          "addr:city": "Pune",
          "addr:housenumber": "Near Jahangir Hospital",
          "addr:street": "Sassoon Marg",
          "internet_access": "wlan",
          "name": "Pune Junction",
          "name:ta": "\u092a\u0941\u0923\u0947 \u091c\u0902\u0915\u094d\u0936\u0928",
          "network": "IR",
          "operator": "CR",
          "public_transport": "station",
          "railway": "station",
          "ref": "PUNE",
          "train": "yes",
          "wikidata": "Q3632576",
          "wikipedia": "en:Pune Junction railway station"
        }
      },
      {
        "type": "node",
        "id": 518664242,
        "lat": 18.53956,
        "lon": 73.885683,
        "tags": {
          "addr:city": "Pune",
          "addr:country": "IN",
          "addr:province": "Koregaon Park",
          "addr:state": "MH",
          "addr:street": "North Main Road",
          "amenity": "fuel",
          "brand": "HPCL",
          "fuel:diesel": "yes",
          "fuel:octane_91": "yes",
          "fuel:octane_95": "yes",
          "name": "Mukul Petrol Pump",
          "wheelchair": "no"
        }
      },
      {
        "type": "node",
        "id": 633121822,
        "lat": 18.5211848,
        "lon": 73.8647837,
        "tags": {
          "bus": "yes",
          "highway": "bus_stop",
          "name": "Raste Wada",
          "name:mr": "\u0930\u093e\u0938\u094d\u0924\u0947 \u0935\u093e\u0921\u093e",
          "public_transport": "stop_position"
        }
      },
      {
        "type": "node",
        "id": 671453565,
        "lat": 18.5145465,
        "lon": 73.8794763,
        "tags": {
          "amenity": "cinema",
          "name": "Victory Cinema"
        }
      },
      {
        "type": "node",
        "id": 671463284,
        "lat": 18.5185312,
        "lon": 73.8779625,
        "tags": {
          "amenity": "cinema",
          "name": "West End"
        }
      },
      {
        "type": "node",
        "id": 672219354,
        "lat": 18.5244565,
        "lon": 73.8721359,
        "tags": {
          "bus": "yes",
          "highway": "bus_stop",
          "name": "Collector Kacheri",
          "name:mr": "\u0915\u0932\u0947\u0915\u094d\u091f\u0930 \u0915\u091a\u0947\u0930\u0940",
          "public_transport": "stop_position"
        }
      },
      {
        "type": "node",
        "id": 672220644,
        "lat": 18.5244012,
        "lon": 73.8716998,
        "tags": {
          "bus": "yes",
          "highway": "bus_stop",
          "name": "Collector Kacheri",
          "name:mr": "\u0915\u0932\u0947\u0915\u094d\u091f\u0930 \u0915\u091a\u0947\u0930\u0940",
          "public_transport": "stop_position"
        }
      },
      {
        "type": "node",
        "id": 672225961,
        "lat": 18.5268449,
        "lon": 73.8778583,
        "tags": {
          "amenity": "cinema",
          "name": "Inox",
          "name:mr": "\u0906\u092f\u0928\u0949\u0915\u094d\u0938"
        }
      },
      {
        "type": "node",
        "id": 811249554,
        "lat": 18.5265124,
        "lon": 73.877173,
        "tags": {
          "amenity": "bus_station",
          "bus": "yes",
          "internet_access": "no",
          "name": "Pune Railway Station Bus Depot",
          "network": "PMPML",
          "operator": "PMPML",
          "public_transport": "station"
        }
      },
      {
        "type": "node",
        "id": 1214683436,
        "lat": 18.5067845,
        "lon": 73.8855356,
        "tags": {
          "amenity": "fuel"
        }
      },
      {
        "type": "node",
        "id": 1223950732,
        "lat": 18.5257119,
        "lon": 73.8769058,
        "tags": {
          "amenity": "fuel"
        }
      },
      {
        "type": "node",
        "id": 1645621321,
        "lat": 18.5230248,
        "lon": 73.8534229,
        "tags": {
          "amenity": "bus_station",
          "bus": "yes",
          "internet_access": "no",
          "name": "Manapa Bhavan",
          "name:mr": "\u092e\u0928\u092a\u093e \u092d\u0935\u0928",
          "network": "PMPML",
          "operator": "PMPML",
          "public_transport": "station"
        }
      },
      {
        "type": "node",
        "id": 2257797308,
        "lat": 18.528148,
        "lon": 73.8939317,
        "tags": {
          "internet_access": "no",
          "name": "Ghorpuri",
          "name:mr": "\u0918\u094b\u0930\u092a\u0921\u0940",
          "network": "IR",
          "operator": "CR",
          "public_transport": "station",
          "railway": "station",
          "ref": "GPR",
          "train": "yes",
          "wikidata": "Q18125106"
        }
      },
      {
        "type": "node",
        "id": 2257797322,
        "lat": 18.5281002,
        "lon": 73.8938934,
        "tags": {
          "public_transport": "stop_position"
        }
      },
      {
        "type": "node",
        "id": 2257797333,
        "lat": 18.5282168,
        "lon": 73.8939378,
        "tags": {
          "public_transport": "stop_position"
        }
      },
      {
        "type": "node",
        "id": 2257797395,
        "lat": 18.5290793,
        "lon": 73.8740372,
        "tags": {
          "name": "Pune Junction",
          "name:mr": "\u092a\u0941\u0923\u0947 \u091c\u0902\u0915\u094d\u0936\u0928",
          "public_transport": "stop_position",
          "ref": "1",
          "train": "yes"
        }
      },
      {
        "type": "node",
        "id": 2257797414,
        "lat": 18.5291657,
        "lon": 73.8733305,
        "tags": {
          "name": "Pune Junction",
          "name:mr": "\u092a\u0941\u0923\u0947 \u091c\u0902\u0915\u094d\u0936\u0928",
          "public_transport": "stop_position",
          "ref": "2",
          "train": "yes"
        }
      },
      {
        "type": "node",
        "id": 2257797442,
        "lat": 18.5293602,
        "lon": 73.8733199,
        "tags": {
          "name": "Pune Junction",
          "name:mr": "\u092a\u0941\u0923\u0947 \u091c\u0902\u0915\u094d\u0936\u0928",
          "public_transport": "stop_position",
          "ref": "3",
          "train": "yes"
        }
      },
      {
        "type": "node",
        "id": 2257797444,
        "lat": 18.52937,
        "lon": 73.8726619,
        "tags": {
          "name": "Pune Junction",
          "name:mr": "\u092a\u0941\u0923\u0947 \u091c\u0902\u0915\u094d\u0936\u0928",
          "public_transport": "stop_position",
          "ref": "4",
          "train": "yes"
        }
      },
      {
        "type": "node",
        "id": 2257797462,
        "lat": 18.5294921,
        "lon": 73.8726591,
        "tags": {
          "name": "Pune Junction",
          "name:mr": "\u092a\u0941\u0923\u0947 \u091c\u0902\u0915\u094d\u0936\u0928",
          "public_transport": "stop_position",
          "ref": "5",
          "train": "yes"
        }
      },
      {
        "type": "node",
        "id": 2257797466,
        "lat": 18.5295338,
        "lon": 73.8726575,
        "tags": {
          "name": "Pune Junction",
          "name:mr": "\u092a\u0941\u0923\u0947 \u091c\u0902\u0915\u094d\u0936\u0928",
          "public_transport": "stop_position",
          "ref": "6",
          "train": "yes"
        }
      },
      {
        "type": "node",
        "id": 2259729638,
        "lat": 18.5159878,
        "lon": 73.8591744,
        "tags": {
          "bus": "yes",
          "highway": "bus_stop",
          "name": "Sonya Maruti Chowk",
          "name:mr": "\u0938\u094b\u0928\u094d\u092f\u093e \u092e\u093e\u0930\u0941\u0924\u0940 \u091a\u094c\u0915",
          "public_transport": "stop_position"
        }
      },
      {
        "type": "node",
        "id": 2259729678,
        "lat": 18.5204468,
        "lon": 73.8674762,
        "tags": {
          "bus": "yes",
          "highway": "bus_stop",
          "name": "KEM Hospital",
          "name:mr": "\u0915\u0947\u0908\u090f\u092e \u0930\u0941\u0917\u094d\u0923\u093e\u0932\u092f",
          "public_transport": "stop_position"
        }
      },
      {
        "type": "node",
        "id": 2266620664,
        "lat": 18.5223321,
        "lon": 73.8663642,
        "tags": {
          "bus": "yes",
          "highway": "bus_stop",
          "name": "15 August Chowk",
          "name:mr": "\u0967\u096b \u0911\u0917\u0938\u094d\u091f \u091a\u094c\u0915",
          "public_transport": "stop_position"
        }
      },
      {
        "type": "node",
        "id": 2864314829,
        "lat": 18.5241044,
        "lon": 73.8674666,
        "tags": {
          "bus": "yes",
          "highway": "bus_stop",
          "name": "Ambedkar Bhavan",
          "name:mr": "\u0906\u0902\u092c\u0947\u0921\u0915\u0930 \u092d\u0935\u0928",
          "public_transport": "stop_position"
        }
      },
      {
        "type": "node",
        "id": 2864314835,
        "lat": 18.5194896,
        "lon": 73.8645808,
        "tags": {
          "bus": "yes",
          "highway": "bus_stop",
          "name": "Apollo Talkies",
          "name:mr": "\u0905\u092a\u094b\u0932\u094b \u091f\u0949\u0915\u0940\u091c",
          "public_transport": "stop_position"
        }
      },
      {
        "type": "node",
        "id": 2864314839,
        "lat": 18.5157161,
        "lon": 73.8566591,
        "tags": {
          "bus": "yes",
          "highway": "bus_stop",
          "name": "City Post",
          "name:mr": "\u0938\u093f\u091f\u0940 \u092a\u094b\u0938\u094d\u091f",
          "public_transport": "stop_position"
        }
      },
      {
        "type": "node",
        "id": 2864314842,
        "lat": 18.517793,
        "lon": 73.8539774,
        "tags": {
          "bus": "yes",
          "highway": "bus_stop",
          "name": "Dakshinmukhi Maruti",
          "name:mr": "\u0926\u0915\u094d\u0937\u093f\u0923\u092e\u0941\u0916\u0940 \u092e\u093e\u0930\u0941\u0924\u0940",
          "public_transport": "stop_position"
        }
      },
      {
        "type": "node",
        "id": 2864314843,
        "lat": 18.5235465,
        "lon": 73.8755291,
        "tags": {
          "bus": "yes",
          "highway": "bus_stop",
          "name": "GPO",
          "name:mr": "\u091c\u0940 \u092a\u0940 \u0913",
          "public_transport": "stop_position"
        }
      },
      {
        "type": "node",
        "id": 2864314847,
        "lat": 18.5149638,
        "lon": 73.8549032,
        "tags": {
          "bus": "yes",
          "highway": "bus_stop",
          "name": "Ganpati Chowk",
          "name:mr": "\u0917\u0923\u092a\u0924\u0940 \u091a\u094c\u0915",
          "public_transport": "stop_position"
        }
      },
      {
        "type": "node",
        "id": 2864314855,
        "lat": 18.5234025,
        "lon": 73.8692408,
        "tags": {
          "bus": "yes",
          "highway": "bus_stop",
          "name": "Jilha Parishad",
          "name:mr": "\u091c\u093f\u0932\u094d\u0939\u093e \u092a\u0930\u093f\u0937\u0926",
          "public_transport": "stop_position"
        }
      },
      {
        "type": "node",
        "id": 2864314856,
        "lat": 18.5205286,
        "lon": 73.8558408,
        "tags": {
          "bus": "yes",
          "highway": "bus_stop",
          "name": "Kasba Peth Police Chowki",
          "name:mr": "\u0915\u0938\u092c\u093e \u092a\u0947\u0920 \u092a\u094b\u0932\u0940\u0938 \u091a\u094c\u0915\u0940",
          "public_transport": "stop_position"
        }
      },
      {
        "type": "node",
        "id": 2864314858,
        "lat": 18.5185508,
        "lon": 73.8566475,
        "tags": {
          "bus": "yes",
          "highway": "bus_stop",
          "name": "Lal Mahal",
          "name:mr": "\u0932\u093e\u0932 \u092e\u0939\u093e\u0932",
          "public_transport": "stop_position"
        }
      },
      {
        "type": "node",
        "id": 2864314869,
        "lat": 18.5188684,
        "lon": 73.8601444,
        "tags": {
          "bus": "yes",
          "highway": "bus_stop",
          "name": "Phadke Houd",
          "name:mr": "\u092b\u0921\u0915\u0947 \u0939\u094c\u0926",
          "public_transport": "stop_position"
        }
      },
      {
        "type": "node",
        "id": 2864314871,
        "lat": 18.5276102,
        "lon": 73.872967,
        "tags": {
          "bus": "yes",
          "highway": "bus_stop",
          "name": "Pune Station Bus Stand",
          "name:mr": "\u092a\u0941\u0923\u0947 \u0938\u094d\u091f\u0947\u0936\u0928 \u092c\u0938 \u0938\u094d\u0925\u093e\u0928\u0915",
          "public_transport": "stop_position"
        }
      },
      {
        "type": "node",
        "id": 2864314875,
        "lat": 18.5255769,
        "lon": 73.8765892,
        "tags": {
          "bus": "yes",
          "highway": "bus_stop",
          "name": "Sadhu Vaswani Chowk",
          "name:mr": "\u0938\u093e\u0927\u0941 \u0935\u093e\u0938\u094d\u0935\u093e\u0923\u0940 \u091a\u094c\u0915",
          "public_transport": "stop_position"
        }
      },
      {
        "type": "node",
        "id": 2864314878,
        "lat": 18.525038,
        "lon": 73.8715737,
        "tags": {
          "bus": "yes",
          "highway": "bus_stop",
          "name": "Sassoon Hospital",
          "name:mr": "\u0938\u0938\u0942\u0928 \u0930\u0941\u0917\u094d\u0923\u093e\u0932\u092f",
          "public_transport": "stop_position"
        }
      },
      {
        "type": "node",
        "id": 2864314879,
        "lat": 18.5196781,
        "lon": 73.8544934,
        "tags": {
          "bus": "yes",
          "highway": "bus_stop",
          "name": "Shaniwarwada",
          "name:mr": "\u0936\u0928\u093f\u0935\u093e\u0930\u0935\u093e\u0921\u093e",
          "public_transport": "stop_position"
        }
      },
      {
        "type": "node",
        "id": 2870389546,
        "lat": 18.5183421,
        "lon": 73.8562164,
        "tags": {
          "bus": "yes",
          "highway": "bus_stop",
          "name": "Nana Wada",
          "name:mr": "\u0928\u093e\u0928\u093e \u0935\u093e\u0921\u093e",
          "public_transport": "stop_position",
          "wheelchair": "yes"
        }
      },
      {
        "type": "node",
        "id": 2870389551,
        "lat": 18.5175013,
        "lon": 73.8562412,
        "tags": {
          "bus": "yes",
          "highway": "bus_stop",
          "name": "Vasant Talkies",
          "name:mr": "\u0935\u0938\u0902\u0924 \u091f\u0949\u0915\u0940\u091c",
          "public_transport": "stop_position"
        }
      },
      {
        "type": "node",
        "id": 4678212190,
        "lat": 18.5225285,
        "lon": 73.8666574,
        "tags": {
          "amenity": "fuel",
          "brand": "Indian Oil",
          "brand:wikidata": "Q1289348",
          "name": "Indian Oil"
        }
      },
      {
        "type": "node",
        "id": 5573156998,
        "lat": 18.5214448,
        "lon": 73.8595458,
        "tags": {
          "name": "\u0915\u0938\u092c\u093e \u092a\u0947\u0920",
          "name:en": "Kasba Peth",
          "name:mr": "\u0915\u0938\u092c\u093e \u092a\u0947\u0920",
          "operator": "MahaMetro",
          "public_transport": "stop_position",
          "railway": "stop",
          "subway": "yes"
        }
      },
      {
        "type": "node",
        "id": 6377306150,
        "lat": 18.5311165,
        "lon": 73.8556592,
        "tags": {
          "amenity": "theatre",
          "name": "Mini Auditorium COEP"
        }
      },
      {
        "type": "node",
        "id": 7615324875,
        "lat": 18.5338511,
        "lon": 73.8602685,
        "tags": {
          "amenity": "bus_station",
          "bus": "yes",
          "internet_access": "no",
          "name": "PMPML Bus Parking",
          "network": "PMPML",
          "operator": "PMPML",
          "public_transport": "station",
          "wikidata": "Q7260109",
          "wikimedia_commons": "Category:Pune Mahanagar Parivahan Mahamandal Limited",
          "wikipedia": "en:Pune Mahanagar Parivahan Mahamandal Limited"
        }
      },
      {
        "type": "node",
        "id": 7944584974,
        "lat": 18.5300875,
        "lon": 73.8654426,
        "tags": {
          "name": "Mangalwar Peth",
          "name:mr": "\u092e\u0902\u0917\u0933\u0935\u093e\u0930 \u092a\u0947\u0920",
          "network": "Pune Metro",
          "network:wikidata": "Q3595697",
          "operator": "Maha Metro",
          "public_transport": "station",
          "railway": "station",
          "station": "subway",
          "subway": "yes",
          "wikidata": "Q28179679",
          "wikipedia": "en:Maha Metro"
        }
      },
      {
        "type": "node",
        "id": 7944584980,
        "lat": 18.5228092,
        "lon": 73.8533687,
        "tags": {
          "name": "PMC Bhavan",
          "name:mr": "\u092a\u0941\u0923\u0947 \u092e\u0928\u092a\u093e \u0938\u094d\u0925\u093e\u0928\u0915",
          "network": "Pune Metro",
          "network:wikidata": "Q3595697",
          "public_transport": "station",
          "railway": "station",
          "station": "subway",
          "subway": "yes"
        }
      },
      {
        "type": "node",
        "id": 7944584984,
        "lat": 18.5327176,
        "lon": 73.8777486,
        "tags": {
          "name": "Ruby Hall Clinic",
          "name:mr": "\u0930\u0941\u092c\u0940 \u0939\u0949\u0932 \u0915\u094d\u0932\u093f\u0928\u093f\u0915",
          "network": "Pune Metro",
          "network:wikidata": "Q3595697",
          "public_transport": "station",
          "railway": "station",
          "station": "subway",
          "subway": "yes",
          "wikidata": "Q121161769"
        }
      },
      {
        "type": "node",
        "id": 7944597685,
        "lat": 18.5271448,
        "lon": 73.8580006,
        "tags": {
          "name": "District Court (Aqua Line)",
          "name:mr": "\u091c\u093f\u0932\u094d\u0939\u093e \u0928\u094d\u092f\u093e\u092f\u093e\u0932\u092f",
          "network": "Pune Metro",
          "network:wikidata": "Q3595697",
          "public_transport": "station",
          "railway": "station",
          "station": "subway",
          "subway": "yes"
        }
      },
      {
        "type": "node",
        "id": 7944597689,
        "lat": 18.529751,
        "lon": 73.872596,
        "tags": {
          "name": "Pune Railway Station",
          "name:mr": "\u092a\u0941\u0923\u0947 \u0930\u0947\u0932\u094d\u0935\u0947 \u0938\u094d\u091f\u0947\u0936\u0928",
          "network": "Pune Metro",
          "network:wikidata": "Q3595697",
          "public_transport": "station",
          "railway": "station",
          "station": "subway",
          "subway": "yes",
          "wikidata": "Q121161986"
        }
      },
      {
        "type": "node",
        "id": 7944597694,
        "lat": 18.5129081,
        "lon": 73.8569695,
        "tags": {
          "name": "\u092e\u0902\u0921\u0908",
          "name:en": "Mandai",
          "name:mr": "\u092e\u0902\u0921\u0908",
          "network": "Pune Metro",
          "network:wikidata": "Q3595697",
          "operator": "MahaMetro",
          "public_transport": "station",
          "railway": "station",
          "station": "subway",
          "subway": "yes",
          "wikidata": "Q130381236",
          "wikipedia": "en:Mandai metro station"
        }
      },
      {
        "type": "node",
        "id": 8945932610,
        "lat": 18.5204768,
        "lon": 73.8553024,
        "tags": {
          "air_conditioning": "no",
          "amenity": "theatre",
          "name": "Shaniwar Wada Amphitheatre",
          "name:mr": "\u0936\u0928\u093f\u0935\u093e\u0930\u0935\u093e\u0921\u093e \u0938\u092d\u093e\u0917\u0943\u0939",
          "theatre:type": "amphi"
        }
      },
      {
        "type": "node",
        "id": 10052958985,
        "lat": 18.5205159,
        "lon": 73.8787236,
        "tags": {
          "amenity": "theatre",
          "name": "Poona Music Society"
        }
      },
      {
        "type": "node",
        "id": 10246145056,
        "lat": 18.5270136,
        "lon": 73.864765,
        "tags": {
          "bus": "yes",
          "highway": "bus_stop",
          "name": "Mangalwar Peth Gadital",
          "public_transport": "stop_position"
        }
      },
      {
        "type": "node",
        "id": 10246145057,
        "lat": 18.5270289,
        "lon": 73.8645385,
        "tags": {
          "bus": "yes",
          "highway": "bus_stop",
          "name": "Mangalwar Peth Gadital",
          "public_transport": "stop_position"
        }
      },
      {
        "type": "node",
        "id": 10246254344,
        "lat": 18.5247685,
        "lon": 73.8748013,
        "tags": {
          "bus": "yes",
          "highway": "bus_stop",
          "name": "Hotel Woodland",
          "public_transport": "stop_position"
        }
      },
      {
        "type": "node",
        "id": 10246254373,
        "lat": 18.524777,
        "lon": 73.8779455,
        "tags": {
          "bus": "yes",
          "highway": "bus_stop",
          "name": "Council Hall",
          "public_transport": "stop_position"
        }
      },
      {
        "type": "node",
        "id": 10725622460,
        "lat": 18.5281331,
        "lon": 73.8722527,
        "tags": {
          "amenity": "bus_station",
          "bus": "yes",
          "name": "MSRTC ST Pune Sation Bus Stand.",
          "public_transport": "station"
        }
      },
      {
        "type": "node",
        "id": 11097510273,
        "lat": 18.5267307,
        "lon": 73.856888,
        "tags": {
          "layer": "2",
          "name": "District Court",
          "name:fr": "Cour civile",
          "name:mr": "\u091c\u093f\u0932\u094d\u0939\u093e \u0928\u094d\u092f\u093e\u092f\u093e\u0932\u092f",
          "operator": "MahaMetro",
          "public_transport": "stop_position",
          "railway": "stop",
          "subway": "yes"
        }
      },
      {
        "type": "node",
        "id": 11097510274,
        "lat": 18.5292042,
        "lon": 73.8570209,
        "tags": {
          "name": "District Court",
          "name:en": "District Court",
          "name:mr": "\u091c\u093f\u0932\u094d\u0939\u093e \u0928\u094d\u092f\u093e\u092f\u093e\u0932\u092f",
          "network": "Pune Metro",
          "network:wikidata": "Q3595697",
          "public_transport": "station",
          "railway": "station",
          "station": "subway",
          "subway": "yes"
        }
      },
      {
        "type": "node",
        "id": 11097510275,
        "lat": 18.5268495,
        "lon": 73.8569149,
        "tags": {
          "layer": "2",
          "name": "District Court",
          "name:en": "District Court",
          "name:mr": "\u091c\u093f\u0932\u094d\u0939\u093e \u0928\u094d\u092f\u093e\u092f\u093e\u0932\u092f",
          "operator": "MahaMetro",
          "public_transport": "stop_position",
          "railway": "stop",
          "subway": "yes"
        }
      },
      {
        "type": "node",
        "id": 11097527711,
        "lat": 18.5327068,
        "lon": 73.8777633,
        "tags": {
          "layer": "2",
          "name": "Ruby Hall Clinic",
          "name:mr": "\u0930\u0941\u092c\u0940 \u0939\u0949\u0932 \u0915\u094d\u0932\u093f\u0928\u093f\u0915",
          "operator": "MahaMetro",
          "public_transport": "stop_position",
          "railway": "stop",
          "subway": "yes"
        }
      },
      {
        "type": "node",
        "id": 11097527712,
        "lat": 18.5327359,
        "lon": 73.8777309,
        "tags": {
          "layer": "2",
          "name": "Ruby Hall Clinic",
          "name:mr": "\u0930\u0941\u092c\u0940 \u0939\u0949\u0932 \u0915\u094d\u0932\u093f\u0928\u093f\u0915",
          "operator": "MahaMetro",
          "public_transport": "stop_position",
          "railway": "stop",
          "subway": "yes"
        }
      },
      {
        "type": "node",
        "id": 11097527713,
        "lat": 18.5297234,
        "lon": 73.872597,
        "tags": {
          "name": "Pune Railway Station",
          "name:mr": "\u092a\u0941\u0923\u0947 \u0930\u0947\u0932\u094d\u0935\u0947 \u0938\u094d\u091f\u0947\u0936\u0928",
          "operator": "MahaMetro",
          "public_transport": "stop_position",
          "railway": "stop",
          "subway": "yes"
        }
      },
      {
        "type": "node",
        "id": 11097527714,
        "lat": 18.5297781,
        "lon": 73.8725976,
        "tags": {
          "name": "Pune Railway Station",
          "name:mr": "\u092a\u0941\u0923\u0947 \u0930\u0947\u0932\u094d\u0935\u0947 \u0938\u094d\u091f\u0947\u0936\u0928",
          "operator": "MahaMetro",
          "public_transport": "stop_position",
          "railway": "stop",
          "subway": "yes"
        }
      },
      {
        "type": "node",
        "id": 11097527715,
        "lat": 18.5301112,
        "lon": 73.86544,
        "tags": {
          "layer": "2",
          "name": "Mangalwar Peth",
          "name:mr": "\u092e\u0902\u0917\u0933\u0935\u093e\u0930 \u092a\u0947\u0920",
          "operator": "MahaMetro",
          "public_transport": "stop_position",
          "railway": "stop",
          "subway": "yes"
        }
      },
      {
        "type": "node",
        "id": 11097527716,
        "lat": 18.5300697,
        "lon": 73.8654446,
        "tags": {
          "layer": "2",
          "name": "Mangalwar Peth",
          "name:mr": "\u092e\u0902\u0917\u0933\u0935\u093e\u0930 \u092a\u0947\u0920",
          "operator": "MahaMetro",
          "public_transport": "stop_position",
          "railway": "stop",
          "subway": "yes"
        }
      },
      {
        "type": "node",
        "id": 11097527720,
        "lat": 18.5271277,
        "lon": 73.8580437,
        "tags": {
          "layer": "2",
          "name": "District Court (Aqua Line)",
          "name:fr": "Cour civile",
          "name:mr": "\u091c\u093f\u0932\u094d\u0939\u093e \u0928\u094d\u092f\u093e\u092f\u093e\u0932\u092f",
          "operator": "MahaMetro",
          "public_transport": "stop_position",
          "railway": "stop",
          "subway": "yes"
        }
      },
      {
        "type": "node",
        "id": 11097527721,
        "lat": 18.5271544,
        "lon": 73.8579657,
        "tags": {
          "layer": "2",
          "name": "District Court (Aqua Line)",
          "name:mr": "\u091c\u093f\u0932\u094d\u0939\u093e \u0928\u094d\u092f\u093e\u092f\u093e\u0932\u092f",
          "operator": "MahaMetro",
          "public_transport": "stop_position",
          "railway": "stop",
          "subway": "yes"
        }
      },
      {
        "type": "node",
        "id": 11097527722,
        "lat": 18.5227795,
        "lon": 73.8533807,
        "tags": {
          "layer": "2",
          "name": "PMC Bhavan",
          "name:mr": "\u092a\u0941\u0923\u0947 \u092e\u0928\u092a\u093e \u0938\u094d\u0925\u093e\u0928\u0915",
          "operator": "MahaMetro",
          "public_transport": "stop_position",
          "railway": "stop",
          "subway": "yes"
        }
      },
      {
        "type": "node",
        "id": 11097527723,
        "lat": 18.5228341,
        "lon": 73.8533589,
        "tags": {
          "layer": "2",
          "name": "PMC Bhavan",
          "name:mr": "\u092a\u0941\u0923\u0947 \u092e\u0928\u092a\u093e \u0938\u094d\u0925\u093e\u0928\u0915",
          "operator": "MahaMetro",
          "public_transport": "stop_position",
          "railway": "stop",
          "subway": "yes"
        }
      },
      {
        "type": "node",
        "id": 11699340647,
        "lat": 18.540599,
        "lon": 73.8834176,
        "tags": {
          "layer": "2",
          "name": "Bund Garden",
          "name:mr": "\u092c\u0902\u0921 \u0917\u093e\u0930\u094d\u0921\u0928",
          "operator": "MahaMetro",
          "public_transport": "stop_position",
          "railway": "stop",
          "subway": "yes"
        }
      },
      {
        "type": "node",
        "id": 11699340648,
        "lat": 18.5405802,
        "lon": 73.8834544,
        "tags": {
          "layer": "2",
          "name": "Bund Garden",
          "name:mr": "\u092c\u0902\u0921 \u0917\u093e\u0930\u094d\u0921\u0928",
          "operator": "MahaMetro",
          "public_transport": "stop_position",
          "railway": "stop",
          "subway": "yes"
        }
      },
      {
        "type": "node",
        "id": 11699340649,
        "lat": 18.5405933,
        "lon": 73.8834394,
        "tags": {
          "name": "Bund Garden",
          "name:mr": "\u092c\u0902\u0921 \u0917\u093e\u0930\u094d\u0921\u0928",
          "network": "Pune Metro",
          "network:wikidata": "Q3595697",
          "public_transport": "station",
          "railway": "station",
          "station": "subway",
          "subway": "yes",
          "wikidata": "Q124762850",
          "wikipedia": "en:Bund Garden metro station"
        }
      },
      {
        "type": "node",
        "id": 12211880200,
        "lat": 18.5214436,
        "lon": 73.8595779,
        "tags": {
          "name": "\u0915\u0938\u092c\u093e \u092a\u0947\u0920",
          "name:en": "Kasba Peth",
          "name:mr": "\u0915\u0938\u092c\u093e \u092a\u0947\u0920",
          "network": "Pune Metro",
          "network:wikidata": "Q3595697",
          "public_transport": "station",
          "railway": "station",
          "station": "subway",
          "subway": "yes",
          "wikidata": "Q130381226",
          "wikipedia": "en:Kasba Peth metro station"
        }
      },
      {
        "type": "node",
        "id": 12211960101,
        "lat": 18.5129087,
        "lon": 73.8569857,
        "tags": {
          "name": "\u092e\u0902\u0921\u0908",
          "name:en": "Mandai",
          "name:mr": "\u092e\u0902\u0921\u0908",
          "operator": "MahaMetro",
          "public_transport": "stop_position",
          "railway": "stop",
          "subway": "yes"
        }
      },
      {
        "type": "node",
        "id": 12211960102,
        "lat": 18.5129035,
        "lon": 73.8569526,
        "tags": {
          "name": "\u092e\u0902\u0921\u0908",
          "name:en": "Mandai",
          "name:mr": "\u092e\u0902\u0921\u0908",
          "operator": "MahaMetro",
          "public_transport": "stop_position",
          "railway": "stop",
          "subway": "yes"
        }
      },
      {
        "type": "node",
        "id": 12211960112,
        "lat": 18.5214296,
        "lon": 73.8596021,
        "tags": {
          "name": "\u0915\u0938\u092c\u093e \u092a\u0947\u0920",
          "name:en": "Kasba Peth",
          "name:mr": "\u0915\u0938\u092c\u093e \u092a\u0947\u0920",
          "operator": "MahaMetro",
          "public_transport": "stop_position",
          "railway": "stop",
          "subway": "yes"
        }
      }
    ]
  }
}