{
  "pois_1km": {
    "version": 0.6,
    "generator": "Overpass API 0.7.62.8 e802775f",
    "osm3s": {
      "timestamp_osm_base": "2025-09-07T11:31:31Z",
      "copyright": "The data included in this document is from www.openstreetmap.org. The data is made available under ODbL."
    },
    "elements": [
      {
        "type": "node",
        "id": 10219159616,
        "lat": 18.5755248,
        "lon": 73.9600646,
        "tags": {
          "amenity": "hospital",
          "healthcare": "hospital"
        }
      },
      {
        "type": "node",
        "id": 10219198237,
        "lat": 18.5748109,
        "lon": 73.9618613,
        "tags": {
          "amenity": "hospital",
          "healthcare": "hospital",
          "name": "Morya Hospitals"
        }
      },
      {
        "type": "node",
        "id": 10219198238,
        "lat": 18.5733714,
        "lon": 73.9557181,
        "tags": {
          "amenity": "hospital",
          "healthcare": "hospital",
          "name": "Siddheswar Hospitals"
        }
      },
      {
        "type": "node",
        "id": 10219198242,
        "lat": 18.5733934,
        "lon": 73.9557641,
        "tags": {
          "amenity": "hospital",
          "healthcare": "hospital",
          "name": "Siddheswar Hospital"
        }
      },
      {
        "type": "node",
        "id": 10219198244,
        "lat": 18.5748089,
        "lon": 73.961192,
        "tags": {
          "amenity": "hospital",
          "healthcare": "hospital",
          "name": "Care Hospitals"
        }
      },
      {
        "type": "node",
        "id": 10219216819,
        "lat": 18.5789012,
        "lon": 73.9571464,
        "tags": {
          "amenity": "hospital",
          "healthcare": "hospital"
        }
      },
      {
        "type": "node",
        "id": 10219216823,
        "lat": 18.567375,
        "lon": 73.9569307,
        "tags": {
          "amenity": "hospital",
          "healthcare": "hospital"
        }
      },
      {
        "type": "node",
        "id": 10219216824,
        "lat": 18.5715041,
        "lon": 73.9578748,
        "tags": {
          "amenity": "hospital",
          "healthcare": "hospital"
        }
      },
      {
        "type": "node",
        "id": 10219216825,
        "lat": 18.5717686,
        "lon": 73.9559436,
        "tags": {
          "amenity": "hospital",
          "healthcare": "hospital"
        }
      },
      {
        "type": "node",
        "id": 10219216826,
        "lat": 18.5651782,
        "lon": 73.9581752,
        "tags": {
          "amenity": "hospital",
          "healthcare": "hospital"
        }
      },
      {
        "type": "node",
        "id": 10219230638,
        "lat": 18.5748601,
        "lon": 73.9618107,
        "tags": {
          "amenity": "hospital",
          "healthcare": "hospital",
          "name": "Morya Hospitals"
        }
      },
      {
        "type": "node",
        "id": 11862160167,
        "lat": 18.5640594,
        "lon": 73.9494785,
        "tags": {
          "name": "Hi-Choice",
          "shop": "supermarket"
        }
      }
    ]
  },
  "pois_2_5km": {
    "version": 0.6,
    "generator": "Overpass API 0.7.62.8 e802775f",
    "osm3s": {
      "timestamp_osm_base": "2025-09-07T11:32:35Z",
      "copyright": "The data included in this document is from www.openstreetmap.org. The data is made available under ODbL."
    },
    "elements": [
      {
        "type": "node",
        "id": 11809104007,
        "lat": 18.589959,
        "lon": 73.9556321,
        "tags": {
          "amenity": "fuel",
          "brand": "Hindustan Petroleum",
          "brand:wikidata": "Q1619375",
          "fuel:diesel": "yes",
          "fuel:octane_95": "yes",
          "name": "HP Petrol Pump",
          "official_name": "Hindustan Petroleum",
          "operator": "Khandave"
        }
      },
      {
        "type": "node",
        "id": 11812030007,
        "lat": 18.5803367,
        "lon": 73.9752536,
        "tags": {
          "addr:city": "Wagholi",
          "addr:district": "Pune",
          "addr:postcode": "412207",
          "addr:street": "Nagar Road",
          "amenity": "fuel",
          "brand": "Indian Oil Petrol Pump",
          "brand:wikidata": "Q1289348",
          "fuel:Petrol": "yes",
          "fuel:cng": "yes",
          "fuel:diesel": "yes",
          "name": "Indian Oil Petrol Pump",
          "self_service": "no"
        }
      },
      {
        "type": "node",
        "id": 11862093825,
        "lat": 18.5652196,
        "lon": 73.944362,
        "tags": {
          "amenity": "fuel",
          "brand": "Indian Oil",
          "name": "Indian Oil Petrol Pump",
          "not:brand:wikidata": "Q1289348"
        }
      },
      {
        "type": "node",
        "id": 12863629710,
        "lat": 18.5795095,
        "lon": 73.9099537,
        "tags": {
          "aeroway": "terminal"
        }
      }
    ]
  }
}