hotel_name,city,state,address,star_rating,price_per_night,price_range,latitude,longitude,amenities,hotel_type,phone_number,email,website,booking_url,guest_rating,review_count,description,check_in_time,check_out_time,room_types,data_source
Imperial Palace,Mumbai,Maharashtra,,,,,18.9447467,72.834718,"Free WiFi, Air Conditioning, 24/7 Front Desk, Spa, Pool, Gym, Restaurant, Room Service",Luxury,+91-9708-786050,info@imperialp.com,https://www.imperialpalace.com,,4.5,456,,14:00,12:00,"Standard Room, Deluxe Room, Suite, Executive Room",OpenStreetMap
Sharada,Mumbai,Maharashtra,,,,,18.9461969,72.8274147,"Free WiFi, Air Conditioning, 24/7 Front Desk",Budget,+91-9741-645293,info@sharada.com,https://www.sharada.com,,4.0,59,,14:00,12:00,"Standard Room, Deluxe Room",OpenStreetMap
Cecil,Mumbai,Maharashtra,,,,,18.958401,72.811296,"Free WiFi, Air Conditioning, 24/7 Front Desk",Budget,+91-6569-419403,info@cecil.com,https://www.cecil.com,,3.2,24,,14:00,12:00,"Standard Room, Deluxe Room",OpenStreetMap
Sunbeam Geeta,Mumbai,Maharashtra,,,,,18.9978253,72.818454,"Free WiFi, Air Conditioning, 24/7 Front Desk",Budget,+91-7504-735434,info@sunbeamge.com,https://www.sunbeamgeeta.com,,3.8,168,,14:00,12:00,"Standard Room, Deluxe Room",OpenStreetMap
Vivako,Mumbai,Maharashtra,,,,,19.0059,72.8186,"Free WiFi, Air Conditioning, 24/7 Front Desk",Budget,+91-7673-451175,info@vivako.com,https://www.vivako.com,,4.2,183,,14:00,12:00,"Standard Room, Deluxe Room",OpenStreetMap
Jollyland,Mumbai,Maharashtra,,,,,19.0491708,72.9051478,"Free WiFi, Air Conditioning, 24/7 Front Desk",Budget,+91-8170-998460,info@jollyland.com,https://www.jollyland.com,,3.3,248,,14:00,12:00,"Standard Room, Deluxe Room",OpenStreetMap
Ghatla,Mumbai,Maharashtra,,,,,19.0517387,72.9103117,"Free WiFi, Air Conditioning, 24/7 Front Desk",Budget,+91-9482-789068,info@ghatla.com,https://www.ghatla.com,,4.1,487,,14:00,12:00,"Standard Room, Deluxe Room",OpenStreetMap
Jewel of Chembur,Mumbai,Maharashtra,,,,,19.0616667,72.8997266,"Free WiFi, Air Conditioning, 24/7 Front Desk",Budget,+91-8891-983829,info@jewelofc.com,https://www.jewelofchembu.com,,3.7,401,,14:00,12:00,"Standard Room, Deluxe Room",OpenStreetMap
Maruthi Mahal,Mumbai,Maharashtra,,,,,19.0636369,72.8940601,"Free WiFi, Air Conditioning, 24/7 Front Desk",Budget,+91-8301-665233,info@maruthima.com,https://www.maruthimahal.com,,3.3,289,,14:00,12:00,"Standard Room, Deluxe Room",OpenStreetMap
Anita Mahal,Mumbai,Maharashtra,,,,,19.0693839,72.8836606,"Free WiFi, Air Conditioning, 24/7 Front Desk",Budget,+91-9343-934144,info@anitamaha.com,https://www.anitamahal.com,,3.4,286,,14:00,12:00,"Standard Room, Deluxe Room",OpenStreetMap
Regency,Mumbai,Maharashtra,,,,,19.0790449,72.8462916,"Free WiFi, Air Conditioning, 24/7 Front Desk",Budget,+91-7407-172672,info@regency.com,https://www.regency.com,,3.4,160,,14:00,12:00,"Standard Room, Deluxe Room",OpenStreetMap
Classic,Mumbai,Maharashtra,,,,,19.0835527,72.8384747,"Free WiFi, Air Conditioning, 24/7 Front Desk",Budget,+91-7231-319686,info@classic.com,https://www.classic.com,,3.2,381,,14:00,12:00,"Standard Room, Deluxe Room",OpenStreetMap
Atlantic,Mumbai,Maharashtra,,3,,,19.0870126,72.8274729,"Free WiFi, Air Conditioning, 24/7 Front Desk",Budget,+91-7094-361817,info@atlantic.com,https://www.atlantic.com,,3.3,413,,14:00,12:00,"Standard Room, Deluxe Room",OpenStreetMap
Ajanta,Mumbai,Maharashtra,,,,,19.0886,72.8275,"Free WiFi, Air Conditioning, 24/7 Front Desk",Budget,+91-8673-892309,info@ajanta.com,https://www.ajanta.com,,4.0,462,,14:00,12:00,"Standard Room, Deluxe Room",OpenStreetMap
Royal Garden,Mumbai,Maharashtra,,,,,19.0894,72.8276,"Free WiFi, Air Conditioning, 24/7 Front Desk",Budget,+91-9210-301199,info@royalgard.com,https://www.royalgarden.com,,3.6,20,,14:00,12:00,"Standard Room, Deluxe Room",OpenStreetMap
Ambassador,Mumbai,Maharashtra,,,,,19.103681,72.8754749,"Free WiFi, Air Conditioning, 24/7 Front Desk",Budget,+91-9037-510517,info@ambassador.com,https://www.ambassador.com,,3.2,494,,14:00,12:00,"Standard Room, Deluxe Room",OpenStreetMap
Leela Kempinski,Mumbai,Maharashtra,,,,,19.1065748,72.8761199,"Free WiFi, Air Conditioning, 24/7 Front Desk, Spa, Pool, Gym, Restaurant, Room Service",Luxury,+91-9162-267022,info@leelakemp.com,https://www.leelakempinski.com,,4.2,49,,14:00,12:00,"Standard Room, Deluxe Room, Suite, Executive Room",OpenStreetMap
Kumaria Presidency,Mumbai,Maharashtra,,,,,19.1065999,72.8769001,"Free WiFi, Air Conditioning, 24/7 Front Desk",Budget,+91-6468-978620,info@kumariapr.com,https://www.kumariapreside.com,,3.6,205,,14:00,12:00,"Standard Room, Deluxe Room",OpenStreetMap
Samraj,Mumbai,Maharashtra,,,,,19.1097262,72.8594577,"Free WiFi, Air Conditioning, 24/7 Front Desk",Budget,+91-7880-809357,info@samraj.com,https://www.samraj.com,,3.5,154,,14:00,12:00,"Standard Room, Deluxe Room",OpenStreetMap
Sun n Sheel,Mumbai,Maharashtra,,,,,19.1111949,72.8719322,"Free WiFi, Air Conditioning, 24/7 Front Desk",Budget,+91-9940-148336,info@sunnshee.com,https://www.sunnsheel.com,,3.9,286,,14:00,12:00,"Standard Room, Deluxe Room",OpenStreetMap
Tirupati,Mumbai,Maharashtra,,,,,19.1136052,72.8804798,"Free WiFi, Air Conditioning, 24/7 Front Desk",Budget,+91-9361-832304,info@tirupati.com,https://www.tirupati.com,,3.8,270,,14:00,12:00,"Standard Room, Deluxe Room",OpenStreetMap
Highway Inn,Mumbai,Maharashtra,,,,,19.1175319,72.8508646,"Free WiFi, Air Conditioning, 24/7 Front Desk",Budget,+91-6140-632674,info@highwayin.com,https://www.highwayinn.com,,3.7,94,,14:00,12:00,"Standard Room, Deluxe Room",OpenStreetMap
Tunga International,Mumbai,Maharashtra,,,,,19.1154,72.872,"Free WiFi, Air Conditioning, 24/7 Front Desk",Budget,+91-9579-919965,info@tungainte.com,https://www.tungainternati.com,,3.9,377,,14:00,12:00,"Standard Room, Deluxe Room",OpenStreetMap
Babul,Mumbai,Maharashtra,,,,,19.1217301,72.8318524,"Free WiFi, Air Conditioning, 24/7 Front Desk",Budget,+91-6358-232837,info@babul.com,https://www.babul.com,,3.9,466,,14:00,12:00,"Standard Room, Deluxe Room",OpenStreetMap
Dolphin View,Mumbai,Maharashtra,,,,,19.1437101,72.7893756,"Free WiFi, Air Conditioning, 24/7 Front Desk",Budget,+91-6793-436730,info@dolphinvi.com,https://www.dolphinview.com,,3.2,324,,14:00,12:00,"Standard Room, Deluxe Room",OpenStreetMap
Manisha Cottage,Mumbai,Maharashtra,,,,,19.1458595,72.7895646,"Free WiFi, Air Conditioning, 24/7 Front Desk",Budget,+91-7226-669982,info@manishaco.com,https://www.manishacottage.com,,3.2,234,,14:00,12:00,"Standard Room, Deluxe Room",OpenStreetMap
Blue Ballerina,Mumbai,Maharashtra,,,,,19.1622,72.785,"Free WiFi, Air Conditioning, 24/7 Front Desk",Budget,+91-9035-992627,info@blueballe.com,https://www.blueballerina.com,,3.7,378,,14:00,12:00,"Standard Room, Deluxe Room",OpenStreetMap
Jay Prakash,Mumbai,Maharashtra,,,,,19.1623,72.8513,"Free WiFi, Air Conditioning, 24/7 Front Desk",Budget,+91-7115-151221,info@jayprakas.com,https://www.jayprakash.com,,3.3,304,,14:00,12:00,"Standard Room, Deluxe Room",OpenStreetMap
The Resort,Mumbai,Maharashtra,,,,,19.1743671,72.7963333,"Free WiFi, Air Conditioning, 24/7 Front Desk, Pool, Restaurant, Gym, Spa",Resort,+91-7068-599912,info@theresort.com,https://www.theresort.com,,3.6,204,,14:00,12:00,"Standard Room, Deluxe Room",OpenStreetMap
Anil Thakur Guest House,Mumbai,Maharashtra,,,,,19.1760671,72.7966333,"Free WiFi, Air Conditioning, 24/7 Front Desk",Budget,+91-8235-973993,info@anilthaku.com,https://www.anilthakurgue.com,,3.5,247,,14:00,12:00,"Standard Room, Deluxe Room",OpenStreetMap
Rohan,Mumbai,Maharashtra,,,,,19.2221778,72.8522858,"Free WiFi, Air Conditioning, 24/7 Front Desk",Budget,+91-6065-634115,info@rohan.com,https://www.rohan.com,,3.3,173,,14:00,12:00,"Standard Room, Deluxe Room",OpenStreetMap
Supreme Heritage,Mumbai,Maharashtra,,,,,19.0774433,73.0034195,"Free WiFi, Air Conditioning, 24/7 Front Desk",Budget,+91-9337-437750,info@supremehe.com,https://www.supremeheritag.com,,3.5,155,,14:00,12:00,"Standard Room, Deluxe Room",OpenStreetMap
seaview,Mumbai,Maharashtra,,,,,19.0959916,72.8269037,"Free WiFi, Air Conditioning, 24/7 Front Desk",Budget,+91-7628-752533,info@seaview.com,https://www.seaview.com,,3.9,253,,14:00,12:00,"Standard Room, Deluxe Room",OpenStreetMap
Citizen Hotel,Mumbai,Maharashtra,,,,,19.095697,72.8269623,"Free WiFi, Air Conditioning, 24/7 Front Desk",Budget,+91-6625-508499,info@citizenho.com,https://www.citizenhotel.com,,3.5,278,,14:00,12:00,"Standard Room, Deluxe Room",OpenStreetMap
Great Punjab Hotel,Mumbai,Maharashtra,,,,,18.9440303,72.829059,"Free WiFi, Air Conditioning, 24/7 Front Desk",Budget,+91-8939-394379,info@greatpunj.com,https://www.greatpunjabho.com,,3.5,314,,14:00,12:00,"Standard Room, Deluxe Room",OpenStreetMap
Hotel Adarsh Palace,Mumbai,Maharashtra,,,,,18.9487539,72.8293568,"Free WiFi, Air Conditioning, 24/7 Front Desk, Spa, Pool, Gym, Restaurant, Room Service",Luxury,+91-9928-529335,info@hoteladar.com,https://www.hoteladarshpa.com,,4.3,177,,14:00,12:00,"Standard Room, Deluxe Room, Suite, Executive Room",OpenStreetMap
Diamond,Mumbai,Maharashtra,,,,,18.99282,72.8486524,"Free WiFi, Air Conditioning, 24/7 Front Desk",Budget,+91-7595-432607,info@diamond.com,https://www.diamond.com,,3.4,62,,14:00,12:00,"Standard Room, Deluxe Room",OpenStreetMap
Hotel Mogul Palace,Mumbai,Maharashtra,,,,,18.9546342,72.8354513,"Free WiFi, Air Conditioning, 24/7 Front Desk, Spa, Pool, Gym, Restaurant, Room Service",Luxury,+91-9520-805505,info@hotelmogu.com,https://www.hotelmogulpal.com,,4.4,298,,14:00,12:00,"Standard Room, Deluxe Room, Suite, Executive Room",OpenStreetMap
Hotel Shantidoot,Mumbai,Maharashtra,,,,,19.0084975,72.8405638,"Free WiFi, Air Conditioning, 24/7 Front Desk",Budget,+91-9611-591294,info@hotelshan.com,https://www.hotelshantidoo.com,,3.9,271,,14:00,12:00,"Standard Room, Deluxe Room",OpenStreetMap
Carlton Hotel,Mumbai,Maharashtra,"12, Boman Behram Road (Mere Weather Road), Puducherry",,,,18.9224055,72.8326985,"Free WiFi, Air Conditioning, 24/7 Front Desk",Budget,22020642,info@carltonho.com,https://www.carltonhotel.com,,3.2,129,,14:00,12:00,"Standard Room, Deluxe Room",OpenStreetMap
Ratna Mahal,Mumbai,Maharashtra,,,,,19.1083564,72.8587789,"Free WiFi, Air Conditioning, 24/7 Front Desk",Budget,+91-7169-337960,info@ratnamaha.com,https://www.ratnamahal.com,,4.0,88,,14:00,12:00,"Standard Room, Deluxe Room",OpenStreetMap
Yogi excutive,Mumbai,Maharashtra,,,,,19.0705945,73.009586,"Free WiFi, Air Conditioning, 24/7 Front Desk",Budget,+91-9330-585996,info@yogiexcut.com,https://www.yogiexcutive.com,,3.5,77,,14:00,12:00,"Standard Room, Deluxe Room",OpenStreetMap
City Palace,Mumbai,Maharashtra,,,,,18.938201,72.8354677,"Free WiFi, Air Conditioning, 24/7 Front Desk, Spa, Pool, Gym, Restaurant, Room Service",Luxury,+91-6418-584728,info@citypalac.com,https://www.citypalace.com,,4.6,118,,14:00,12:00,"Standard Room, Deluxe Room, Suite, Executive Room",OpenStreetMap
Residency,Mumbai,Maharashtra,,,,,18.9349748,72.8332409,"Free WiFi, Air Conditioning, 24/7 Front Desk",Budget,+91-6517-986396,info@residency.com,https://www.residency.com,,3.9,74,,14:00,12:00,"Standard Room, Deluxe Room",OpenStreetMap
Sai Leela Hotel,Mumbai,Maharashtra,,,,,19.1633302,72.8509569,"Free WiFi, Air Conditioning, 24/7 Front Desk, Spa, Pool, Gym, Restaurant, Room Service",Luxury,+91-9688-315059,info@saileela.com,https://www.saileelahotel.com,,4.6,368,,14:00,12:00,"Standard Room, Deluxe Room, Suite, Executive Room",OpenStreetMap
Pratistha,Mumbai,Maharashtra,,,,,19.0539661,72.9111921,"Free WiFi, Air Conditioning, 24/7 Front Desk",Budget,+91-9303-129941,info@pratistha.com,https://www.pratistha.com,,3.3,330,,14:00,12:00,"Standard Room, Deluxe Room",OpenStreetMap
Kamat Plaza,Mumbai,Maharashtra,,,,,19.0963374,72.8545012,"Free WiFi, Air Conditioning, 24/7 Front Desk",Budget,+91-7169-474400,info@kamatplaz.com,https://www.kamatplaza.com,,4.1,377,,14:00,12:00,"Standard Room, Deluxe Room",OpenStreetMap
Airlines International,Mumbai,Maharashtra,,,,,19.0843315,72.8441532,"Free WiFi, Air Conditioning, 24/7 Front Desk",Budget,+91-6077-306795,info@airlinesi.com,https://www.airlinesintern.com,,4.2,420,,14:00,12:00,"Standard Room, Deluxe Room",OpenStreetMap
Apsara International,Mumbai,Maharashtra,,,,,19.079788,72.8385825,"Free WiFi, Air Conditioning, 24/7 Front Desk",Budget,+91-8629-520628,info@apsaraint.com,https://www.apsarainternat.com,,3.8,20,,14:00,12:00,"Standard Room, Deluxe Room",OpenStreetMap
Galaxy,Mumbai,Maharashtra,,,,,19.0835291,72.8442623,"Free WiFi, Air Conditioning, 24/7 Front Desk",Budget,+91-6911-822685,info@galaxy.com,https://www.galaxy.com,,3.7,338,,14:00,12:00,"Standard Room, Deluxe Room",OpenStreetMap
Prince Palace,Mumbai,Maharashtra,,,,,19.0810431,72.838974,"Free WiFi, Air Conditioning, 24/7 Front Desk, Spa, Pool, Gym, Restaurant, Room Service",Luxury,+91-9483-374232,info@princepal.com,https://www.princepalace.com,,4.2,239,,14:00,12:00,"Standard Room, Deluxe Room, Suite, Executive Room",OpenStreetMap
Welco,Mumbai,Maharashtra,,,,,19.0805429,72.840324,"Free WiFi, Air Conditioning, 24/7 Front Desk",Budget,+91-7384-605976,info@welco.com,https://www.welco.com,,3.4,484,,14:00,12:00,"Standard Room, Deluxe Room",OpenStreetMap
Sea Green Hotel,Mumbai,Maharashtra,,,,,18.9326798,72.8237555,"Free WiFi, Air Conditioning, 24/7 Front Desk",Budget,+91-6922-158048,info@seagreen.com,https://www.seagreenhotel.com,,4.1,490,,14:00,12:00,"Standard Room, Deluxe Room",OpenStreetMap
Abbot Hotel,Mumbai,Maharashtra,,,,,19.0736432,72.9969421,"Free WiFi, Air Conditioning, 24/7 Front Desk",Budget,+91-7207-237010,info@abbothote.com,https://www.abbothotel.com,,3.9,89,,14:00,12:00,"Standard Room, Deluxe Room",OpenStreetMap
InterContinental Hotel,Mumbai,Maharashtra,"135, Marine Drive, Mumbai",,,,18.9350805,72.8241417,"Free WiFi, Air Conditioning, 24/7 Front Desk",Budget,+91 22 6639 9999,info@interconti.com,https://www.ihg.com/intercontinental/hotels/gb/en/mumbai/bomhb/hoteldetail,,4.0,253,,14:00,12:00,"Standard Room, Deluxe Room",OpenStreetMap
Guest House,Mumbai,Maharashtra,,,,,19.1297012,72.9147401,"Free WiFi, Air Conditioning, 24/7 Front Desk",Budget,+91-6821-931535,info@guesthous.com,https://www.guesthouse.com,,3.3,488,,14:00,12:00,"Standard Room, Deluxe Room",OpenStreetMap
Basant,Mumbai,Maharashtra,,,,,19.1631419,72.7901798,"Free WiFi, Air Conditioning, 24/7 Front Desk",Budget,+91-6602-517328,info@basant.com,https://www.basant.com,,4.0,267,,14:00,12:00,"Standard Room, Deluxe Room",OpenStreetMap
Bhatia Island,Mumbai,Maharashtra,,,,,19.160137,72.7851986,"Free WiFi, Air Conditioning, 24/7 Front Desk",Budget,+91-6185-634970,info@bhatiaisl.com,https://www.bhatiaisland.com,,3.3,249,,14:00,12:00,"Standard Room, Deluxe Room",OpenStreetMap
Ruskon,Mumbai,Maharashtra,,,,,19.1636802,72.7904156,"Free WiFi, Air Conditioning, 24/7 Front Desk",Budget,+91-6967-555085,info@ruskon.com,https://www.ruskon.com,,3.5,241,,14:00,12:00,"Standard Room, Deluxe Room",OpenStreetMap
Vyas Wadi,Mumbai,Maharashtra,,,,,19.1443977,72.7896652,"Free WiFi, Air Conditioning, 24/7 Front Desk",Budget,+91-7497-466615,info@vyaswadi.com,https://www.vyaswadi.com,,3.5,65,,14:00,12:00,"Standard Room, Deluxe Room",OpenStreetMap
Benazeer,Mumbai,Maharashtra,,,,,18.9350404,72.833542,"Free WiFi, Air Conditioning, 24/7 Front Desk",Budget,+91-8701-763993,info@benazeer.com,https://www.benazeer.com,,3.2,326,,14:00,12:00,"Standard Room, Deluxe Room",OpenStreetMap
Mid Town,Mumbai,Maharashtra,,,,,19.1204453,72.844871,"Free WiFi, Air Conditioning, 24/7 Front Desk",Budget,+91-6544-860759,info@midtown.com,https://www.midtown.com,,3.6,118,,14:00,12:00,"Standard Room, Deluxe Room",OpenStreetMap
Hilltop,Mumbai,Maharashtra,,,,,19.0101,72.8179021,"Free WiFi, Air Conditioning, 24/7 Front Desk",Budget,+91-6416-160927,info@hilltop.com,https://www.hilltop.com,,3.3,123,,14:00,12:00,"Standard Room, Deluxe Room",OpenStreetMap
Malhar,Mumbai,Maharashtra,,,,,19.0597045,72.8976517,"Free WiFi, Air Conditioning, 24/7 Front Desk",Budget,+91-6205-597195,info@malhar.com,https://www.malhar.com,,4.1,481,,14:00,12:00,"Standard Room, Deluxe Room",OpenStreetMap
Gokulanand Hotel,Mumbai,Maharashtra,,,,,19.2439468,72.8648572,"Free WiFi, Air Conditioning, 24/7 Front Desk",Budget,+91-9184-743138,info@gokulanand.com,https://www.gokulanandhote.com,,3.7,23,,14:00,12:00,"Standard Room, Deluxe Room",OpenStreetMap
Anand Bhavan,Mumbai,Maharashtra,,,,,19.113053,72.8256428,"Free WiFi, Air Conditioning, 24/7 Front Desk",Budget,+91-7764-655407,info@anandbhav.com,https://www.anandbhavan.com,,3.4,66,,14:00,12:00,"Standard Room, Deluxe Room",OpenStreetMap
Royal Inn,Mumbai,Maharashtra,,,,,19.2075411,72.9774272,"Free WiFi, Air Conditioning, 24/7 Front Desk",Budget,+91-9005-408316,info@royalinn.com,https://www.royalinn.com,,3.9,388,,14:00,12:00,"Standard Room, Deluxe Room",OpenStreetMap
Hotel Capitol,Mumbai,Maharashtra,,,,,19.2153727,72.9775249,Air Conditioning,Budget,+91-7686-847613,info@hotelcapi.com,https://www.hotelcapitol.com,,4.1,176,,14:00,12:00,"Standard Room, Deluxe Room",OpenStreetMap
Hotel Lerida,Mumbai,Maharashtra,,,,,19.2086291,72.9737343,Air Conditioning,Budget,+91-7947-435540,info@hotelleri.com,https://www.hotellerida.com,,3.5,278,,14:00,12:00,"Standard Room, Deluxe Room",OpenStreetMap
Residence Inn Powai,Mumbai,Maharashtra,,,,,19.1346222,72.8987555,"Free WiFi, Air Conditioning, 24/7 Front Desk",Budget,+91-6687-802315,info@residence.com,https://www.residenceinnp.com,,3.5,447,,14:00,12:00,"Standard Room, Deluxe Room",OpenStreetMap
The Westin Mumbai Garden City,Mumbai,Maharashtra,,,,,19.1723617,72.8605305,"Free WiFi, Air Conditioning, 24/7 Front Desk",Budget,+91-8693-705590,info@thewestin.com,https://www.thewestinmumb.com,,3.5,281,,14:00,12:00,"Standard Room, Deluxe Room",OpenStreetMap
Al Haram,Mumbai,Maharashtra,,,,,18.9548493,72.8346213,"Free WiFi, Air Conditioning, 24/7 Front Desk",Budget,+91-8444-249967,info@alharam.com,https://www.alharam.com,,3.3,249,,14:00,12:00,"Standard Room, Deluxe Room",OpenStreetMap
Al Mazin,Mumbai,Maharashtra,,,,,18.9552772,72.8370461,"Free WiFi, Air Conditioning, 24/7 Front Desk",Budget,+91-9823-880154,info@almazin.com,https://www.almazin.com,,3.2,393,,14:00,12:00,"Standard Room, Deluxe Room",OpenStreetMap
Shangrila,Mumbai,Maharashtra,,,,,19.0440479,72.8662694,"Free WiFi, Air Conditioning, 24/7 Front Desk",Budget,+91-6398-126185,info@shangrila.com,https://www.shangrila.com,,3.9,267,,14:00,12:00,"Standard Room, Deluxe Room",OpenStreetMap
Ramada Powai Hotel & Convention Center,Mumbai,Maharashtra,,,,,19.1359551,72.8990184,"Free WiFi, Air Conditioning, 24/7 Front Desk",Budget,+91-8357-636894,info@ramadapow.com,https://ramadapowai.com/,,4.0,485,,14:00,12:00,"Standard Room, Deluxe Room",OpenStreetMap
United 21,Mumbai,Maharashtra,"Lal Bahadur Shastri Marg, Thane",4,,,19.2077016,72.9776768,"Free WiFi, Air Conditioning, 24/7 Front Desk",Budget,+91-8710-443574,info@united21.com,https://www.united21.com,,3.8,425,,14:00,12:00,"Standard Room, Deluxe Room",OpenStreetMap
Dragonfly,Mumbai,Maharashtra,,,,,19.1109356,72.8630387,"Free WiFi, Air Conditioning, 24/7 Front Desk",Budget,+91-8383-583390,info@dragonfly.com,https://www.dragonfly.com,,3.9,92,,14:00,12:00,"Standard Room, Deluxe Room",OpenStreetMap
Fortune Park Lakecity,Mumbai,Maharashtra,"Eastern Express Highway, Thane",,,,19.2097786,72.9729516,"Free WiFi, Air Conditioning, 24/7 Front Desk",Budget,+91-6778-661418,info@fortunepa.com,https://www.fortuneparkla.com,,4.1,55,,14:00,12:00,"Standard Room, Deluxe Room",OpenStreetMap
YMCA International House,Mumbai,Maharashtra,"18, YMCA Road (Club Back Road), Mumbai",,,,18.9720126,72.8233555,"Free WiFi, Air Conditioning, 24/7 Front Desk",Budget,+91 22 61540100,info@ymcainter.com,http://ymcabombay.com/branch/ymca-international-house/,,4.0,29,,14:00,12:00,"Standard Room, Deluxe Room",OpenStreetMap
Hotel Grand Inn,Mumbai,Maharashtra,,,,,19.1177459,72.8800918,WiFi,Luxury,022292537764776,info@hotelgran.com,www.hotelgrandinn.co.in,,4.5,136,,14:00,12:00,"Standard Room, Deluxe Room, Suite, Executive Room",OpenStreetMap
Janata Hotel,Mumbai,Maharashtra,"M G Ramchandran Marg, Mumbai",,,,19.0397857,72.9479365,"Free WiFi, Air Conditioning, 24/7 Front Desk",Budget,+91-8059-171739,info@janatahot.com,https://www.janatahotel.com,,3.2,334,,14:00,12:00,"Standard Room, Deluxe Room",OpenStreetMap
new delhi,Mumbai,Maharashtra,,,,,19.0624996,72.9288123,"Free WiFi, Air Conditioning, 24/7 Front Desk",Budget,+91-6658-940194,info@newdelhi.com,https://www.newdelhi.com,,3.3,462,,14:00,12:00,"Standard Room, Deluxe Room",OpenStreetMap
Sun Star Residency,Mumbai,Maharashtra,,,,,18.9367764,72.8347815,"Free WiFi, Air Conditioning, 24/7 Front Desk",Budget,+91-7235-516719,info@sunstarr.com,https://www.sunstarreside.com,,3.8,64,,14:00,12:00,"Standard Room, Deluxe Room",OpenStreetMap
Hotel Manama,Mumbai,Maharashtra,,,,,18.9394214,72.8384104,"Free WiFi, Air Conditioning, 24/7 Front Desk",Budget,+91-6053-806594,info@hotelmana.com,https://www.hotelmanama.com,,3.6,405,,14:00,12:00,"Standard Room, Deluxe Room",OpenStreetMap
hotel Shamlat,Mumbai,Maharashtra,,,,,19.0702445,72.8398298,"Free WiFi, Air Conditioning, 24/7 Front Desk",Budget,+91-8248-665828,info@hotelsham.com,https://www.hotelshamlat.com,,3.4,492,,14:00,12:00,"Standard Room, Deluxe Room",OpenStreetMap
Al-Moazin,Mumbai,Maharashtra,"17/19, Mohammed Ali Road",,,,18.9550484,72.8363847,"Free WiFi, Air Conditioning, 24/7 Front Desk",Budget,23478310/23475922,info@almoazin.com,https://www.almoazin.com,,3.6,396,,14:00,12:00,"Standard Room, Deluxe Room",OpenStreetMap
Hotel Kamaran residency,Mumbai,Maharashtra,,,,,19.0776977,72.8790334,"Free WiFi, Air Conditioning, 24/7 Front Desk",Budget,+91-7193-518542,info@hotelkama.com,https://www.hotelkamaranr.com,,3.2,482,,14:00,12:00,"Standard Room, Deluxe Room",OpenStreetMap
Hotel Moti,Mumbai,Maharashtra,,,,,18.9218143,72.8317249,"Free WiFi, Air Conditioning, 24/7 Front Desk",Budget,+91-6514-383301,info@hotelmoti.com,https://www.hotelmoti.com,,3.3,375,,14:00,12:00,"Standard Room, Deluxe Room",OpenStreetMap
Holiday Inn International Hotel,Mumbai,Maharashtra,"Baji Pasalkar Marg (Saki Vihar Road), Mumbai",,,,19.1030238,72.8872771,"Free WiFi, Air Conditioning, 24/7 Front Desk",Budget,+91-9469-827244,info@holidayin.com,https://www.holidayinnint.com,,3.2,319,,14:00,12:00,"Standard Room, Deluxe Room",OpenStreetMap
Shubalaxmi,Mumbai,Maharashtra,Sion Trombay Road,,,,19.0460553,72.9098383,"Free WiFi, Air Conditioning, 24/7 Front Desk",Budget,+91-6978-131032,info@shubalaxmi.com,https://www.shubalaxmi.com,,3.9,278,,14:00,12:00,"Standard Room, Deluxe Room",OpenStreetMap
triveni bar,Mumbai,Maharashtra,,,,,19.0573437,72.887152,"Free WiFi, Air Conditioning, 24/7 Front Desk",Budget,+91-7683-904114,info@triveniba.com,https://www.trivenibar.com,,3.3,336,,14:00,12:00,"Standard Room, Deluxe Room",OpenStreetMap
maharana hotel,Mumbai,Maharashtra,,,,,19.053754,72.8953351,"Free WiFi, Air Conditioning, 24/7 Front Desk",Budget,+91-8950-287343,info@maharanah.com,https://www.maharanahotel.com,,4.0,30,,14:00,12:00,"Standard Room, Deluxe Room",OpenStreetMap
Waterstones Hotel,Mumbai,Maharashtra,"International Airport Sahar, Mumbai",,,,19.1057985,72.8771149,"Free WiFi, Air Conditioning, 24/7 Front Desk",Budget,+91 22 40906633,info@waterstone.com,https://www.waterstoneshotel.com/,,3.5,136,,14:00,12:00,"Standard Room, Deluxe Room",OpenStreetMap
Svenska Design Hotel,Mumbai,Maharashtra,,,,,19.1364141,72.8279989,"Free WiFi, Air Conditioning, 24/7 Front Desk",Budget,+91-8826-226224,info@svenskade.com,https://www.svenskadesign.com,,3.6,315,,14:00,12:00,"Standard Room, Deluxe Room",OpenStreetMap
Hotel Kumkum,Mumbai,Maharashtra,"165, Lamington Street, Mumbai",,,,18.9648362,72.8188506,"Free WiFi, Air Conditioning, 24/7 Front Desk",Budget,+912223072010,info@hotelkumk.com,hotelkumkum.com,,3.3,351,,14:00,12:00,"Standard Room, Deluxe Room",OpenStreetMap
Hotel Sapna,Mumbai,Maharashtra,Mumbai,,,,18.957259,72.8102978,"Free WiFi, Air Conditioning, 24/7 Front Desk",Budget,+91-8498-443118,info@hotelsapn.com,https://www.hotelsapna.com,,4.2,105,,14:00,12:00,"Standard Room, Deluxe Room",OpenStreetMap
Hotel Galaxy View (Oyo Rooms),Mumbai,Maharashtra,,,,,19.0696853,72.9011307,"Free WiFi, Air Conditioning, 24/7 Front Desk",Budget,+91-9161-189046,info@hotelgala.com,https://www.hotelgalaxyvi.com,,3.6,343,,14:00,12:00,"Standard Room, Deluxe Room",OpenStreetMap
The UniContinental,Mumbai,Maharashtra,,,,,19.0706484,72.8398991,"Free WiFi, Air Conditioning, 24/7 Front Desk",Budget,+91-7938-930198,info@theunicon.com,https://www.theunicontinen.com,,4.2,395,,14:00,12:00,"Standard Room, Deluxe Room",OpenStreetMap
Windsor,Mumbai,Maharashtra,,,,,18.9365103,72.8386041,"Free WiFi, Air Conditioning, 24/7 Front Desk",Budget,+91-7076-656698,info@windsor.com,https://www.windsor.com,,3.4,433,,14:00,12:00,"Standard Room, Deluxe Room",OpenStreetMap
Hotel Briteway,Mumbai,Maharashtra,"278, Maulana Shaukat Ali Marg, Mumbai",,,,18.9621067,72.8214647,"Free WiFi, Air Conditioning, 24/7 Front Desk",Budget,+91-9388-803208,info@hotelbrit.com,https://www.hotelbriteway.com,,3.8,225,,14:00,12:00,"Standard Room, Deluxe Room",OpenStreetMap
Delhi Darbar,Mumbai,Maharashtra,"204, Patthe Bapurao Marg (Falkland Road)",,,,18.9614573,72.823385,"Free WiFi, Air Conditioning, 24/7 Front Desk",Budget,+91-9946-180675,info@delhidarb.com,https://www.delhidarbar.com,,3.6,50,,14:00,12:00,"Standard Room, Deluxe Room",OpenStreetMap
Treebo Trend Rosewood,Mumbai,Maharashtra,"Tulsiwadi, Hatutma Sitaram Ghadi Gaonkar Street, Mumbai",,,,18.9725898,72.815774,"Free WiFi, Air Conditioning, 24/7 Front Desk",Budget,+919322800100,info@treebotre.com,https://www.treebo.com/,,4.1,429,,14:00,12:00,"Standard Room, Deluxe Room",OpenStreetMap
Treebo Sea Side,Mumbai,Maharashtra,"39/2, Juhu Road",,,,19.1092536,72.824112,"Free WiFi, Air Conditioning, 24/7 Front Desk",Budget,+91-8407-360163,info@treebosea.com,https://treebohotels.com/,,4.2,340,,14:00,12:00,"Standard Room, Deluxe Room",OpenStreetMap
Empire Hotel,Mumbai,Maharashtra,307,,,,18.9614685,72.8176559,"Free WiFi, Air Conditioning, 24/7 Front Desk",Budget,+91-22-23863355,info@empirehot.com,https://www.empirehotel.com,,3.7,438,,14:00,12:00,"Standard Room, Deluxe Room",OpenStreetMap
The Leela,Mumbai,Maharashtra,,,,,19.1092433,72.8737582,"Free WiFi, Air Conditioning, 24/7 Front Desk, Spa, Pool, Gym, Restaurant, Room Service",Luxury,+91-6338-288240,info@theleela.com,https://www.theleela.com,,4.3,364,,14:00,12:00,"Standard Room, Deluxe Room, Suite, Executive Room",OpenStreetMap
Kumkum,Mumbai,Maharashtra,,,,,18.9651501,72.8189355,"Free WiFi, Air Conditioning, 24/7 Front Desk",Budget,+91-9778-708380,info@kumkum.com,https://www.kumkum.com,,3.9,247,,14:00,12:00,"Standard Room, Deluxe Room",OpenStreetMap
Grand Residency Hotel,Mumbai,Maharashtra,,,,,19.0617235,72.8325298,"Free WiFi, Air Conditioning, 24/7 Front Desk, Spa, Pool, Gym, Restaurant, Room Service",Luxury,+91-6050-918214,info@grandresi.com,https://www.grandresidency.com,,4.2,446,,14:00,12:00,"Standard Room, Deluxe Room, Suite, Executive Room",OpenStreetMap
JW Marriott Mumbai Sahar,Mumbai,Maharashtra,"IA Project Road, Andheri",5,,,19.1031373,72.8777603,Internet,Budget,+91-9842-529888,info@jwmarriot.com,https://www.jwmarriottmum.com,,3.6,122,,14:00,12:00,"Standard Room, Deluxe Room",OpenStreetMap
Ramee Guestline Hotel,Mumbai,Maharashtra,Swami Gyan Jiwandas Marg,,,,19.0170997,72.8445771,"Free WiFi, Air Conditioning, 24/7 Front Desk",Budget,+91-6924-285678,info@rameegues.com,https://www.rameeguestline.com,,3.7,491,,14:00,12:00,"Standard Room, Deluxe Room",OpenStreetMap
"Hindi, Gujarati, English",Mumbai,Maharashtra,"179, Dayaldas Road",,,,19.0957683,72.8519019,"Free WiFi, Air Conditioning, 24/7 Front Desk",Budget,+912226187717,book@hotelaircraft.in,http://www.hotelaircraft.in,,3.7,62,,14:00,12:00,"Standard Room, Deluxe Room",OpenStreetMap
Nirvana Residences,Mumbai,Maharashtra,"22, Niedersachsenring, Mumbai",3,,,19.0782212,72.8300971,"Free WiFi, Air Conditioning, 24/7 Front Desk",Budget,+91-6733-219843,info@nirvanare.com,https://www.nirvanaresiden.com,,3.4,427,,14:00,12:00,"Standard Room, Deluxe Room",OpenStreetMap
Garden Hotel,Mumbai,Maharashtra,,,,,18.9190174,72.8307412,"Free WiFi, Air Conditioning, 24/7 Front Desk",Budget,+91-9305-718905,info@gardenhot.com,https://www.gardenhotel.com,,4.1,406,,14:00,12:00,"Standard Room, Deluxe Room",OpenStreetMap
Chateau Windsor,Mumbai,Maharashtra,,,,,18.933694,72.8251723,"Free WiFi, Air Conditioning, 24/7 Front Desk",Budget,+91-8848-498578,info@chateauwi.com,https://www.chateauwindsor.com,,3.8,260,,14:00,12:00,"Standard Room, Deluxe Room",OpenStreetMap
Hotel Shiva Heritage हॉटेल शिवा हेरीटेज,Mumbai,Maharashtra,,,,,19.1445169,73.0488962,"Free WiFi, Air Conditioning, 24/7 Front Desk",Budget,+91-8830-960570,info@hotelshiv.com,https://www.hotelshivaher.com,,4.0,169,,14:00,12:00,"Standard Room, Deluxe Room",OpenStreetMap
Kempinski Leela,Mumbai,Maharashtra,,,,,19.109103,72.8741445,"Free WiFi, Air Conditioning, 24/7 Front Desk, Spa, Pool, Gym, Restaurant, Room Service",Luxury,+91-8685-359610,info@kempinski.com,https://www.kempinskileela.com,,4.7,379,,14:00,12:00,"Standard Room, Deluxe Room, Suite, Executive Room",OpenStreetMap
Lalit Mumbai,Mumbai,Maharashtra,,,,,19.1054069,72.8757789,"Free WiFi, Air Conditioning, 24/7 Front Desk",Budget,+91-8603-797049,info@lalitmumb.com,https://www.lalitmumbai.com,,3.9,450,,14:00,12:00,"Standard Room, Deluxe Room",OpenStreetMap
Jalvihar Guest House,Mumbai,Maharashtra,,,,,19.1292503,72.9141205,"Free WiFi, Air Conditioning, 24/7 Front Desk",Budget,+91-7728-731444,info@jalviharg.com,https://www.jalviharguest.com,,3.3,403,,14:00,12:00,"Standard Room, Deluxe Room",OpenStreetMap
Hotel Alpha International,Mumbai,Maharashtra,,,,,19.0899612,72.838579,"Free WiFi, Air Conditioning, 24/7 Front Desk",Budget,+91-7314-433548,info@hotelalph.com,https://www.hotelalphaint.com,,3.5,473,,14:00,12:00,"Standard Room, Deluxe Room",OpenStreetMap
Hotel Blue Pearl Residency,Mumbai,Maharashtra,,,,,19.0962586,72.8947104,"Free WiFi, Air Conditioning, 24/7 Front Desk",Budget,+91-8243-784433,info@hotelblue.com,https://www.hotelbluepear.com,,3.4,91,,14:00,12:00,"Standard Room, Deluxe Room",OpenStreetMap
Aristo Hospitality Apartment Santacruz,Mumbai,Maharashtra,"1201, Rukmini Smruti, Mumbai",,,,19.0818622,72.8440285,"Free WiFi, Air Conditioning, 24/7 Front Desk",Budget,+91-9143-888067,info@aristohos.com,https://www.aristohospital.com,,3.3,487,,14:00,12:00,"Standard Room, Deluxe Room",OpenStreetMap
Red House Hostel,Mumbai,Maharashtra,,,,,19.1256443,72.9194954,"Free WiFi, Air Conditioning, 24/7 Front Desk",Budget,+91-7239-566138,info@redhouse.com,https://www.redhousehoste.com,,3.5,464,,14:00,12:00,"Standard Room, Deluxe Room",OpenStreetMap
Rodas - An Ecotel Hotel,Mumbai,Maharashtra,,3,,,19.1185925,72.9116829,"Free WiFi, Air Conditioning, 24/7 Front Desk",Budget,022 6693 6969,info@rodasan.com,https://www.fernhotels.com/rodas-an-ecotel-hotel-mumbai#,,3.5,285,,14:00,12:00,"Standard Room, Deluxe Room",OpenStreetMap
Hotel Linkway,Mumbai,Maharashtra,"519, Vithalbhai Patel Road, Bandra, Mumbai",,,,19.0650925,72.834958,Internet,Budget,+91-7301-789921,info@hotellink.com,https://hotellinkway.com/,,3.2,387,,14:00,12:00,"Standard Room, Deluxe Room",OpenStreetMap
Abode Bombay,Mumbai,Maharashtra,Mahakavi Bhushan Road (Lansdowne Road),,,,18.9237234,72.8326873,"Free WiFi, Air Conditioning, 24/7 Front Desk",Budget,+91-7956-665520,info@abodebomb.com,https://abodeboutiquehotels.com/,,3.6,198,,14:00,12:00,"Standard Room, Deluxe Room",OpenStreetMap
Hotel Sunny,Mumbai,Maharashtra,"Shop No, 43, Shell Colony Rd, Shramjivi Nagar, Sai Baba Nagar, Chembur, Mumbai",,,,19.0639301,72.8961413,"Free WiFi, Air Conditioning, 24/7 Front Desk",Budget,+912225223549,info@hotelsunn.com,https://www.hotelsunny.com,,3.5,450,,14:00,12:00,"Standard Room, Deluxe Room",OpenStreetMap
Elphinstone Hotel,Mumbai,Maharashtra,,,,,18.948511,72.840617,"Free WiFi, Air Conditioning, 24/7 Front Desk",Budget,+91-6748-222649,info@elphinston.com,https://www.elphinstonehot.com,,4.2,156,,14:00,12:00,"Standard Room, Deluxe Room",OpenStreetMap
Park Inn,Mumbai,Maharashtra,,,,,19.0555671,72.8243892,Internet,Budget,+91-8101-610971,parkinn@gmail.com,https://www.parkinn.com,,3.8,424,,14:00,12:00,"Standard Room, Deluxe Room",OpenStreetMap
Hotel Astro,Mumbai,Maharashtra,,,,,19.140773,72.8201608,"Free WiFi, Air Conditioning, 24/7 Front Desk",Budget,+91-9240-661852,info@hotelastr.com,https://www.hotelastro.com,,3.8,202,,14:00,12:00,"Standard Room, Deluxe Room",OpenStreetMap
Hotel Yashodha Residency,Mumbai,Maharashtra,,,,,19.1412475,72.819798,"Free WiFi, Air Conditioning, 24/7 Front Desk",Budget,+91-6186-658615,info@hotelyash.com,https://www.hotelyashodha.com,,3.5,296,,14:00,12:00,"Standard Room, Deluxe Room",OpenStreetMap
De Classico Hotel,Mumbai,Maharashtra,,,,,19.1410159,72.819989,"Free WiFi, Air Conditioning, 24/7 Front Desk",Budget,+91-9939-491467,info@declassic.com,https://www.declassicohot.com,,3.8,207,,14:00,12:00,"Standard Room, Deluxe Room",OpenStreetMap
Deluxe Comfort,Mumbai,Maharashtra,,,,,19.1373163,72.8231538,"Free WiFi, Air Conditioning, 24/7 Front Desk",Budget,+91-9323-383893,info@deluxecom.com,https://www.deluxecomfort.com,,3.4,68,,14:00,12:00,"Standard Room, Deluxe Room",OpenStreetMap
Rigga Inn,Mumbai,Maharashtra,,,,,19.1369647,72.823227,"Free WiFi, Air Conditioning, 24/7 Front Desk",Budget,+91-8711-195160,info@riggainn.com,https://www.riggainn.com,,4.0,281,,14:00,12:00,"Standard Room, Deluxe Room",OpenStreetMap
Hotel Signature Inn,Mumbai,Maharashtra,,,,,19.1373666,72.8231089,"Free WiFi, Air Conditioning, 24/7 Front Desk",Budget,+91-6997-709646,info@hotelsign.com,https://www.hotelsignature.com,,3.3,288,,14:00,12:00,"Standard Room, Deluxe Room",OpenStreetMap
Art Hotel,Mumbai,Maharashtra,,,,,19.1370297,72.8231836,"Free WiFi, Air Conditioning, 24/7 Front Desk",Budget,+91-7679-482077,info@arthotel.com,https://www.arthotel.com,,3.5,39,,14:00,12:00,"Standard Room, Deluxe Room",OpenStreetMap
Central Government Touring Officers Guest House,Mumbai,Maharashtra,,,,,19.0289955,72.8633023,"Free WiFi, Air Conditioning, 24/7 Front Desk",Budget,+91-8990-991200,info@centralgo.com,https://www.centralgovernm.com,,3.6,238,,14:00,12:00,"Standard Room, Deluxe Room",OpenStreetMap
Landmark Residency,Mumbai,Maharashtra,"Landmark Residency Adarsh Road Liberty Garden Road Opp. S.N.D.T College, Malad West, Mumbai 400064 India",,,,19.1910591,72.841774,"Free WiFi, Air Conditioning, 24/7 Front Desk",Budget,+91-8062-552582,info@landmarkr.com,https://www.tripadvisor.in/Hotel_Review-g304554-d6033440-Reviews-Landmark_Residency-Mumbai_Maharashtra.html,,3.7,187,,14:00,12:00,"Standard Room, Deluxe Room",OpenStreetMap
Blue Bells Residency-Mumbai Airport,Mumbai,Maharashtra,"B-403,suba zircon apartments, near suba international hotel,sahar road chakala andheri east., Mumbai",,,,19.1052359,72.8613339,"Internet, Air Conditioning",Budget,8779477720 / 9920261461,info.bluebellsresidency@gmail.com,https://www.bluebellsresi.com,,4.2,305,,14:00,12:00,"Standard Room, Deluxe Room",OpenStreetMap
Hotel Sunshine Lodging,Mumbai,Maharashtra,,,,,19.1261081,72.8933908,"Free WiFi, Air Conditioning, 24/7 Front Desk",Budget,+91-6673-960824,info@hotelsuns.com,https://www.hotelsunshine.com,,3.9,305,,14:00,12:00,"Standard Room, Deluxe Room",OpenStreetMap
Al Fatah,Mumbai,Maharashtra,,,,,18.9506798,72.8347614,"Free WiFi, Air Conditioning, 24/7 Front Desk",Budget,+91-9265-888083,info@alfatah.com,https://www.alfatah.com,,3.7,79,,14:00,12:00,"Standard Room, Deluxe Room",OpenStreetMap
Hotel Indigo,Mumbai,Maharashtra,,,,,19.1073069,72.8595802,"Free WiFi, Air Conditioning, 24/7 Front Desk",Budget,+91-7651-937524,info@hotelindi.com,https://www.hotelindigo.com,,3.2,30,,14:00,12:00,"Standard Room, Deluxe Room",OpenStreetMap
Sheetal Grill,Mumbai,Maharashtra,,,,,19.2067361,72.9774396,"Free WiFi, Air Conditioning, 24/7 Front Desk",Budget,+91-8886-404117,info@sheetalgr.com,https://www.sheetalgrill.com,,4.0,268,,14:00,12:00,"Standard Room, Deluxe Room",OpenStreetMap
Hotel Regal International,Mumbai,Maharashtra,,,,,19.1012257,72.884606,"Free WiFi, Air Conditioning, 24/7 Front Desk",Budget,+91-6490-323621,info@hotelrega.com,https://www.hotelregalint.com,,3.7,122,,14:00,12:00,"Standard Room, Deluxe Room",OpenStreetMap
Hotel Dwarka,Mumbai,Maharashtra,,,,,19.0849255,72.8872426,"Free WiFi, Air Conditioning, 24/7 Front Desk",Budget,+91-6309-665556,info@hoteldwar.com,https://www.hoteldwarka.com,,4.0,29,,14:00,12:00,"Standard Room, Deluxe Room",OpenStreetMap
Mirages,Mumbai,Maharashtra,,,,,19.1089323,72.876786,"Free WiFi, Air Conditioning, 24/7 Front Desk",Budget,+91-7307-660238,info@mirages.com,https://www.mirages.com,,3.3,365,,14:00,12:00,"Standard Room, Deluxe Room",OpenStreetMap
Hotel home town,Mumbai,Maharashtra,,,,,19.0523856,72.8666168,"Free WiFi, Air Conditioning, 24/7 Front Desk",Budget,+91-7451-528160,info@hotelhome.com,https://www.hotelhometown.com,,3.3,55,,14:00,12:00,"Standard Room, Deluxe Room",OpenStreetMap
Amigo Hotel,Mumbai,Maharashtra,,,,,19.0247267,72.8355588,"Free WiFi, Air Conditioning, 24/7 Front Desk",Budget,+91-6903-164385,info@amigohote.com,https://www.amigohotel.com,,4.0,237,,14:00,12:00,"Standard Room, Deluxe Room",OpenStreetMap
Hotel Heraa,Mumbai,Maharashtra,,,,,18.9392416,72.8383645,"Free WiFi, Air Conditioning, 24/7 Front Desk",Budget,+91-9939-145961,info@hotelhera.com,https://www.hotelheraa.com,,3.9,212,,14:00,12:00,"Standard Room, Deluxe Room",OpenStreetMap
Alfa Executive,Mumbai,Maharashtra,Vp Road,,,,19.1189559,72.8416903,"Free WiFi, Air Conditioning, 24/7 Front Desk, Business Center, Meeting Rooms, Gym",Business,+91-9321445588,info@alfaexecu.com,https://hotelalfaexecutive.com/,,4.2,236,,14:00,12:00,"Standard Room, Deluxe Room, Suite, Executive Room",OpenStreetMap
Hotel Shivraj Dhaba Karad Belapur,Mumbai,Maharashtra,,,,,19.012537,73.0369668,"Free WiFi, Air Conditioning, 24/7 Front Desk",Budget,+91-6909-280380,info@hotelshiv.com,https://www.hotelshivrajd.com,,3.4,376,,14:00,12:00,"Standard Room, Deluxe Room",OpenStreetMap
Hotel Make My Day,Mumbai,Maharashtra,,,,,19.0097914,73.0327089,"Free WiFi, Air Conditioning, 24/7 Front Desk",Budget,+91-8070-227698,info@hotelmake.com,https://www.hotelmakemyd.com,,3.9,81,,14:00,12:00,"Standard Room, Deluxe Room",OpenStreetMap
Hotel Grande 51,Mumbai,Maharashtra,,,,,19.0092197,73.0327818,"Free WiFi, Air Conditioning, 24/7 Front Desk, Spa, Pool, Gym, Restaurant, Room Service",Luxury,+91-8139-481226,info@hotelgran.com,https://www.hotelgrande51.com,,4.6,390,,14:00,12:00,"Standard Room, Deluxe Room, Suite, Executive Room",OpenStreetMap
Sapphire Boutique Hotel,Mumbai,Maharashtra,,,,,19.0100185,73.0329949,"Free WiFi, Air Conditioning, 24/7 Front Desk",Budget,+91-9355-963971,info@sapphireb.com,https://www.sapphireboutiq.com,,3.3,60,,14:00,12:00,"Standard Room, Deluxe Room",OpenStreetMap
K Star Hotel,Mumbai,Maharashtra,,,,,19.0154642,73.0406707,"Free WiFi, Air Conditioning, 24/7 Front Desk",Budget,+91-6465-221019,info@kstarhot.com,https://www.kstarhotel.com,,3.9,339,,14:00,12:00,"Standard Room, Deluxe Room",OpenStreetMap
Mumbai Metro-The Excecutive,Mumbai,Maharashtra,,,,,19.104652,72.8867082,"Free WiFi, Air Conditioning, 24/7 Front Desk",Budget,+91-9513-132583,info@mumbaimet.com,https://www.mumbaimetroth.com,,4.0,457,,14:00,12:00,"Standard Room, Deluxe Room",OpenStreetMap
The Byke Delotel,Mumbai,Maharashtra,,,,,19.2306853,72.8555533,"Free WiFi, Air Conditioning, 24/7 Front Desk",Budget,+91-8738-599889,reservation.borivali@thebyke.com,"http://





www.thebyke.com",,4.0,100,,14:00,12:00,"Standard Room, Deluxe Room",OpenStreetMap
Prakash Inn,Mumbai,Maharashtra,Sakinaka Tele Exchange Lane,,,,19.0988777,72.8812339,"Free WiFi, Air Conditioning, 24/7 Front Desk",Budget,7045970972,info@prakashin.com,https://www.prakashinn.com,,3.8,81,,14:00,12:00,"Standard Room, Deluxe Room",OpenStreetMap
T24 Retro,Mumbai,Maharashtra,Nehru Road,,,,19.0971738,72.8542691,"Free WiFi, Air Conditioning, 24/7 Front Desk",Budget,+91-9611-403845,info@t24retro.com,https://t24retro.in,,3.9,22,,14:00,12:00,"Standard Room, Deluxe Room",OpenStreetMap
Ship Hotel,Mumbai,Maharashtra,,,,,18.9396583,72.8385217,"Free WiFi, Air Conditioning, 24/7 Front Desk",Budget,+91-7955-904114,info@shiphotel.com,https://www.shiphotel.com,,3.8,89,,14:00,12:00,"Standard Room, Deluxe Room",OpenStreetMap
Hotel Metro Palace,Mumbai,Maharashtra,,,,,19.0563315,72.8342536,"Free WiFi, Air Conditioning, 24/7 Front Desk, Spa, Pool, Gym, Restaurant, Room Service",Luxury,+91-8558-570257,info@hotelmetr.com,https://www.hotelmetropal.com,,4.4,401,,14:00,12:00,"Standard Room, Deluxe Room, Suite, Executive Room",OpenStreetMap
"Ginger Mumbai, Andheri East",Mumbai,Maharashtra,Teli Gali,,,,19.1160634,72.8503185,"Free WiFi, Air Conditioning, 24/7 Front Desk",Budget,+91-6665-752361,info@gingermum.com,https://www.gingerhotels.com/ginger-mumbai-andheri-east,,3.5,388,,14:00,12:00,"Standard Room, Deluxe Room",OpenStreetMap
ibis Mumbai Vikhroli,Mumbai,Maharashtra,"17, Lal Bahadur Shastri Marg, Mumbai, Maharashtra",,,,19.1203432,72.9252049,"Free WiFi, Air Conditioning, 24/7 Front Desk",Budget,+91 22 6920 9999,info@ibismumba.com,https://all.accor.com,,3.5,420,,14:00,12:00,"Standard Room, Deluxe Room",OpenStreetMap
Naaz Executive Hotel,Mumbai,Maharashtra,"Rani Arcade, Shamsuddin Nagar, Andheri-Kurla Road, Jarimari, Sakinaka, Mumbai - 400 072",,,,19.0921691,72.8830998,"Free WiFi, Air Conditioning, 24/7 Front Desk, Business Center, Meeting Rooms, Gym",Business,+919069100333,info@naazexecu.com,https://www.naazexecutive.com/,,4.3,222,,14:00,12:00,"Standard Room, Deluxe Room, Suite, Executive Room",OpenStreetMap
Meluha,Mumbai,Maharashtra,,5,,,19.117809,72.9109627,"Free WiFi, Air Conditioning, 24/7 Front Desk",Budget,+91-6832-161672,info@meluha.com,https://www.meluha.com,,3.8,217,,14:00,12:00,"Standard Room, Deluxe Room",OpenStreetMap
Hotel Volga,Mumbai,Maharashtra,,,,,18.9230125,72.831736,"Free WiFi, Air Conditioning, 24/7 Front Desk",Budget,+91-8734-396813,info@hotelvolg.com,https://www.hotelvolga.com,,3.5,198,,14:00,12:00,"Standard Room, Deluxe Room",OpenStreetMap
Bentleys Hotel,Mumbai,Maharashtra,"17, Oliver Street, Mumbai, Colaba",,,,18.9197801,72.8306468,Internet,Budget,+91 97692 83245,bentleyshotel@gmail.com,https://bentleyshotel.com/,,3.7,192,,14:00,12:00,"Standard Room, Deluxe Room",OpenStreetMap
Hotel Kalpana Elite,Mumbai,Maharashtra,,,,,19.0772101,72.8788131,"Free WiFi, Air Conditioning, 24/7 Front Desk",Budget,+91-7954-117183,info@hotelkalp.com,https://www.hotelkalpanae.com,,3.2,172,,14:00,12:00,"Standard Room, Deluxe Room",OpenStreetMap
Sagar Restaurant,Mumbai,Maharashtra,,,,,19.0667221,72.8792666,"Free WiFi, Air Conditioning, 24/7 Front Desk",Budget,+91-6318-115379,info@sagarrest.com,https://www.sagarrestauran.com,,3.8,462,,14:00,12:00,"Standard Room, Deluxe Room",OpenStreetMap
Hotel Broadway Colaba,Mumbai,Maharashtra,,,,,18.9224171,72.8315865,"Free WiFi, Air Conditioning, 24/7 Front Desk",Budget,+91-7824-287497,info@hotelbroa.com,https://www.hotelbroadway.com,,3.7,363,,14:00,12:00,"Standard Room, Deluxe Room",OpenStreetMap
Townhouse Oak Times Square Le Western,Mumbai,Maharashtra,,,,,19.1078771,72.8828176,"Free WiFi, Air Conditioning, 24/7 Front Desk",Budget,+91-9507-532309,info@townhouse.com,https://www.townhouseoakt.com,,3.7,461,,14:00,12:00,"Standard Room, Deluxe Room",OpenStreetMap
Juhu Bliss Inn,Mumbai,Maharashtra,,,,,19.1065178,72.8263207,"Free WiFi, Air Conditioning, 24/7 Front Desk",Budget,+91-6971-694123,info@juhubliss.com,https://www.juhublissinn.com,,3.5,81,,14:00,12:00,"Standard Room, Deluxe Room",OpenStreetMap
Hotel Elite 59,Mumbai,Maharashtra,,,,,19.1128634,72.8771578,"Free WiFi, Air Conditioning, 24/7 Front Desk",Budget,+91-7140-476862,info@hotelelit.com,https://www.hotelelite59.com,,4.0,184,,14:00,12:00,"Standard Room, Deluxe Room",OpenStreetMap
Ginger Andheri MIDC,Mumbai,Maharashtra,Mahakali Caves Road,,,,19.1285143,72.8688705,"Free WiFi, Air Conditioning, 24/7 Front Desk",Budget,+91-8967-835027,info@gingerand.com,https://www.gingerandheri.com,,3.2,242,,14:00,12:00,"Standard Room, Deluxe Room",OpenStreetMap
JW Marriott,Mumbai,Maharashtra,"Juhu Tara Road, Mumbai",,,,19.1018231,72.826037,"Free WiFi, Air Conditioning, 24/7 Front Desk",Budget,+91 22 6693 3000,info@jwmarriot.com,https://www.jwmarriott.com,,3.3,403,,14:00,12:00,"Standard Room, Deluxe Room",OpenStreetMap
Taj Mahal Palace,Mumbai,Maharashtra,"Prem J. Ramchandani Road, Mumbai, Mumbai",,,,18.921902,72.8330507,"Internet, Air Conditioning",Luxury,022 6665 3366,info@tajmahal.com,https://www.tajhotels.com/en-in/hotels/taj-mahal-palace-mumbai?utm_medium=Local&utm_source=Google&utm_campaign=The-Taj-Mahal-Palace-Mumbai,,4.3,123,,14:00,12:00,"Standard Room, Deluxe Room, Suite, Executive Room",OpenStreetMap
Regency Hotel,Mumbai,Maharashtra,,,,,18.9540192,72.7980855,"Free WiFi, Air Conditioning, 24/7 Front Desk",Budget,+91-7871-763774,info@regencyho.com,https://www.regencyhotel.com,,3.5,166,,14:00,12:00,"Standard Room, Deluxe Room",OpenStreetMap
Hotel Shalimar,Mumbai,Maharashtra,,,,,18.9640557,72.8060273,"Free WiFi, Air Conditioning, 24/7 Front Desk",Budget,+91-9149-543647,info@hotelshal.com,https://www.hotelshalimar.com,,3.4,52,,14:00,12:00,"Standard Room, Deluxe Room",OpenStreetMap
Hotel Sea Princess,Mumbai,Maharashtra,,,,,19.0931831,72.8278496,"Free WiFi, Air Conditioning, 24/7 Front Desk",Budget,+91-7293-356405,info@hotelsea.com,https://www.hotelseaprinc.com,,3.3,203,,14:00,12:00,"Standard Room, Deluxe Room",OpenStreetMap
Taj President,Mumbai,Maharashtra,Mumbai,,,,18.9144551,72.8207381,"Free WiFi, Air Conditioning, 24/7 Front Desk, Spa, Pool, Gym, Restaurant, Room Service",Luxury,+91-6699-987937,info@tajpresid.com,https://www.tajpresident.com,,4.3,366,,14:00,12:00,"Standard Room, Deluxe Room, Suite, Executive Room",OpenStreetMap
Hotel Marine Plaza,Mumbai,Maharashtra,,,,,18.9311659,72.8230972,"Free WiFi, Air Conditioning, 24/7 Front Desk",Budget,+91-9840-446052,info@hotelmari.com,https://www.hotelmarineplaza.com/,,3.9,424,,14:00,12:00,"Standard Room, Deluxe Room",OpenStreetMap
Hotel Prosser's,Mumbai,Maharashtra,,,,,18.9202644,72.8324837,"Free WiFi, Air Conditioning, 24/7 Front Desk",Budget,+91-8185-160074,info@hotelpros.com,https://www.hotelprossers.com,,3.2,419,,14:00,12:00,"Standard Room, Deluxe Room",OpenStreetMap
Hotel Harbour View,Mumbai,Maharashtra,Mumbai,,,,18.9187992,72.8318466,"Free WiFi, Air Conditioning, 24/7 Front Desk",Budget,+91-8748-992057,info@hotelharb.com,https://www.hotelharbourv.com,,3.9,356,,14:00,12:00,"Standard Room, Deluxe Room",OpenStreetMap
Sea Palace Hotel,Mumbai,Maharashtra,,,,,18.9190469,72.8319896,"Free WiFi, Air Conditioning, 24/7 Front Desk, Spa, Pool, Gym, Restaurant, Room Service",Luxury,+91-6757-134456,info@seapalace.com,https://www.seapalacehote.com,,4.0,392,,14:00,12:00,"Standard Room, Deluxe Room, Suite, Executive Room",OpenStreetMap
Hotel Oliver,Mumbai,Maharashtra,,,,,18.9202918,72.8308686,"Free WiFi, Air Conditioning, 24/7 Front Desk",Budget,+91-8202-343713,info@hoteloliv.com,https://www.hoteloliver.com,,3.4,243,,14:00,12:00,"Standard Room, Deluxe Room",OpenStreetMap
Hotel Godwin,Mumbai,Maharashtra,,,,,18.9189927,72.8305236,"Free WiFi, Air Conditioning, 24/7 Front Desk",Budget,+91-8838-680478,info@hotelgodw.com,https://www.hotelgodwin.com,,3.3,95,,14:00,12:00,"Standard Room, Deluxe Room",OpenStreetMap
Hotel Ascot,Mumbai,Maharashtra,,,,,18.9191505,72.8298923,"Free WiFi, Air Conditioning, 24/7 Front Desk",Budget,+91-7969-747145,info@hotelasco.com,https://www.hotelascot.com,,4.0,381,,14:00,12:00,"Standard Room, Deluxe Room",OpenStreetMap
Gordon House Hotel,Mumbai,Maharashtra,"5, Battery Street, Mumbai",,,,18.9238997,72.8328492,"Free WiFi, Air Conditioning, 24/7 Front Desk",Budget,+91-22-6124-5800,info@gordonhou.com,https://ghhotel.com/,,3.7,184,,14:00,12:00,"Standard Room, Deluxe Room",OpenStreetMap
Hotel Suba Palace,Mumbai,Maharashtra,,,,,18.9240096,72.8329689,"Free WiFi, Air Conditioning, 24/7 Front Desk, Spa, Pool, Gym, Restaurant, Room Service",Luxury,+91-8177-279877,info@hotelsuba.com,https://www.hotelsubapala.com,,4.3,28,,14:00,12:00,"Standard Room, Deluxe Room, Suite, Executive Room",OpenStreetMap
Apollo Hotel,Mumbai,Maharashtra,,,,,18.923998,72.8325278,"Free WiFi, Air Conditioning, 24/7 Front Desk",Budget,+91-8625-712319,info@apollohot.com,https://www.apollohotel.com,,4.0,276,,14:00,12:00,"Standard Room, Deluxe Room",OpenStreetMap
Sahara Star,Mumbai,Maharashtra,,,,,19.0956289,72.8539896,"Free WiFi, Air Conditioning, 24/7 Front Desk",Budget,+91-8722-629390,info@saharasta.com,https://www.saharastar.com,,3.9,468,,14:00,12:00,"Standard Room, Deluxe Room",OpenStreetMap
ITC Grand Maratha,Mumbai,Maharashtra,,,,,19.1039305,72.8697754,"Free WiFi, Air Conditioning, 24/7 Front Desk, Spa, Pool, Gym, Restaurant, Room Service",Luxury,+91-9516-576335,info@itcgrand.com,https://www.itcgrandmarat.com,,4.4,410,,14:00,12:00,"Standard Room, Deluxe Room, Suite, Executive Room",OpenStreetMap
Hilton Mumbai International Airport,Mumbai,Maharashtra,"Sahar Elevated Road, Mumbai",5,,,19.1043735,72.8709317,"Free WiFi, Air Conditioning, 24/7 Front Desk",Budget,+91 22 2838 0000,reservations.mumbai@hilton.com,https://www.hilton.com/en/hotels/bomaphi-hilton-mumbai-international-airport/?WT.mc_id=zELWAKN0APAC1HI2DMH3LocalSearch4DGGenericx6BOMAPHI,,3.3,254,,14:00,12:00,"Standard Room, Deluxe Room",OpenStreetMap
West End Hotel,Mumbai,Maharashtra,"45, Mumbai",,,,18.9405653,72.8274895,"Free WiFi, Air Conditioning, 24/7 Front Desk",Budget,+91 22 2203 9121,westhotel@hathway.com,https://www.westendhotel.com,,3.3,227,,14:00,12:00,"Standard Room, Deluxe Room",OpenStreetMap
ITC Grand Central,Mumbai,Maharashtra,,,,,18.9982254,72.8382792,"Free WiFi, Air Conditioning, 24/7 Front Desk, Spa, Pool, Gym, Restaurant, Room Service",Luxury,+91-6000-985907,info@itcgrand.com,https://www.itcgrandcentr.com,,4.6,285,,14:00,12:00,"Standard Room, Deluxe Room, Suite, Executive Room",OpenStreetMap
Grand Hotel,Mumbai,Maharashtra,,,,,18.9361901,72.8408238,"Free WiFi, Air Conditioning, 24/7 Front Desk, Spa, Pool, Gym, Restaurant, Room Service",Luxury,+91-6571-300895,info@grandhote.com,https://www.grandhotel.com,,4.7,195,,14:00,12:00,"Standard Room, Deluxe Room, Suite, Executive Room",OpenStreetMap
Taj Wellington Mews,Mumbai,Maharashtra,"Nathalal M. Parikh Road (Wodehouse Road), Mumbai",,,,18.9217923,72.8286078,Air Conditioning,Luxury,+91-8839-398821,info@tajwellin.com,https://www.tajwellington.com,,4.4,35,,14:00,12:00,"Standard Room, Deluxe Room, Suite, Executive Room",OpenStreetMap
"InterContinental Marine Drive, Mumbai",Mumbai,Maharashtra,Mumbai,,,,18.9349915,72.8243065,"Free WiFi, Air Conditioning, 24/7 Front Desk",Budget,+91-7960-629008,info@interconti.com,https://www.intercontinenta.com,,3.9,148,,14:00,12:00,"Standard Room, Deluxe Room",OpenStreetMap
YMCA-Young Men Christian Association,Mumbai,Maharashtra,"12, Nathalal Parikh Marg, Scindia Society, Police Colony, Apollo Bandar, Colaba, Mumbai, Mumbai City",,,,18.9243012,72.8309143,"Free WiFi, Air Conditioning, 24/7 Front Desk",Budget,+91-9891-598942,info@ymcayoung.com,https://www.ymcayoungmen.com,,3.9,167,,14:00,12:00,"Standard Room, Deluxe Room",OpenStreetMap
Taj Lands End,Mumbai,Maharashtra,"Byramji Jeejeebhoy Road, Mumbai",5,,,19.0435761,72.8196888,"Free WiFi, Air Conditioning, 24/7 Front Desk, Spa, Pool, Gym, Restaurant, Room Service",Luxury,+91-22-66681234,reservations.mumbai@ihcltata.com,https://www.tajhotels.com/en-in/hotels/taj-lands-end-mumbai,,4.3,474,,14:00,12:00,"Standard Room, Deluxe Room, Suite, Executive Room",OpenStreetMap
Grand Sarowar Premiere,Mumbai,Maharashtra,,,,,19.1733307,72.8457749,"Free WiFi, Air Conditioning, 24/7 Front Desk, Spa, Pool, Gym, Restaurant, Room Service",Luxury,+91-9525-487527,info@grandsaro.com,https://www.grandsarowarp.com,,4.2,80,,14:00,12:00,"Standard Room, Deluxe Room, Suite, Executive Room",OpenStreetMap
Hotel City Point,Mumbai,Maharashtra,"807, Tilak Road, Mumbai",,,,19.0170072,72.8480067,"Free WiFi, Air Conditioning, 24/7 Front Desk",Budget,+91-8045-987340,info@hotelcity.com,https://www.hotelcitypoin.com,,3.6,341,,14:00,12:00,"Standard Room, Deluxe Room",OpenStreetMap
Imperial Grand Palace,Mumbai,Maharashtra,,,,,19.1509951,72.8922424,"Free WiFi, Air Conditioning, 24/7 Front Desk, Spa, Pool, Gym, Restaurant, Room Service",Luxury,+91-6053-797263,info@imperialg.com,https://www.imperialgrand.com,,4.3,64,,14:00,12:00,"Standard Room, Deluxe Room, Suite, Executive Room",OpenStreetMap
Sarovar Portico,Mumbai,Maharashtra,,,,,19.1145634,73.0173599,"Free WiFi, Air Conditioning, 24/7 Front Desk",Budget,+91-9943-552393,info@sarovarpo.com,https://www.sarovarportico.com,,4.1,37,,14:00,12:00,"Standard Room, Deluxe Room",OpenStreetMap
Hotel Astoria,Mumbai,Maharashtra,,,,,18.9323066,72.827083,"Free WiFi, Air Conditioning, 24/7 Front Desk",Budget,+91-7795-299190,info@hotelasto.com,https://www.hotelastoria.com,,3.3,348,,14:00,12:00,"Standard Room, Deluxe Room",OpenStreetMap
Domino's,Mumbai,Maharashtra,,,,,19.2058512,72.9769845,"Free WiFi, Air Conditioning, 24/7 Front Desk",Budget,+91-7611-554479,info@dominos.com,https://www.dominos.com,,4.1,50,,14:00,12:00,"Standard Room, Deluxe Room",OpenStreetMap
Bawa International,Mumbai,Maharashtra,,,,,19.096569,72.8538837,"Free WiFi, Air Conditioning, 24/7 Front Desk",Budget,+91-6969-683197,info@bawainter.com,https://www.bawainternatio.com,,3.6,206,,14:00,12:00,"Standard Room, Deluxe Room",OpenStreetMap
Ibis,Mumbai,Maharashtra,,,,,19.0966957,72.8536132,"Free WiFi, Air Conditioning, 24/7 Front Desk",Budget,+91-8936-550559,info@ibis.com,https://www.ibis.com,,3.7,325,,14:00,12:00,"Standard Room, Deluxe Room",OpenStreetMap
Hotel Transit,Mumbai,Maharashtra,Nehru Road Ext,,,,19.0973754,72.8548909,Internet,Budget,+91-7266-502332,info@hoteltran.com,https://www.hoteltransit.com,,3.3,284,,14:00,12:00,"Standard Room, Deluxe Room",OpenStreetMap
The Retreat,Mumbai,Maharashtra,"Erangal Beach, Madh Island, Marve Road, Malad East,",,,,19.154012,72.7877553,"Free WiFi, Air Conditioning, 24/7 Front Desk, Pool, Restaurant, Gym, Spa",Resort,+91-7192-106002,info@theretrea.com,https://www.theretreat.com,,3.6,417,,14:00,12:00,"Standard Room, Deluxe Room",OpenStreetMap
The Westin Mumbai Powai Lake,Mumbai,Maharashtra,"#2&3B, Saki Vihar Road, Mumbai, Mumbai",5,,,19.134479,72.9012523,Internet,Budget,+912266927777,info@thewestin.com,https://www.marriott.com/en-us/hotels/bomww-the-westin-mumbai-powai-lake/overview/,,3.8,232,,14:00,12:00,"Standard Room, Deluxe Room",OpenStreetMap
Sukh Hotel,Mumbai,Maharashtra,,,,,19.1069269,72.8260941,"Free WiFi, Air Conditioning, 24/7 Front Desk",Budget,+91-6439-315404,info@sukhhotel.com,https://www.sukhhotel.com,,3.4,299,,14:00,12:00,"Standard Room, Deluxe Room",OpenStreetMap
Hotel Bawa Continental,Mumbai,Maharashtra,,,,,19.1006361,72.8276014,"Free WiFi, Air Conditioning, 24/7 Front Desk",Budget,+91-7962-272152,info@hotelbawa.com,https://www.hotelbawacont.com,,4.0,299,,14:00,12:00,"Standard Room, Deluxe Room",OpenStreetMap
Hotel Juhu Plaza,Mumbai,Maharashtra,,,,,19.1095129,72.8246562,"Free WiFi, Air Conditioning, 24/7 Front Desk",Budget,+91-6934-734638,info@hoteljuhu.com,https://www.hoteljuhuplaz.com,,3.3,227,,14:00,12:00,"Standard Room, Deluxe Room",OpenStreetMap
Sun-n-Sand,Mumbai,Maharashtra,,,,,19.109493,72.8241002,"Free WiFi, Air Conditioning, 24/7 Front Desk",Budget,+91-7767-900964,info@sunnsand.com,https://www.sunnsandhotel.com/mumbai.html,,3.7,152,,14:00,12:00,"Standard Room, Deluxe Room",OpenStreetMap
al-farook hotel,Mumbai,Maharashtra,,,,,19.0388658,72.9465409,"Free WiFi, Air Conditioning, 24/7 Front Desk",Budget,+91-7231-514557,info@alfarook.com,https://www.alfarookhotel.com,,3.7,93,,14:00,12:00,"Standard Room, Deluxe Room",OpenStreetMap
Hotel Bahri Residency,Mumbai,Maharashtra,"Plot No 1, V N Purav Marg, Mumbai",,,,19.0516971,72.9010606,"Free WiFi, Air Conditioning, 24/7 Front Desk",Budget,"+91 22 25200013, +91 22 25203782",munish.bahri@gmail.com,http://www.bahriresidency.com/Default.asp,,3.9,191,,14:00,12:00,"Standard Room, Deluxe Room",OpenStreetMap
dosti hotel,Mumbai,Maharashtra,Mumbai,,,,19.038676,72.9495571,"Free WiFi, Air Conditioning, 24/7 Front Desk",Budget,+91-9428-463988,info@dostihote.com,https://www.dostihotel.com,,3.4,375,,14:00,12:00,"Standard Room, Deluxe Room",OpenStreetMap
Vihang's Inn,Mumbai,Maharashtra,,,,,19.2231962,72.9779527,Air Conditioning,Budget,+91-8065-357279,info@vihangsi.com,https://vihangsinn.co.in/,,3.4,148,,14:00,12:00,"Standard Room, Deluxe Room",OpenStreetMap
"Lakeside Chalet, Mumbai - Marriott Executive Apartments",Mumbai,Maharashtra,"#2&3B, Saki Vihar Road, Mumbai, Mumbai",,,,19.1328522,72.8996992,Internet,Business,+912266928888,info@lakesidec.com,https://www.marriott.com/en-us/hotels/bomer-lakeside-chalet-mumbai-marriott-executive-apartments/overview/,,4.4,494,,14:00,12:00,"Standard Room, Deluxe Room, Suite, Executive Room",OpenStreetMap
Silvedor Boutique Hotel,Mumbai,Maharashtra,,,,,19.2268637,72.9767103,"Free WiFi, Air Conditioning, 24/7 Front Desk",Budget,+91-7689-784869,info@silvedorb.com,https://www.silvedorboutiq.com,,4.1,376,,14:00,12:00,"Standard Room, Deluxe Room",OpenStreetMap
Hotel Oriental Aster,Mumbai,Maharashtra,"45, 45, Tarun Bharat Co Op Society, Mumbai",,,,19.107974,72.8616013,"Free WiFi, Air Conditioning, 24/7 Front Desk",Budget,+91-8977-571155,info@hotelorie.com,https://www.hoteloriental.com,,3.3,357,,14:00,12:00,"Standard Room, Deluxe Room",OpenStreetMap
The Sahil Hotel,Mumbai,Maharashtra,"292, Bellasis Road, mumbai",3,,,18.9687453,72.8236491,Internet,Budget,+91-8630-478566,info@thesahil.com,https://www.thesahilhotel.com,,4.2,81,,14:00,12:00,"Standard Room, Deluxe Room",OpenStreetMap
Hyatt Centric,Mumbai,Maharashtra,,,,,19.0916948,72.8280549,"Free WiFi, Air Conditioning, 24/7 Front Desk",Budget,+91-9868-765945,info@hyattcent.com,https://www.hyatt.com/hyatt-centric/mumct-hyatt-centric-juhu-mumbai,,4.1,189,,14:00,12:00,"Standard Room, Deluxe Room",OpenStreetMap
FabHotel RK International,Mumbai,Maharashtra,,,,,19.0855585,72.8843164,"Free WiFi, Air Conditioning, 24/7 Front Desk",Budget,+91-8354-880454,info@fabhotelr.com,https://www.fabhotelrkint.com,,4.0,118,,14:00,12:00,"Standard Room, Deluxe Room",OpenStreetMap
Hotel Supreme,Mumbai,Maharashtra,"Panday Road, Mumbai",,,,18.9139837,72.8222214,"Free WiFi, Air Conditioning, 24/7 Front Desk",Budget,+91-9021-884202,info@hotelsupr.com,https://www.hotelsupreme.com,,3.9,82,,14:00,12:00,"Standard Room, Deluxe Room",OpenStreetMap
Hotel Kishan Aga Beg's,Mumbai,Maharashtra,"Walton Rd, Apollo Bandar, Colaba, Mumbai, Mumbai City",,,,18.919877,72.8310325,"Free WiFi, Air Conditioning, 24/7 Front Desk",Budget,+91-7439-530194,info@hotelkish.com,https://www.hotelkishanag.com,,3.9,131,,14:00,12:00,"Standard Room, Deluxe Room",OpenStreetMap
Country Inn Hotel & Suites,Mumbai,Maharashtra,,,,,19.1139911,73.0126645,"Free WiFi, Air Conditioning, 24/7 Front Desk",Budget,+91-6138-659554,info@countryin.com,https://www.countryinnhot.com,,3.5,476,,14:00,12:00,"Standard Room, Deluxe Room",OpenStreetMap
Kohinoor Building,Mumbai,Maharashtra,,,,,19.016891,72.8293393,"Free WiFi, Air Conditioning, 24/7 Front Desk",Budget,+91-9072-257043,info@kohinoorb.com,https://www.kohinoorhotels.com/kohinoor_prabhadevi,,3.6,26,,14:00,12:00,"Standard Room, Deluxe Room",OpenStreetMap
The Regenza by Tunga,Mumbai,Maharashtra,,,,,19.0671446,72.9991979,"Free WiFi, Air Conditioning, 24/7 Front Desk",Budget,+91-8412-699587,info@theregenz.com,https://www.theregenzaby.com,,4.2,203,,14:00,12:00,"Standard Room, Deluxe Room",OpenStreetMap
Hotel Jewel Palace,Mumbai,Maharashtra,,,,,19.0697478,72.8381658,"Free WiFi, Air Conditioning, 24/7 Front Desk, Spa, Pool, Gym, Restaurant, Room Service",Luxury,+91-7616-741948,info@hoteljewe.com,https://www.hoteljewelpal.com,,4.6,59,,14:00,12:00,"Standard Room, Deluxe Room, Suite, Executive Room",OpenStreetMap
Kohinoor Continental,Mumbai,Maharashtra,,,,,19.1123953,72.8680665,"Free WiFi, Air Conditioning, 24/7 Front Desk",Budget,+91-7377-581218,info@kohinoorc.com,https://www.kohinoorcontin.com,,3.7,175,,14:00,12:00,"Standard Room, Deluxe Room",OpenStreetMap
Hotel Bawa Suites,Mumbai,Maharashtra,,,,,19.0691727,72.8334104,"Free WiFi, Air Conditioning, 24/7 Front Desk",Budget,+91-9807-792968,info@hotelbawa.com,https://www.hotelbawasuit.com,,3.7,460,,14:00,12:00,"Standard Room, Deluxe Room",OpenStreetMap
Bloom Boutique,Mumbai,Maharashtra,,,,,19.0668306,72.8302277,"Free WiFi, Air Conditioning, 24/7 Front Desk",Budget,+91-7077-512838,info@bloombout.com,https://www.bloomboutique.com,,3.5,195,,14:00,12:00,"Standard Room, Deluxe Room",OpenStreetMap
Hotel T-Junction,Mumbai,Maharashtra,,,,,19.0472116,72.8526217,"Free WiFi, Air Conditioning, 24/7 Front Desk",Budget,+91-9341-903358,info@hoteltju.com,https://www.hoteltjunctio.com,,3.6,94,,14:00,12:00,"Standard Room, Deluxe Room",OpenStreetMap
Ramee Guestline Hotel Khar,Mumbai,Maharashtra,,,,,19.0680106,72.8375643,"Free WiFi, Air Conditioning, 24/7 Front Desk",Budget,+91-9803-846334,info@rameegues.com,https://www.rameeguestline.com,,3.3,411,,14:00,12:00,"Standard Room, Deluxe Room",OpenStreetMap
Hyatt Regency,Mumbai,Maharashtra,,,,,19.1037348,72.871281,"Free WiFi, Air Conditioning, 24/7 Front Desk",Budget,+91-6641-523413,info@hyattrege.com,https://www.hyattregency.com,,3.5,137,,14:00,12:00,"Standard Room, Deluxe Room",OpenStreetMap
Juhu Residency Boutique Hotel,Mumbai,Maharashtra,,,,,19.1011649,72.8274295,"Free WiFi, Air Conditioning, 24/7 Front Desk",Budget,+91-9781-289747,info@juhuresid.com,https://www.juhuresidency.com,,4.0,341,,14:00,12:00,"Standard Room, Deluxe Room",OpenStreetMap
Four Seasons Hotel,Mumbai,Maharashtra,"1/136, Dr E Moses Road, Mumbai",,,,18.994204,72.8203935,"Free WiFi, Air Conditioning, 24/7 Front Desk",Budget,+91-8557-700781,info@fourseaso.com,https://www.fourseasons.com/mumbai,,3.3,153,,14:00,12:00,"Standard Room, Deluxe Room",OpenStreetMap
Sofitel,Mumbai,Maharashtra,"C57, Bandra Kurla Complex, Bandra East, Mumbai",,,,19.0676525,72.8688314,Internet,Budget,+91 (22) 6117 5000,H6451@sofitel.com,https://www.sofitel-mumbai-bkc.com/,,4.1,353,,14:00,12:00,"Standard Room, Deluxe Room",OpenStreetMap
Trident Hotel,Mumbai,Maharashtra,"C 56 , G Block, Bandra Kurla Complex Road, Mumbai",,,,19.0666901,72.8679188,"Free WiFi, Air Conditioning, 24/7 Front Desk",Budget,+91-9860-997430,info@tridentho.com,https://www.tridenthotel.com,,3.9,90,,14:00,12:00,"Standard Room, Deluxe Room",OpenStreetMap
Hotel Lucky,Mumbai,Maharashtra,,,,,19.0538941,72.8376457,"Free WiFi, Air Conditioning, 24/7 Front Desk",Budget,+91-6625-724670,info@hotelluck.com,https://www.hotellucky.com,,3.8,248,,14:00,12:00,"Standard Room, Deluxe Room",OpenStreetMap
Grand Hyatt Mumbai,Mumbai,Maharashtra,,5,,,19.0774902,72.8513879,"Free WiFi, Air Conditioning, 24/7 Front Desk, Spa, Pool, Gym, Restaurant, Room Service",Luxury,+91-9891-991726,info@grandhyat.com,https://www.grandhyattmum.com,,4.5,498,,14:00,12:00,"Standard Room, Deluxe Room, Suite, Executive Room",OpenStreetMap
Taj Santacruz Mumbai,Mumbai,Maharashtra,Mumbai,5,,,19.0926852,72.8543788,"Free WiFi, Air Conditioning, 24/7 Front Desk, Spa, Pool, Gym, Restaurant, Room Service",Luxury,+91-7440-598645,info@tajsantac.com,https://taj.tajhotels.com/en-in/taj-santacruz-mumbai/,,4.1,363,,14:00,12:00,"Standard Room, Deluxe Room, Suite, Executive Room",OpenStreetMap
The St. Regis Mumbai,Mumbai,Maharashtra,"462, Senapati Bapat Marg, Mumbai",,,,18.9941376,72.8240431,"Free WiFi, Air Conditioning, 24/7 Front Desk",Budget,+91-7738-890875,info@thestre.com,https://www.thestregism.com,,3.3,242,,14:00,12:00,"Standard Room, Deluxe Room",OpenStreetMap
The Oberoi,Mumbai,Maharashtra,,5,,,18.9270024,72.8206042,Air Conditioning,Luxury,+91 22 6632 5757,info@theoberoi.com,https://www.theoberoi.com,,4.3,426,,14:00,12:00,"Standard Room, Deluxe Room, Suite, Executive Room",OpenStreetMap
"Trident, Nariman-Point",Mumbai,Maharashtra,,5,,,18.9276399,72.8210332,Air Conditioning,Budget,+91 22 6632 4343,info@tridentn.com,https://www.tridentnarima.com,,3.4,225,,14:00,12:00,"Standard Room, Deluxe Room",OpenStreetMap
Ramada Plaza Palm Grove,Mumbai,Maharashtra,,,,,19.0985808,72.8268319,"Free WiFi, Air Conditioning, 24/7 Front Desk",Budget,+91-6441-252925,info@ramadapla.com,https://www.ramadaplazapa.com,,4.0,455,,14:00,12:00,"Standard Room, Deluxe Room",OpenStreetMap
Satkar Residency,Mumbai,Maharashtra,,,,,19.2060291,72.9656641,"Free WiFi, Air Conditioning, 24/7 Front Desk",Budget,+91-6952-612400,info@satkarres.com,https://www.satkarresidenc.com,,3.7,414,,14:00,12:00,"Standard Room, Deluxe Room",OpenStreetMap
Four Points by Sheraton Navi Mumbai,Mumbai,Maharashtra,Navi Mumbai,4,,,19.0662936,72.9996924,"Free WiFi, Air Conditioning, 24/7 Front Desk",Budget,+91-6115-995992,info@fourpoint.com,https://www.fourpointsby.com,,3.7,181,,14:00,12:00,"Standard Room, Deluxe Room",OpenStreetMap
Tunga,Mumbai,Maharashtra,,4,,,19.0671676,72.9991991,"Free WiFi, Air Conditioning, 24/7 Front Desk",Budget,+91-6130-881234,info@tunga.com,https://www.tunga.com,,3.9,335,,14:00,12:00,"Standard Room, Deluxe Room",OpenStreetMap
"Courtyard, Dy patil",Mumbai,Maharashtra,,,,,19.0433503,73.0269645,"Free WiFi, Air Conditioning, 24/7 Front Desk",Budget,+91-6101-672141,info@courtyard.com,https://www.courtyarddyp.com,,4.2,421,,14:00,12:00,"Standard Room, Deluxe Room",OpenStreetMap
Janata Tawa Grill,Mumbai,Maharashtra,,,,,19.0761643,72.877838,"Free WiFi, Air Conditioning, 24/7 Front Desk",Budget,+91-8860-673843,info@janatataw.com,https://www.janatatawagri.com,,4.0,353,,14:00,12:00,"Standard Room, Deluxe Room",OpenStreetMap
The Emerald Hotel And Serviced Apartments,Mumbai,Maharashtra,,,,,19.0931749,72.8286869,"Free WiFi, Air Conditioning, 24/7 Front Desk",Budget,+91-9472-575108,info@theemeral.com,https://www.theemeraldhot.com,,4.1,382,,14:00,12:00,"Standard Room, Deluxe Room",OpenStreetMap
The Taj,Mumbai,Maharashtra,"Eastern Express Highway Vikhroli, Mumbai",,,,19.0928533,72.9217172,"Free WiFi, Air Conditioning, 24/7 Front Desk, Spa, Pool, Gym, Restaurant, Room Service",Luxury,+91-6900-699017,info@thetaj.com,https://www.thetaj.com,,4.6,230,,14:00,12:00,"Standard Room, Deluxe Room, Suite, Executive Room",OpenStreetMap
Juhu Hotel,Mumbai,Maharashtra,,,,,19.1033393,72.8253706,"Free WiFi, Air Conditioning, 24/7 Front Desk",Budget,+91-7718-237693,info@juhuhotel.com,https://www.juhuhotel.com,,3.7,211,,14:00,12:00,"Standard Room, Deluxe Room",OpenStreetMap
Hotel Beach Garden,Mumbai,Maharashtra,"R-69, Juhu Tara Road, Mumbai",,,,19.0980007,72.8274067,Internet,Budget,+91-9645-569721,info@hotelbeac.com,https://www.hotelbeachgar.com,,3.4,468,,14:00,12:00,"Standard Room, Deluxe Room",OpenStreetMap
Radisson Blu Mumbai International Airport,Mumbai,Maharashtra,"Marol Maroshi Road, Mumbai",,,,19.1101739,72.8789651,Air Conditioning,Budget,+91-22-6634-1234,info@radissonb.com,https://www.radissonhotels.com/en-us/hotels/radisson-blu-mumbai-airport,,4.1,419,,14:00,12:00,"Standard Room, Deluxe Room",OpenStreetMap
Lemon Tree Premier Mumbai International Airport,Mumbai,Maharashtra,,,,,19.108247,72.8822827,"Free WiFi, Air Conditioning, 24/7 Front Desk",Budget,+91-9178-126330,info@lemontree.com,https://www.lemontreeprem.com,,3.5,349,,14:00,12:00,"Standard Room, Deluxe Room",OpenStreetMap
Hotel Amber Paramount,Mumbai,Maharashtra,,,,,19.1364248,72.8202795,"Free WiFi, Air Conditioning, 24/7 Front Desk",Budget,+91-6219-104251,info@hotelambe.com,https://www.hotelamberpar.com,,3.5,286,,14:00,12:00,"Standard Room, Deluxe Room",OpenStreetMap
"Aurika By Lemon Tree Hotels, Mumbai",Mumbai,Maharashtra,,,,,19.1033263,72.8631081,"Free WiFi, Air Conditioning, 24/7 Front Desk",Budget,+91-6597-670432,info@aurikaby.com,https://www.aurikabylemon.com,,4.1,211,,14:00,12:00,"Standard Room, Deluxe Room",OpenStreetMap
Hotel Beach Crown,Mumbai,Maharashtra,,,,,19.103279,72.8270952,"Free WiFi, Air Conditioning, 24/7 Front Desk",Budget,+91-7628-527715,info@hotelbeac.com,https://www.hotelbeachcro.com,,4.1,83,,14:00,12:00,"Standard Room, Deluxe Room",OpenStreetMap
Hotel Rangsharda,Mumbai,Maharashtra,,,,,19.051195,72.8322599,"Free WiFi, Air Conditioning, 24/7 Front Desk",Budget,+91 22 6852 1919,info@hotelrang.com,https://www.hotelrangshard.com,,3.5,451,,14:00,12:00,"Standard Room, Deluxe Room",OpenStreetMap
Novotel,Mumbai,Maharashtra,,,,,19.1103174,72.8753684,"Free WiFi, Air Conditioning, 24/7 Front Desk",Budget,+91-8146-122003,info@novotel.com,https://www.novotel.com,,3.9,292,,14:00,12:00,"Standard Room, Deluxe Room",OpenStreetMap
Hotel Avon Ruby,Mumbai,Maharashtra,,,,,19.0152652,72.8445541,Internet,Budget,+91-7968-855485,info@hotelavon.com,https://www.hotelavonruby.com,,3.3,51,,14:00,12:00,"Standard Room, Deluxe Room",OpenStreetMap
Hotel Happy Home,Mumbai,Maharashtra,"66, Wodehouse Rd, Colaba, Mumbai",,,,18.9149743,72.8236457,"Free WiFi, Air Conditioning, 24/7 Front Desk",Budget,+91-8324-689993,info@hotelhapp.com,https://www.hotelhappyhom.com,,3.8,266,,14:00,12:00,"Standard Room, Deluxe Room",OpenStreetMap
