{
  "pois_1km": {
    "version": 0.6,
    "generator": "Overpass API 0.7.62.8 e802775f",
    "osm3s": {
      "timestamp_osm_base": "2025-09-06T09:48:45Z",
      "copyright": "The data included in this document is from www.openstreetmap.org. The data is made available under ODbL."
    },
    "elements": [
      {
        "type": "node",
        "id": 1474873166,
        "lat": 22.5873397,
        "lon": 88.4077676,
        "tags": {
          "amenity": "bank",
          "atm": "yes",
          "brand": "Standard Chartered",
          "brand:wikidata": "Q548278",
          "name": "Standard Chartered"
        }
      },
      {
        "type": "node",
        "id": 2148922355,
        "lat": 22.5882088,
        "lon": 88.4084341,
        "tags": {
          "name": "City Centre 1, Salt Lake",
          "shop": "mall"
        }
      },
      {
        "type": "node",
        "id": 2337482140,
        "lat": 22.589153,
        "lon": 88.4087743,
        "tags": {
          "amenity": "atm",
          "brand": "Deutsche Bank",
          "brand:wikidata": "Q66048",
          "ele": "11",
          "name": "Deutsche Bank ATM",
          "operator": "Deutsche Bank",
          "operator:wikidata": "Q66048"
        }
      },
      {
        "type": "node",
        "id": 2337720889,
        "lat": 22.5877964,
        "lon": 88.4087305,
        "tags": {
          "ele": "4",
          "name": "C3",
          "shop": "supermarket"
        }
      },
      {
        "type": "node",
        "id": 2460827384,
        "lat": 22.5896424,
        "lon": 88.4089267,
        "tags": {
          "addr:district": "Kolkata",
          "addr:full": "Andromeda, Dd-30, Sector-1, Saltlake City, Salt Lake",
          "addr:housename": "DD-30, Sector-1, Salt Lake City, Kolkata, West Bengal2nd Cross Road, DD Block, Salt Lake City, Bidhan Nagar, West Bengal 700064",
          "addr:postcode": "700064",
          "addr:state": "West Bengal",
          "amenity": "hospital",
          "contact:phone": "339890000",
          "healthcare": "hospital",
          "name": "Vasan Eye Care Hospital, Kolkata",
          "source": "OpenGovernmentData"
        }
      },
      {
        "type": "node",
        "id": 2460843430,
        "lat": 22.5853085,
        "lon": 88.4044743,
        "tags": {
          "amenity": "bank",
          "brand": "State Bank of India",
          "brand:wikidata": "Q1340361",
          "brand:wikipedia": "en:State Bank of India",
          "name": "State Bank of India",
          "short_name": "SBI"
        }
      },
      {
        "type": "node",
        "id": 3677394126,
        "lat": 22.5880118,
        "lon": 88.4082873,
        "tags": {
          "alt_name": "Kentucky Fried Chicken",
          "alt_name:en": "Kentucky Fried Chicken",
          "alt_name:hi": "\u0915\u0947\u0902\u091f\u0941\u0915\u0940 \u092b\u094d\u0930\u093e\u0907\u0921 \u091a\u093f\u0915\u0928",
          "alt_name:pa": "\u0a15\u0a48\u0a02\u0a1f\u0a41\u0a15\u0a40 \u0a2b\u0a4d\u0a30\u0a3e\u0a08\u0a21 \u0a1a\u0a3f\u0a15\u0a28",
          "alt_name:pnb": "\u06a9\u06cc\u0646\u0679\u06a9\u06cc \u0641\u0631\u0627\u0626\u06cc\u0688 \u0686\u06a9\u0646",
          "alt_name:ur": "\u06a9\u06cc\u0646\u0679\u06a9\u06cc \u0641\u0631\u0627\u0626\u06cc\u0688 \u0686\u06a9\u0646",
          "amenity": "fast_food",
          "brand": "KFC",
          "brand:en": "KFC",
          "brand:hi": "\u0915\u0947\u090f\u092b\u0938\u0940",
          "brand:pa": "\u0a15\u0a47\u0a10\u0a2b\u0a38\u0a40",
          "brand:pnb": "\u06a9\u06d2 \u0627\u06cc\u0641 \u0633\u06cc",
          "brand:ur": "\u06a9\u06d2 \u0627\u06cc\u0641 \u0633\u06cc",
          "brand:wikidata": "Q524757",
          "brand:wikipedia": "en:KFC",
          "brand:wikipedia:pa": "\u0a15\u0a47\u0a10\u0a2b\u0a38\u0a40",
          "brand:wikipedia:ur": "\u06a9\u06cc\u0646\u0679\u06a9\u06cc \u0641\u0631\u0627\u0626\u06cc\u0688 \u0686\u06a9\u0646",
          "cuisine": "chicken",
          "name": "KFC",
          "name:en": "KFC",
          "name:hi": "\u0915\u0947\u090f\u092b\u0938\u0940",
          "name:pa": "\u0a15\u0a47\u0a10\u0a2b\u0a38\u0a40",
          "name:pnb": "\u06a9\u06d2 \u0627\u06cc\u0641 \u0633\u06cc",
          "name:ur": "\u06a9\u06d2 \u0627\u06cc\u0641 \u0633\u06cc",
          "takeaway": "yes"
        }
      },
      {
        "type": "node",
        "id": 3677394127,
        "lat": 22.5879437,
        "lon": 88.4081651,
        "tags": {
          "amenity": "restaurant",
          "brand": "Pizza Hut",
          "brand:wikidata": "Q191615",
          "cuisine": "pizza",
          "name": "Pizza Hut"
        }
      },
      {
        "type": "node",
        "id": 4280999798,
        "lat": 22.5922822,
        "lon": 88.4002766,
        "tags": {
          "amenity": "clinic",
          "healthcare": "clinic",
          "name": "Dr Paul's Clinic"
        }
      },
      {
        "type": "node",
        "id": 4563514490,
        "lat": 22.5894675,
        "lon": 88.4089049,
        "tags": {
          "addr:street": "2nd Cross Road",
          "amenity": "fast_food",
          "cuisine": "sandwich;sausage;local;chinese;noodles;pancake;chicken;thai",
          "name": "The Fat Monk",
          "name:en": "The Fat Monk",
          "name:hi": "\u0926\u093f \u092b\u0947\u091f \u092e\u0902\u0915",
          "opening_hours": "Mo-Su 14:00-22:30",
          "operator": "Gautam Sherpa & Sachiko Seth",
          "phone": "+91 82857 19879"
        }
      },
      {
        "type": "node",
        "id": 4640570033,
        "lat": 22.5936441,
        "lon": 88.4015713,
        "tags": {
          "leisure": "park"
        }
      },
      {
        "type": "node",
        "id": 4641485690,
        "lat": 22.5937391,
        "lon": 88.4014808,
        "tags": {
          "leisure": "park"
        }
      },
      {
        "type": "node",
        "id": 4641488598,
        "lat": 22.5919082,
        "lon": 88.4031339,
        "tags": {
          "leisure": "park",
          "name": "Kids Park"
        }
      },
      {
        "type": "node",
        "id": 4679622353,
        "lat": 22.5872971,
        "lon": 88.4078096,
        "tags": {
          "amenity": "restaurant",
          "name": "Afraa"
        }
      },
      {
        "type": "node",
        "id": 4679622354,
        "lat": 22.5881233,
        "lon": 88.4087142,
        "tags": {
          "amenity": "fast_food",
          "brand": "Wow! Momo",
          "brand:wikidata": "Q8037446",
          "cuisine": "momo",
          "name": "Wow! Momo",
          "takeaway": "yes"
        }
      },
      {
        "type": "node",
        "id": 4745224624,
        "lat": 22.5880951,
        "lon": 88.3921258,
        "tags": {
          "addr:postcode": "700054",
          "addr:street": "CIT Scheme VII M, Kankurgachi",
          "amenity": "bank",
          "atm": "yes",
          "brand": "State Bank of India",
          "brand:wikidata": "Q1340361",
          "brand:wikipedia": "en:State Bank of India",
          "name": "State Bank of India head office",
          "name:en": "SBI e-corner",
          "opening_hours": "Mo-Sa 09:00-16:00",
          "short_name": "SBI",
          "website": "https://www.onlinesbi.com"
        }
      },
      {
        "type": "node",
        "id": 4745240963,
        "lat": 22.59018,
        "lon": 88.3924169,
        "tags": {
          "amenity": "bank",
          "atm": "no",
          "brand": "State Bank of India",
          "brand:wikidata": "Q1340361",
          "brand:wikipedia": "en:State Bank of India",
          "drive_through": "no",
          "name": "State Bank of India",
          "short_name": "SBI"
        }
      },
      {
        "type": "node",
        "id": 4745245931,
        "lat": 22.5912131,
        "lon": 88.3996698,
        "tags": {
          "amenity": "bank",
          "atm": "yes",
          "brand": "Punjab National Bank",
          "brand:wikidata": "Q2743499",
          "drive_through": "no",
          "name": "Punjab National Bank",
          "name:en": "Punjab National Bank",
          "short_name": "PNB",
          "website": "https://www.pnbindia.in",
          "wikimedia_commons": "Category:Punjab National Bank"
        }
      },
      {
        "type": "node",
        "id": 4745248321,
        "lat": 22.5898312,
        "lon": 88.4010102,
        "tags": {
          "amenity": "bank",
          "atm": "yes",
          "brand": "HDFC Bank",
          "brand:wikidata": "Q631047",
          "brand:wikipedia": "en:HDFC Bank",
          "drive_through": "no",
          "name": "HDFC Bank",
          "short_name": "HDFC",
          "website": "https://www.hdfcbank.com"
        }
      },
      {
        "type": "node",
        "id": 5104711521,
        "lat": 22.5908897,
        "lon": 88.3989226,
        "tags": {
          "addr:city": "BIDHANNAGAR",
          "addr:district": "Kolkata",
          "addr:housenumber": "BA-41",
          "addr:postcode": "700064",
          "addr:street": "1st Avenue",
          "amenity": "doctors",
          "healthcare": "doctor",
          "phone": "8981254141"
        }
      },
      {
        "type": "node",
        "id": 6497833285,
        "lat": 22.5915345,
        "lon": 88.3994137,
        "tags": {
          "amenity": "atm",
          "operator": "ICICI Bank ATM"
        }
      },
      {
        "type": "node",
        "id": 6700782253,
        "lat": 22.5904744,
        "lon": 88.4082609,
        "tags": {
          "addr:city": "Kolkata",
          "addr:housenumber": "CD18",
          "addr:postcode": "700064",
          "addr:street": "2nd Cross Road",
          "air_conditioning": "yes",
          "amenity": "restaurant",
          "cuisine": "asian;chinese",
          "name": "Momo I Am",
          "name:en": "Momo i am",
          "opening_hours": "Mo-Su 12:00-23:00",
          "phone": "+91 7044519815",
          "website": "https://momoiam.in"
        }
      },
      {
        "type": "node",
        "id": 7048119664,
        "lat": 22.5900155,
        "lon": 88.3929551,
        "tags": {
          "addr:district": "Kolkata",
          "addr:full": "P-155/1,C.I.T Scheme-Vii(M),Ultadanga",
          "addr:postcode": "700054",
          "addr:state": "West Bengal",
          "addr:street": "CIT Road",
          "amenity": "hospital",
          "contact:phone": "03323552923;03323551140",
          "healthcare": "hospital",
          "name": "Rameswara Nursing Home Pvt Ltd",
          "source": "OpenGovernmentData",
          "website": "https://rameswaranursinghome.com"
        }
      },
      {
        "type": "node",
        "id": 7068848849,
        "lat": 22.5877134,
        "lon": 88.4080387,
        "tags": {
          "addr:district": "Kolkata",
          "addr:full": "Block Dc, 1st Floor, City Centre, Salt Lake City",
          "addr:postcode": "700064",
          "addr:state": "West Bengal",
          "amenity": "clinic",
          "healthcare": "clinic",
          "name": "The Apollo Clinic",
          "source": "OpenGovernmentData"
        }
      },
      {
        "type": "node",
        "id": 8857669718,
        "lat": 22.5917929,
        "lon": 88.3921872,
        "tags": {
          "addr:street": "\u00a0164/1, Scheme No 7 M, V I P Road, Kankurgachi, Kolkata - 700054",
          "amenity": "food_court",
          "name": "South Indian Best Food",
          "opening_hours": "Mo-Su 07:30-21:30",
          "phone": "09830731358"
        }
      },
      {
        "type": "node",
        "id": 9253635392,
        "lat": 22.5917451,
        "lon": 88.402647,
        "tags": {
          "addr:city": "KOLKATA",
          "addr:housenumber": "198",
          "addr:postcode": "700064",
          "addr:street": "1st Avenue",
          "leisure": "park",
          "name": "X MOTTORS",
          "name:en": "X MOTTORS",
          "opening_hours": "24/7",
          "operator": "X MOTTORS"
        }
      },
      {
        "type": "node",
        "id": 9462340017,
        "lat": 22.5898012,
        "lon": 88.3926643,
        "tags": {
          "amenity": "atm",
          "brand": "Bank of Baroda",
          "brand:wikidata": "Q2003797",
          "opening_hours": "24/7",
          "operator": "Bank of Baroda",
          "operator:wikidata": "Q2003797"
        }
      },
      {
        "type": "node",
        "id": 9462816420,
        "lat": 22.5917061,
        "lon": 88.3914676,
        "tags": {
          "addr:housenumber": "p170",
          "addr:postcode": "700054",
          "addr:street": "CIT Rd Scheme 4M",
          "amenity": "pharmacy",
          "brand": "MedPlus",
          "brand:wikidata": "Q65684234",
          "check_date:opening_hours": "2023-07-03",
          "healthcare": "pharmacy",
          "name": "MedPlus",
          "name:en": "MedPlus Ultadanga",
          "opening_hours": "Mo-Su 08:00-22:30",
          "phone": "033 2355 1197",
          "website": "https://pharmacy.medplusmart.com/INWBCCU00012"
        }
      },
      {
        "type": "node",
        "id": 9462819520,
        "lat": 22.5841746,
        "lon": 88.3914224,
        "tags": {
          "addr:housenumber": "p-5",
          "addr:postcode": "700054",
          "addr:street": "Kankurgacchi 2nd Lane",
          "amenity": "fast_food",
          "cuisine": "chicken;chinese",
          "name": "Kankurgachi dhaba"
        }
      },
      {
        "type": "node",
        "id": 9462830817,
        "lat": 22.5903947,
        "lon": 88.3930213,
        "tags": {
          "amenity": "bank",
          "brand": "Bandhan Bank",
          "brand:wikidata": "Q19882235",
          "name": "Bandhan Bank"
        }
      },
      {
        "type": "node",
        "id": 9497006698,
        "lat": 22.5872789,
        "lon": 88.4078443,
        "tags": {
          "addr:postcode": "700064",
          "amenity": "cafe",
          "brand": "Starbucks",
          "brand:wikidata": "Q37158",
          "cuisine": "coffee_shop",
          "name": "Starbucks",
          "official_name": "Starbucks Coffee",
          "takeaway": "yes"
        }
      },
      {
        "type": "node",
        "id": 9527985217,
        "lat": 22.5849596,
        "lon": 88.3916315,
        "tags": {
          "addr:housenumber": "p-54",
          "addr:postcode": "700054",
          "addr:street": "CIT Road",
          "amenity": "restaurant",
          "name": "Honey da dhaba",
          "opening_hours": "Mo-Su 12:00-22:00",
          "phone": "03323556804"
        }
      },
      {
        "type": "node",
        "id": 9537536817,
        "lat": 22.58956,
        "lon": 88.4084577,
        "tags": {
          "addr:housenumber": "DC 27/26",
          "addr:postcode": "700064",
          "addr:street": "2nd Cross Road",
          "amenity": "restaurant",
          "name": "033 4044 2294",
          "name:en": "Balle Balle Dhaba",
          "opening_hours": "Mo-Su 12:00-02:00",
          "phone": "033 4044 2294"
        }
      },
      {
        "type": "node",
        "id": 9568728117,
        "lat": 22.5925159,
        "lon": 88.4011332,
        "tags": {
          "addr:housenumber": "AC11",
          "addr:postcode": "700064",
          "addr:street": "1st Avenue",
          "amenity": "pharmacy",
          "healthcare": "pharmacy",
          "name": "Metro pharmacy",
          "opening_hours": "Mo-Su 08:00-22:00",
          "phone": "7044026472;7439960176"
        }
      },
      {
        "type": "node",
        "id": 9570580917,
        "lat": 22.5881594,
        "lon": 88.3921226,
        "tags": {
          "amenity": "atm",
          "branch": "Ultadanga",
          "brand": "State Bank of India",
          "brand:wikidata": "Q1340361",
          "opening_hours": "24/7",
          "operator": "State Bank of India",
          "operator:wikidata": "Q1340361",
          "short_name": "SBI"
        }
      },
      {
        "type": "node",
        "id": 9573547217,
        "lat": 22.5886635,
        "lon": 88.393518,
        "tags": {
          "addr:housenumber": "81/A",
          "addr:postcode": "700054",
          "amenity": "hospital",
          "check_date": "2023-09-30",
          "healthcare": "hospital",
          "internet_access": "wlan",
          "internet_access:fee": "no",
          "name": "North City Hospital Emergency Unit",
          "opening_hours": "24/7",
          "payment:mastercard": "yes",
          "payment:visa": "yes",
          "phone": "090739 87624",
          "website": "https://www.northcityhospital.com/about-us/md-speech/",
          "wheelchair": "yes"
        }
      },
      {
        "type": "node",
        "id": 9597557217,
        "lat": 22.5849948,
        "lon": 88.3916447,
        "tags": {
          "amenity": "cafe",
          "name": "Quick bite cafe"
        }
      },
      {
        "type": "node",
        "id": 9602553317,
        "lat": 22.5860229,
        "lon": 88.3919014,
        "tags": {
          "amenity": "pharmacy",
          "healthcare": "pharmacy",
          "name": "Maa Durga pharmacy"
        }
      },
      {
        "type": "node",
        "id": 9602565417,
        "lat": 22.5922916,
        "lon": 88.4007332,
        "tags": {
          "amenity": "bank",
          "name": "Pnb bank"
        }
      },
      {
        "type": "node",
        "id": 9602565817,
        "lat": 22.5923131,
        "lon": 88.4007892,
        "tags": {
          "amenity": "atm",
          "operator": "pnb bank"
        }
      },
      {
        "type": "node",
        "id": 9640621117,
        "lat": 22.5942645,
        "lon": 88.3967592,
        "tags": {
          "amenity": "restaurant",
          "name": "Bengal dhaba"
        }
      },
      {
        "type": "node",
        "id": 9658687917,
        "lat": 22.5888797,
        "lon": 88.3993708,
        "tags": {
          "amenity": "hospital",
          "healthcare": "hospital",
          "name": "Ananya"
        }
      },
      {
        "type": "node",
        "id": 10091478917,
        "lat": 22.5920591,
        "lon": 88.39255,
        "tags": {
          "addr:street": "Bidhan Nagar Road",
          "amenity": "fast_food",
          "brand": "Wow! Momo",
          "brand:wikidata": "Q8037446",
          "cuisine": "momo",
          "name": "Wow! Momo",
          "name:en": "WOW MOMO",
          "takeaway": "yes"
        }
      },
      {
        "type": "node",
        "id": 10314248910,
        "lat": 22.5877065,
        "lon": 88.3922325,
        "tags": {
          "addr:housenumber": "p1/16 G18-19",
          "addr:postcode": "700054",
          "addr:street": "CIT Road",
          "name": "jio mart ultadanga",
          "opening_hours": "Mo-Sa 10:00-20:00",
          "operator": "jio",
          "shop": "department_store",
          "website": "https://jiomart.com/"
        }
      },
      {
        "type": "node",
        "id": 10651584806,
        "lat": 22.5934596,
        "lon": 88.4059146,
        "tags": {
          "amenity": "restaurant",
          "name": "Calcutta 64"
        }
      },
      {
        "type": "node",
        "id": 11245170518,
        "lat": 22.5831406,
        "lon": 88.406782,
        "tags": {
          "leisure": "playground",
          "name": "Labony Housing Playground"
        }
      },
      {
        "type": "node",
        "id": 11245230697,
        "lat": 22.5835077,
        "lon": 88.4023056,
        "tags": {
          "leisure": "playground"
        }
      },
      {
        "type": "node",
        "id": 11245832305,
        "lat": 22.5866275,
        "lon": 88.4024513,
        "tags": {
          "check_date": "2023-10-07",
          "name": "FabIndia",
          "shop": "mall"
        }
      },
      {
        "type": "node",
        "id": 11264617761,
        "lat": 22.5858469,
        "lon": 88.4053261,
        "tags": {
          "amenity": "cafe",
          "check_date": "2023-10-14",
          "cuisine": "coffee_shop",
          "name": "Melbourne Cafe"
        }
      },
      {
        "type": "node",
        "id": 11945904569,
        "lat": 22.5898185,
        "lon": 88.3925616,
        "tags": {
          "addr:housenumber": "P187",
          "addr:postcode": "700054",
          "addr:street": "CIT Road",
          "amenity": "pharmacy",
          "name": "Prime minister jan Aushadhi Kendra (pmbi)",
          "opening_hours": "Mo-Sa 08:30-21:00; Su 08:30-14:00",
          "operator": "pmbi",
          "phone": "+919830501144;+917003242588"
        }
      },
      {
        "type": "node",
        "id": 12063478969,
        "lat": 22.5923002,
        "lon": 88.3918316,
        "tags": {
          "addr:housenumber": "p188",
          "addr:postcode": "700067",
          "addr:street": "CIT Road",
          "amenity": "bank",
          "name": "Bank of Baroda",
          "opening_hours": "Mo-Fr 09:00-16:00; Sa 09:00-16:00",
          "phone": "1800 258 4455",
          "website": "https://bankofbaroda.in/"
        }
      },
      {
        "type": "node",
        "id": 12063484369,
        "lat": 22.588104,
        "lon": 88.3921806,
        "tags": {
          "addr:postcode": "700054",
          "amenity": "bank",
          "name": "SBI Home Loans Council (033-48485060)"
        }
      },
      {
        "type": "node",
        "id": 12063490969,
        "lat": 22.587901,
        "lon": 88.3923402,
        "tags": {
          "amenity": "atm",
          "opening_hours": "24/7",
          "operator": "icici bank"
        }
      },
      {
        "type": "node",
        "id": 12288417001,
        "lat": 22.5917067,
        "lon": 88.3922961,
        "tags": {
          "addr:housenumber": "164",
          "addr:postcode": "700054",
          "addr:street": "CIT Road",
          "amenity": "restaurant",
          "cuisine": "indian",
          "diet:vegan": "yes",
          "diet:vegetarian": "yes",
          "internet_access": "wlan",
          "name": "idlyGo Xpress",
          "opening_hours": "Mo-Su 09:00-22:00",
          "self_service": "partially",
          "website": "https://idlygo.com/",
          "website:menu": "https://maps.app.goo.gl/iyPfcJkXWwWMMS2P7?g_st=ac\nhttps://maps.app.goo.gl/mi6TZSDpv37JY3idA?g_st=ac\nhttps://maps.app.goo.gl/8bNUw3eupdHwnb3LA?g_st=ac\nhttps://maps.app.goo.gl/sdzLCRxesTmWFsvX6?g_st=ac"
        }
      }
    ]
  },
  "pois_2_5km": {
    "version": 0.6,
    "generator": "Overpass API 0.7.62.8 e802775f",
    "osm3s": {
      "timestamp_osm_base": "2025-09-06T09:48:45Z",
      "copyright": "The data included in this document is from www.openstreetmap.org. The data is made available under ODbL."
    },
    "elements": [
      {
        "type": "node",
        "id": 664440061,
        "lat": 22.5917712,
        "lon": 88.3908206,
        "tags": {
          "name": "Bidhannagar Road",
          "name:bn": "\u09ac\u09bf\u09a7\u09be\u09a8\u09a8\u0997\u09b0 \u09b0\u09cb\u09a1",
          "operator": "Eastern Railways",
          "public_transport": "stop_position",
          "railway": "stop",
          "train": "yes",
          "wikidata": "Q4904158",
          "wikipedia": "en:Bidhannagar Road railway station"
        }
      },
      {
        "type": "node",
        "id": 1074604498,
        "lat": 22.6011865,
        "lon": 88.3841191,
        "tags": {
          "loc_ref": "2",
          "name": "Kolkata Chitpur",
          "public_transport": "stop_position",
          "railway": "stop",
          "ref": "KOAA",
          "train": "yes"
        }
      },
      {
        "type": "node",
        "id": 1307939452,
        "lat": 22.5926544,
        "lon": 88.3887464,
        "tags": {
          "amenity": "bus_station",
          "bus": "yes",
          "description": "Route Number S-30, S-30A, ST7",
          "name": "15 No Bus Stand (S30)",
          "operator": "WBTC",
          "public_transport": "station",
          "wheelchair": "yes"
        }
      },
      {
        "type": "node",
        "id": 1850221742,
        "lat": 22.5732985,
        "lon": 88.4135971,
        "tags": {
          "amenity": "cinema",
          "name": "Broadway"
        }
      },
      {
        "type": "node",
        "id": 2014908445,
        "lat": 22.6056699,
        "lon": 88.3847084,
        "tags": {
          "name": "Belgachia",
          "network": "WBTC",
          "network:wikidata": "Q7984450",
          "operator": "Calcutta Tramways Company",
          "public_transport": "stop_position",
          "railway": "tram_stop",
          "tram": "yes"
        }
      },
      {
        "type": "node",
        "id": 2017123229,
        "lat": 22.5777563,
        "lon": 88.4005168,
        "tags": {
          "amenity": "cinema",
          "brand": "PVR Cinemas",
          "brand:short": "PVR",
          "brand:wikidata": "Q3359908",
          "name": "PVR",
          "short_name": "PVR"
        }
      },
      {
        "type": "node",
        "id": 2141425962,
        "lat": 22.5917787,
        "lon": 88.3907817,
        "tags": {
          "name": "Bidhannagar Road",
          "name:bn": "\u09ac\u09bf\u09a7\u09be\u09a8\u09a8\u0997\u09b0 \u09b0\u09cb\u09a1",
          "operator": "Eastern Railways",
          "public_transport": "stop_position",
          "railway": "stop",
          "train": "yes",
          "wikidata": "Q4904158",
          "wikipedia": "en:Bidhannagar Road railway station"
        }
      },
      {
        "type": "node",
        "id": 2141425973,
        "lat": 22.5917378,
        "lon": 88.3909399,
        "tags": {
          "name": "Bidhannagar Road",
          "name:bn": "\u09ac\u09bf\u09a7\u09be\u09a8\u09a8\u0997\u09b0 \u09b0\u09cb\u09a1",
          "operator": "Eastern Railways",
          "public_transport": "stop_position",
          "railway": "stop",
          "train": "yes",
          "wikidata": "Q4904158",
          "wikipedia": "en:Bidhannagar Road railway station"
        }
      },
      {
        "type": "node",
        "id": 2207611901,
        "lat": 22.591149,
        "lon": 88.3912585,
        "tags": {
          "name": "Bidhan Nagar",
          "network": "WBTC",
          "network:wikidata": "Q7984450",
          "operator": "Calcutta Tramways Company",
          "public_transport": "stop_position",
          "railway": "tram_stop",
          "tram": "yes"
        }
      },
      {
        "type": "node",
        "id": 2323761292,
        "lat": 22.5912601,
        "lon": 88.3909641,
        "tags": {
          "name": "Bidhannagar Road",
          "name:bn": "\u09ac\u09bf\u09a7\u09be\u09a8\u09a8\u0997\u09b0 \u09b0\u09cb\u09a1",
          "network": "IR",
          "operator": "ER",
          "public_transport": "station",
          "railway": "station",
          "ref": "BNXR",
          "website": "https://er.indianrailways.gov.in/",
          "wheelchair": "no",
          "wikidata": "Q4904158",
          "wikipedia": "en:Bidhannagar Road railway station"
        }
      },
      {
        "type": "node",
        "id": 2460827382,
        "lat": 22.5891916,
        "lon": 88.4092137,
        "tags": {
          "amenity": "fuel",
          "brand": "Indian Oil",
          "brand:wikidata": "Q1289348",
          "brand:wikipedia": "en:Indian Oil Corporation",
          "name": "Indian Oil Petrol Pump",
          "operator": "Indian Oil"
        }
      },
      {
        "type": "node",
        "id": 2747151484,
        "lat": 22.5785987,
        "lon": 88.3900338,
        "tags": {
          "amenity": "fuel"
        }
      },
      {
        "type": "node",
        "id": 3859050133,
        "lat": 22.6011633,
        "lon": 88.3840825,
        "tags": {
          "loc_ref": "1",
          "name": "Kolkata Chitpur",
          "public_transport": "stop_position",
          "railway": "stop",
          "ref": "KOAA",
          "train": "yes"
        }
      },
      {
        "type": "node",
        "id": 4175410289,
        "lat": 22.6015146,
        "lon": 88.3822061,
        "tags": {
          "addr:city": "Kolkata",
          "addr:postcode": "700004",
          "addr:street": "Near Railway Station, Station Rd",
          "amenity": "bus_station",
          "bus": "yes",
          "name": "Kolkata Station Bus Terminal",
          "name:bn": "\u0995\u09b2\u0995\u09be\u09a4\u09be \u09b8\u09cd\u099f\u09c7\u09b6\u09a8 \u09ac\u09be\u09b8 \u099f\u09be\u09b0\u09cd\u09ae\u09bf\u09a8\u09be\u09b2",
          "name:hi": "\u0915\u094b\u0932\u0915\u093e\u0924\u093e \u0938\u094d\u091f\u0947\u0936\u0928 \u092c\u0938 \u091f\u0930\u094d\u092e\u093f\u0928\u0932",
          "public_transport": "station"
        }
      },
      {
        "type": "node",
        "id": 4933663221,
        "lat": 22.5717932,
        "lon": 88.4090241,
        "tags": {
          "amenity": "fuel",
          "name": "BP Petrol Pump",
          "name:en": "BP Petrol Pump"
        }
      },
      {
        "type": "node",
        "id": 5080788785,
        "lat": 22.6098041,
        "lon": 88.4017146,
        "tags": {
          "amenity": "fuel",
          "brand": "Indian Oil Petrol Pump",
          "brand:wikidata": "Q1289348",
          "fuel": "diesel",
          "name": "Indian Oil Petrol Pump"
        }
      },
      {
        "type": "node",
        "id": 5189265436,
        "lat": 22.5720265,
        "lon": 88.3902669,
        "tags": {
          "name": "Phoolbagan",
          "name:bn": "\u09ab\u09c1\u09b2\u09ac\u09be\u0997\u09be\u09a8",
          "network": "Kolkata Metro",
          "public_transport": "stop_position",
          "railway": "stop",
          "subway": "yes"
        }
      },
      {
        "type": "node",
        "id": 5189265479,
        "lat": 22.5862751,
        "lon": 88.4215241,
        "tags": {
          "name": "Karunamoyee",
          "name:bn": "\u0995\u09b0\u09c1\u09a3\u09be\u09ae\u09af\u09bc\u09c0",
          "network": "Kolkata Metro",
          "public_transport": "stop_position",
          "railway": "stop",
          "subway": "yes"
        }
      },
      {
        "type": "node",
        "id": 5241930862,
        "lat": 22.5710125,
        "lon": 88.4011324,
        "tags": {
          "amenity": "cinema",
          "brand": "INOX Leisure",
          "brand:short": "INOX",
          "brand:wikidata": "Q5972349",
          "name": "Inox Swabhumi",
          "short_name": "INOX"
        }
      },
      {
        "type": "node",
        "id": 5253354261,
        "lat": 22.5741753,
        "lon": 88.3850451,
        "tags": {
          "name": "Sir Gurudas Banerjee Halt",
          "network": "IR",
          "operator": "ER",
          "public_transport": "station",
          "railway": "station",
          "ref": "SGBA",
          "wikidata": "Q56278572",
          "wikipedia": "en:Sir Gurudas Banerjee Halt railway station"
        }
      },
      {
        "type": "node",
        "id": 5421548359,
        "lat": 22.6059241,
        "lon": 88.3863913,
        "tags": {
          "name": "Belgachia",
          "name:bn": "\u09ac\u09c7\u09b2\u0997\u09be\u099b\u09bf\u09af\u09bc\u09be",
          "network": "Kolkata Metro",
          "network:wikidata": "Q1048849",
          "official_name": "Theism Belgachia",
          "operator": "Metro Railway, Kolkata",
          "public_transport": "station",
          "railway": "station",
          "station": "subway",
          "subway": "yes",
          "wikidata": "Q4882396",
          "wikipedia": "en:Belgachia metro station"
        }
      },
      {
        "type": "node",
        "id": 5777572361,
        "lat": 22.5862923,
        "lon": 88.421568,
        "tags": {
          "name": "Karunamoyee",
          "name:bn": "\u0995\u09b0\u09c1\u09a3\u09be\u09ae\u09af\u09bc\u09c0",
          "network": "Kolkata Metro",
          "public_transport": "stop_position",
          "railway": "stop",
          "subway": "yes"
        }
      },
      {
        "type": "node",
        "id": 5777572412,
        "lat": 22.5720898,
        "lon": 88.3902604,
        "tags": {
          "name": "Phoolbagan",
          "name:bn": "\u09ab\u09c1\u09b2\u09ac\u09be\u0997\u09be\u09a8",
          "network": "Kolkata Metro",
          "public_transport": "stop_position",
          "railway": "stop",
          "subway": "yes"
        }
      },
      {
        "type": "node",
        "id": 7630431374,
        "lat": 22.6014137,
        "lon": 88.3843607,
        "tags": {
          "name": "Kolkata Chitpur",
          "public_transport": "stop_position",
          "railway": "stop",
          "ref": "KOAA",
          "train": "yes"
        }
      },
      {
        "type": "node",
        "id": 7630431377,
        "lat": 22.6013109,
        "lon": 88.3842621,
        "tags": {
          "loc_ref": "4",
          "name": "Kolkata Chitpur",
          "public_transport": "stop_position",
          "railway": "stop",
          "ref": "KOAA",
          "train": "yes"
        }
      },
      {
        "type": "node",
        "id": 7630431378,
        "lat": 22.6012787,
        "lon": 88.3842353,
        "tags": {
          "loc_ref": "3",
          "name": "Kolkata Chitpur",
          "public_transport": "stop_position",
          "railway": "stop",
          "ref": "KOAA",
          "train": "yes"
        }
      },
      {
        "type": "node",
        "id": 7630434398,
        "lat": 22.6012775,
        "lon": 88.3841474,
        "tags": {
          "name": "Kolkata",
          "network": "IR",
          "operator": "ER",
          "public_transport": "station",
          "railway": "station",
          "ref": "KOAA",
          "wikidata": "Q6427323",
          "wikipedia": "en:Kolkata railway station"
        }
      },
      {
        "type": "node",
        "id": 7976140059,
        "lat": 22.58638,
        "lon": 88.4215312,
        "tags": {
          "name": "Karunamoyee",
          "name:bn": "\u0995\u09b0\u09c1\u09a3\u09be\u09ae\u09af\u09bc\u09c0",
          "network": "Kolkata Metro",
          "network:wikidata": "Q1048849",
          "operator": "Kolkata Metro Rail Corporation Limited (KMRCL)",
          "public_transport": "station",
          "railway": "station",
          "ref": "KESA",
          "station": "subway",
          "subway": "yes",
          "wikidata": "Q62019524",
          "wikipedia": "en:Karunamoyee metro station"
        }
      },
      {
        "type": "node",
        "id": 7976140060,
        "lat": 22.5904737,
        "lon": 88.4156247,
        "tags": {
          "name": "Central Park",
          "name:bn": "\u09b8\u09c7\u09a8\u09cd\u099f\u09cd\u09b0\u09be\u09b2 \u09aa\u09be\u09b0\u09cd\u0995",
          "network": "Kolkata Metro",
          "network:wikidata": "Q1048849",
          "operator": "Kolkata Metro Rail Corporation Limited (KMRCL)",
          "public_transport": "station",
          "railway": "station",
          "ref": "CPSA",
          "station": "subway",
          "subway": "yes",
          "wikidata": "Q30632539",
          "wikipedia": "en:Central Park metro station"
        }
      },
      {
        "type": "node",
        "id": 7976140061,
        "lat": 22.5903984,
        "lon": 88.4156434,
        "tags": {
          "name": "Central Park",
          "name:bn": "\u09b8\u09c7\u09a8\u09cd\u099f\u09cd\u09b0\u09be\u09b2 \u09aa\u09be\u09b0\u09cd\u0995",
          "network": "Kolkata Metro",
          "public_transport": "stop_position",
          "railway": "stop",
          "subway": "yes"
        }
      },
      {
        "type": "node",
        "id": 7976140062,
        "lat": 22.5903593,
        "lon": 88.4156358,
        "tags": {
          "name": "Central Park",
          "name:bn": "\u09b8\u09c7\u09a8\u09cd\u099f\u09cd\u09b0\u09be\u09b2 \u09aa\u09be\u09b0\u09cd\u0995",
          "network": "Kolkata Metro",
          "public_transport": "stop_position",
          "railway": "stop",
          "subway": "yes"
        }
      },
      {
        "type": "node",
        "id": 7976140063,
        "lat": 22.5870993,
        "lon": 88.4078908,
        "tags": {
          "name": "City Centre",
          "name:bn": "\u09b8\u09bf\u099f\u09bf \u09b8\u09c7\u09a8\u09cd\u099f\u09be\u09b0",
          "network": "Kolkata Metro",
          "network:wikidata": "Q1048849",
          "operator": "Kolkata Metro Rail Corporation Limited (KMRCL)",
          "public_transport": "station",
          "railway": "station",
          "ref": "CCSC",
          "station": "subway",
          "subway": "yes",
          "wikidata": "Q63256235",
          "wikipedia": "en:City Center metro station"
        }
      },
      {
        "type": "node",
        "id": 7976140064,
        "lat": 22.5869882,
        "lon": 88.4079174,
        "tags": {
          "name": "City Centre",
          "name:bn": "\u09b8\u09bf\u099f\u09bf \u09b8\u09c7\u09a8\u09cd\u099f\u09be\u09b0",
          "network": "Kolkata Metro",
          "public_transport": "stop_position",
          "railway": "stop",
          "subway": "yes"
        }
      },
      {
        "type": "node",
        "id": 7976140065,
        "lat": 22.5869532,
        "lon": 88.4079412,
        "tags": {
          "name": "City Centre",
          "name:bn": "\u09b8\u09bf\u099f\u09bf \u09b8\u09c7\u09a8\u09cd\u099f\u09be\u09b0",
          "network": "Kolkata Metro",
          "public_transport": "stop_position",
          "railway": "stop",
          "subway": "yes"
        }
      },
      {
        "type": "node",
        "id": 7976140066,
        "lat": 22.5800666,
        "lon": 88.4012962,
        "tags": {
          "name": "Bengal Chemical",
          "name:bn": "\u09ac\u09c7\u0999\u09cd\u0997\u09b2 \u0995\u09c7\u09ae\u09bf\u0995\u09cd\u09af\u09be\u09b2\u09b8",
          "network": "Kolkata Metro",
          "network:wikidata": "Q1048849",
          "public_transport": "station",
          "railway": "station",
          "ref": "BCSD",
          "station": "subway",
          "subway": "yes",
          "wikidata": "Q63256245",
          "wikipedia": "en:Bengal Chemical metro station"
        }
      },
      {
        "type": "node",
        "id": 7976140067,
        "lat": 22.5799802,
        "lon": 88.4013845,
        "tags": {
          "name": "Bengal Chemical",
          "name:bn": "\u09ac\u09c7\u0999\u09cd\u0997\u09b2 \u0995\u09c7\u09ae\u09bf\u0995\u09cd\u09af\u09be\u09b2\u09b8",
          "network": "Kolkata Metro",
          "public_transport": "stop_position",
          "railway": "stop",
          "subway": "yes"
        }
      },
      {
        "type": "node",
        "id": 7976140068,
        "lat": 22.5799701,
        "lon": 88.401335,
        "tags": {
          "name": "Bengal Chemical",
          "name:bn": "\u09ac\u09c7\u0999\u09cd\u0997\u09b2 \u0995\u09c7\u09ae\u09bf\u0995\u09cd\u09af\u09be\u09b2\u09b8",
          "network": "Kolkata Metro",
          "public_transport": "stop_position",
          "railway": "stop",
          "subway": "yes"
        }
      },
      {
        "type": "node",
        "id": 7976140069,
        "lat": 22.5731115,
        "lon": 88.4030891,
        "tags": {
          "name": "Salt Lake Stadium",
          "name:bn": "\u09b8\u09b2\u09cd\u099f \u09b2\u09c7\u0995 \u09b8\u09cd\u099f\u09c7\u09a1\u09bf\u09af\u09bc\u09be\u09ae",
          "network": "Kolkata Metro",
          "network:wikidata": "Q1048849",
          "public_transport": "station",
          "railway": "station",
          "ref": "SSSA",
          "station": "subway",
          "subway": "yes",
          "wikidata": "Q65090392",
          "wikipedia": "en:Salt Lake Stadium metro station"
        }
      },
      {
        "type": "node",
        "id": 7976140070,
        "lat": 22.572966,
        "lon": 88.4030833,
        "tags": {
          "name": "Salt Lake Stadium",
          "name:bn": "\u09b8\u09b2\u09cd\u099f \u09b2\u09c7\u0995 \u09b8\u09cd\u099f\u09c7\u09a1\u09bf\u09af\u09bc\u09be\u09ae",
          "network": "Kolkata Metro",
          "public_transport": "stop_position",
          "railway": "stop",
          "subway": "yes"
        }
      },
      {
        "type": "node",
        "id": 7976140071,
        "lat": 22.5729746,
        "lon": 88.4031237,
        "tags": {
          "name": "Salt Lake Stadium",
          "name:bn": "\u09b8\u09b2\u09cd\u099f \u09b2\u09c7\u0995 \u09b8\u09cd\u099f\u09c7\u09a1\u09bf\u09af\u09bc\u09be\u09ae",
          "network": "Kolkata Metro",
          "public_transport": "stop_position",
          "railway": "stop",
          "subway": "yes"
        }
      },
      {
        "type": "node",
        "id": 7976140072,
        "lat": 22.5721268,
        "lon": 88.3902408,
        "tags": {
          "name": "Phoolbagan",
          "name:bn": "\u09ab\u09c1\u09b2\u09ac\u09be\u0997\u09be\u09a8",
          "network": "Kolkata Metro",
          "network:wikidata": "Q1048849",
          "public_transport": "station",
          "railway": "station",
          "ref": "PBGB",
          "station": "subway",
          "subway": "yes",
          "wikidata": "Q30632551",
          "wikipedia": "en:Phoolbagan metro station"
        }
      },
      {
        "type": "node",
        "id": 8999697038,
        "lat": 22.6065505,
        "lon": 88.3952451,
        "tags": {
          "name": "Patipukur",
          "network": "IR",
          "operator": "ER",
          "public_transport": "station",
          "railway": "station",
          "ref": "PTKR",
          "wikidata": "Q56277048"
        }
      },
      {
        "type": "node",
        "id": 9566184417,
        "lat": 22.580991,
        "lon": 88.3911903,
        "tags": {
          "amenity": "bus_station",
          "bus": "yes",
          "name": "S-3B Bus Terminus",
          "public_transport": "station"
        }
      },
      {
        "type": "node",
        "id": 10091511718,
        "lat": 22.5777968,
        "lon": 88.4010448,
        "tags": {
          "amenity": "cinema",
          "brand": "PVR Cinemas",
          "brand:short": "PVR",
          "brand:wikidata": "Q3359908",
          "name": "PVR Cinemas",
          "short_name": "PVR"
        }
      },
      {
        "type": "node",
        "id": 10115952217,
        "lat": 22.6075228,
        "lon": 88.3922575,
        "tags": {
          "amenity": "charging_station",
          "name": "Electric vehicle charging station",
          "opening_hours": "24/7"
        }
      },
      {
        "type": "node",
        "id": 11446905870,
        "lat": 22.6055821,
        "lon": 88.3846637,
        "tags": {
          "addr:postcode": "700037",
          "addr:street": "Radha Gobinda Kar Road",
          "amenity": "bus_station",
          "bus": "yes",
          "name": "West Bengal Transport Corporation - Belgachia Deopt",
          "name:en": "West Bengal Transport Corporation - Belgachia Depot",
          "opening_hours": "Mo-Su 06:00-12:00",
          "operator": "WBTC",
          "public_transport": "station",
          "website": "https://transport.wb.gov.in/"
        }
      },
      {
        "type": "node",
        "id": 11608922669,
        "lat": 22.5735617,
        "lon": 88.4075987,
        "tags": {
          "amenity": "theatre",
          "name": "Gyan Mancha"
        }
      },
      {
        "type": "node",
        "id": 11703491150,
        "lat": 22.6059281,
        "lon": 88.3861588,
        "tags": {
          "name": "Belgachia",
          "name:bn": "\u09ac\u09c7\u09b2\u0997\u09be\u099b\u09bf\u09af\u09bc\u09be",
          "network": "Kolkata Metro",
          "operator": "Metro Railway, Kolkata",
          "public_transport": "stop_position",
          "railway": "stop",
          "subway": "yes"
        }
      },
      {
        "type": "node",
        "id": 11703491151,
        "lat": 22.6061148,
        "lon": 88.3865976,
        "tags": {
          "name": "Belgachia",
          "name:bn": "\u09ac\u09c7\u09b2\u0997\u09be\u099b\u09bf\u09af\u09bc\u09be",
          "network": "Kolkata Metro",
          "operator": "Metro Railway, Kolkata",
          "public_transport": "stop_position",
          "railway": "stop",
          "subway": "yes"
        }
      },
      {
        "type": "node",
        "id": 12725821244,
        "lat": 22.5917545,
        "lon": 88.3908911,
        "tags": {
          "name": "Bidhannagar Road",
          "name:bn": "\u09ac\u09bf\u09a7\u09be\u09a8\u09a8\u0997\u09b0 \u09b0\u09cb\u09a1",
          "operator": "Eastern Railways",
          "public_transport": "stop_position",
          "railway": "stop",
          "train": "yes",
          "wikidata": "Q4904158",
          "wikipedia": "en:Bidhannagar Road railway station"
        }
      }
    ]
  }
}