{
  "pois_1km": {
    "version": 0.6,
    "generator": "Overpass API 0.7.62.8 e802775f",
    "osm3s": {
      "timestamp_osm_base": "2025-09-06T09:47:45Z",
      "copyright": "The data included in this document is from www.openstreetmap.org. The data is made available under ODbL."
    },
    "elements": [
      {
        "type": "node",
        "id": 1684554285,
        "lat": 22.5843732,
        "lon": 88.4289579,
        "tags": {
          "amenity": "hospital",
          "healthcare": "hospital",
          "name": "Anandalok(\u0986\u09a8\u09a8\u09cd\u09a6\u09b2\u09cb\u0995)",
          "name:bn": "\u0986\u09a8\u09a8\u09cd\u09a6\u09b2\u09cb\u0995\u00a0\u09b9\u09be\u09b8\u09aa\u09be\u09a4\u09be\u09b2"
        }
      },
      {
        "type": "node",
        "id": 2323668685,
        "lat": 22.5797308,
        "lon": 88.4256283,
        "tags": {
          "addr:housename": "EE Block, Salt Lake City Kolkata, West Bengal\u200e",
          "amenity": "bank",
          "atm": "yes",
          "brand": "Axis Bank",
          "brand:wikidata": "Q2003549",
          "name": "Axis Bank"
        }
      },
      {
        "type": "node",
        "id": 2323672796,
        "lat": 22.5798125,
        "lon": 88.4256015,
        "tags": {
          "addr:housename": "EE Block, Salt Lake City Kolkata, West Bengal\u200e",
          "name": "In & Out",
          "note": "Departmental Store",
          "shop": "supermarket"
        }
      },
      {
        "type": "node",
        "id": 2454098351,
        "lat": 22.5721537,
        "lon": 88.4325447,
        "tags": {
          "amenity": "restaurant",
          "name": "Alibaba"
        }
      },
      {
        "type": "node",
        "id": 2454098354,
        "lat": 22.5771253,
        "lon": 88.4256814,
        "tags": {
          "amenity": "restaurant",
          "name": "BB's"
        }
      },
      {
        "type": "node",
        "id": 2454098356,
        "lat": 22.576509,
        "lon": 88.4311447,
        "tags": {
          "amenity": "fast_food",
          "brand": "Domino's",
          "brand:ks": "\u0688\u0648\u0645\u06cc\u0646\u0648\u0632",
          "brand:pa": "\u0a21\u0a4b\u0a2e\u0a40\u0a28\u0a4b\u0a1c\u0a3c",
          "brand:ur": "\u0688\u0648\u0645\u06cc\u0646\u0648\u0632",
          "brand:wikidata": "Q839466",
          "brand:wikipedia": "en:Domino's Pizza",
          "cuisine": "pizza",
          "name": "Domino's",
          "name:ks": "\u0688\u0648\u0645\u06cc\u0646\u0648\u0632",
          "name:pa": "\u0a21\u0a4b\u0a2e\u0a40\u0a28\u0a4b\u0a1c\u0a3c",
          "name:ur": "\u0688\u0648\u0645\u06cc\u0646\u0648\u0632",
          "takeaway": "yes"
        }
      },
      {
        "type": "node",
        "id": 2461185548,
        "lat": 22.5725403,
        "lon": 88.4213668,
        "tags": {
          "amenity": "restaurant",
          "name": "Bowler's Den"
        }
      },
      {
        "type": "node",
        "id": 2461327576,
        "lat": 22.5741317,
        "lon": 88.4337831,
        "tags": {
          "amenity": "atm",
          "operator": "Indian Overseas Bank ATM"
        }
      },
      {
        "type": "node",
        "id": 2461327581,
        "lat": 22.5735671,
        "lon": 88.4337242,
        "tags": {
          "amenity": "bank",
          "brand": "United Bank of India",
          "brand:wikidata": "Q2003237",
          "brand:wikipedia": "en:United Bank of India",
          "name": "United Bank of India",
          "name:en": "United Bank of India",
          "short_name": "UBI",
          "website": "http://www.unitedbankofindia.com"
        }
      },
      {
        "type": "node",
        "id": 2461327591,
        "lat": 22.573837,
        "lon": 88.433944,
        "tags": {
          "amenity": "atm",
          "operator": "United Bank Of India ATM"
        }
      },
      {
        "type": "node",
        "id": 2461363351,
        "lat": 22.5717713,
        "lon": 88.4330134,
        "tags": {
          "amenity": "bank",
          "brand": "Axis Bank",
          "brand:wikidata": "Q2003549",
          "brand:wikipedia": "en:Axis Bank",
          "name": "Axis Bank",
          "name:en": "Axis Bank",
          "website": "https://www.axisbank.com"
        }
      },
      {
        "type": "node",
        "id": 2461363357,
        "lat": 22.5706247,
        "lon": 88.431817,
        "tags": {
          "amenity": "restaurant",
          "name": "Red Hot Chilli Peppers",
          "phone": "+913323570326"
        }
      },
      {
        "type": "node",
        "id": 2802912903,
        "lat": 22.5693637,
        "lon": 88.429062,
        "tags": {
          "amenity": "restaurant",
          "cuisine": "indian",
          "name": "Nalban Food Court"
        }
      },
      {
        "type": "node",
        "id": 4129499712,
        "lat": 22.5812129,
        "lon": 88.4254218,
        "tags": {
          "amenity": "doctors",
          "healthcare": "doctor"
        }
      },
      {
        "type": "node",
        "id": 7069051103,
        "lat": 22.5847892,
        "lon": 88.4231722,
        "tags": {
          "addr:city": "Bidhannagar",
          "addr:district": "Kolkata",
          "addr:full": "Dk - 7/3,3rd Avenue Road,Salt Lake City",
          "addr:postcode": "700091",
          "addr:state": "West Bengal",
          "amenity": "hospital",
          "emergency": "yes",
          "healthcare": "hospital",
          "name": "Anandalok Hospital, Salt Lake City",
          "source": "OpenGovernmentData",
          "website": "anandalokhospitalraniganj.com",
          "wikidata": "Q4751335",
          "wikipedia": "en:Anandalok Hospital"
        }
      },
      {
        "type": "node",
        "id": 7074329128,
        "lat": 22.5776362,
        "lon": 88.4335618,
        "tags": {
          "addr:district": "Kolkata",
          "addr:full": "Cn-5 Sector 5 Salt Lake City",
          "addr:postcode": "700091",
          "addr:state": "West Bengal",
          "amenity": "hospital",
          "healthcare": "hospital",
          "name": "Rotary Narayana Nethralaya",
          "source": "OpenGovernmentData"
        }
      },
      {
        "type": "node",
        "id": 7668176282,
        "lat": 22.5756826,
        "lon": 88.4246568,
        "tags": {
          "addr:district": "Kolkata",
          "addr:full": "EM Block, Sector V, Bidhannagar",
          "addr:postcode": "700091",
          "addr:state": "West Bengal",
          "amenity": "clinic",
          "healthcare": "clinic",
          "name": "ECHS Polyclinic",
          "source": "Local Knowledge"
        }
      },
      {
        "type": "node",
        "id": 7668176345,
        "lat": 22.5820094,
        "lon": 88.4351474,
        "tags": {
          "addr:district": "North 24 Parganas",
          "addr:full": "AN Block, Bidhannagar",
          "addr:postcode": "700091",
          "addr:state": "West Bengal",
          "amenity": "hospital",
          "healthcare": "hospital",
          "name": "Composite Hospital",
          "source": "Local Knowledge"
        }
      },
      {
        "type": "node",
        "id": 9994552619,
        "lat": 22.5766771,
        "lon": 88.4346646,
        "tags": {
          "amenity": "atm",
          "brand": "State Bank of India",
          "brand:wikidata": "Q1340361",
          "operator": "State Bank of India",
          "operator:wikidata": "Q1340361",
          "short_name": "SBI"
        }
      },
      {
        "type": "node",
        "id": 10091506118,
        "lat": 22.5727953,
        "lon": 88.4214503,
        "tags": {
          "addr:postcode": "700106",
          "alt_name": "Kentucky Fried Chicken",
          "alt_name:en": "Kentucky Fried Chicken",
          "alt_name:hi": "\u0915\u0947\u0902\u091f\u0941\u0915\u0940 \u092b\u094d\u0930\u093e\u0907\u0921 \u091a\u093f\u0915\u0928",
          "alt_name:pa": "\u0a15\u0a48\u0a02\u0a1f\u0a41\u0a15\u0a40 \u0a2b\u0a4d\u0a30\u0a3e\u0a08\u0a21 \u0a1a\u0a3f\u0a15\u0a28",
          "alt_name:pnb": "\u06a9\u06cc\u0646\u0679\u06a9\u06cc \u0641\u0631\u0627\u0626\u06cc\u0688 \u0686\u06a9\u0646",
          "alt_name:ur": "\u06a9\u06cc\u0646\u0679\u06a9\u06cc \u0641\u0631\u0627\u0626\u06cc\u0688 \u0686\u06a9\u0646",
          "amenity": "fast_food",
          "brand": "KFC",
          "brand:en": "KFC",
          "brand:hi": "\u0915\u0947\u090f\u092b\u0938\u0940",
          "brand:pa": "\u0a15\u0a47\u0a10\u0a2b\u0a38\u0a40",
          "brand:pnb": "\u06a9\u06d2 \u0627\u06cc\u0641 \u0633\u06cc",
          "brand:ur": "\u06a9\u06d2 \u0627\u06cc\u0641 \u0633\u06cc",
          "brand:wikidata": "Q524757",
          "cuisine": "chicken",
          "internet_access": "wlan",
          "name": "KFC",
          "name:en": "KFC",
          "name:hi": "\u0915\u0947\u090f\u092b\u0938\u0940",
          "name:pa": "\u0a15\u0a47\u0a10\u0a2b\u0a38\u0a40",
          "name:pnb": "\u06a9\u06d2 \u0627\u06cc\u0641 \u0633\u06cc",
          "name:ur": "\u06a9\u06d2 \u0627\u06cc\u0641 \u0633\u06cc",
          "phone": "080 4275 4444",
          "takeaway": "yes",
          "website": "https://kfc.co.in/"
        }
      },
      {
        "type": "node",
        "id": 10091522317,
        "lat": 22.5824191,
        "lon": 88.4240343,
        "tags": {
          "addr:postcode": "700064",
          "amenity": "fast_food",
          "brand": "Wow! Momo",
          "brand:wikidata": "Q8037446",
          "check_date": "2023-10-27",
          "cuisine": "momo",
          "name": "Wow! Momo",
          "opening_hours": "10:00-21:30",
          "takeaway": "yes",
          "website": "https://www.wowmomo.com/"
        }
      },
      {
        "type": "node",
        "id": 10091522617,
        "lat": 22.5832792,
        "lon": 88.4226036,
        "tags": {
          "amenity": "fast_food",
          "brand": "Wow! Momo",
          "brand:wikidata": "Q8037446",
          "cuisine": "momo",
          "name": "Wow! Momo",
          "takeaway": "yes"
        }
      },
      {
        "type": "node",
        "id": 10092532718,
        "lat": 22.5836175,
        "lon": 88.4347856,
        "tags": {
          "addr:postcode": "700102",
          "addr:street": "AN Block",
          "amenity": "restaurant",
          "name": "The Punjab Mirchi",
          "opening_hours": "Mo-Su 11:00-00:00"
        }
      },
      {
        "type": "node",
        "id": 10093193617,
        "lat": 22.5835442,
        "lon": 88.434623,
        "tags": {
          "amenity": "restaurant",
          "name": "Yummy Puds"
        }
      },
      {
        "type": "node",
        "id": 12196681537,
        "lat": 22.5777742,
        "lon": 88.4320244,
        "tags": {
          "air_conditioning": "yes",
          "amenity": "fast_food",
          "brand": "Mio Amore",
          "brand:wikidata": "Q130534919",
          "diet:vegetarian": "yes",
          "indoor_seating": "no",
          "name": "Mio Amore",
          "name:bn": "\u09ae\u09bf\u0993 \u0986\u09ae\u09cb\u09b0\u09c7",
          "name:en": "Mio Amore",
          "shop": "pastry",
          "takeaway": "yes"
        }
      },
      {
        "type": "node",
        "id": 12206764159,
        "lat": 22.5809684,
        "lon": 88.4248515,
        "tags": {
          "addr:block": "EE",
          "addr:housename": "Dakshin Dinajpur Zilla Parishad Bhawan",
          "addr:housenumber": "6/1",
          "addr:place": "Sector 2, Saltlake",
          "addr:postcode": "700091",
          "amenity": "restaurant",
          "contact:mobile": "+91 98302 02560;+91 94330 71361",
          "cuisine": "chicken;chinese;indian;noodle;regional",
          "level": "0",
          "name": "Swastineer Canteen",
          "opening_hours": "Mo-Su 08:00-22:00",
          "takeaway": "yes",
          "wheelchair": "limited"
        }
      },
      {
        "type": "node",
        "id": 12206764160,
        "lat": 22.5812978,
        "lon": 88.4246132,
        "tags": {
          "amenity": "restaurant",
          "cuisine": "chicken;chinese;indian;noodle;regional;coffee_shop;ice_cream",
          "name": "Blue Plum",
          "takeaway": "yes",
          "wheelchair": "limited"
        }
      },
      {
        "type": "node",
        "id": 12206764165,
        "lat": 22.5805542,
        "lon": 88.4250454,
        "tags": {
          "amenity": "bank",
          "atm": "yes",
          "branch": "Salt Lake Karunamoyee",
          "brand": "HDFC Bank",
          "brand:wikidata": "Q631047",
          "level": "0",
          "name": "HDFC Bank",
          "opening_hours": "Mo-Sa 09:30-15:30; PH off;",
          "operator": "HDFC Bank",
          "operator:wikidata": "Q631047",
          "short_name": "HDFC",
          "wheelchair": "no"
        }
      },
      {
        "type": "node",
        "id": 12206764169,
        "lat": 22.5813868,
        "lon": 88.4245954,
        "tags": {
          "air_conditioning": "yes",
          "amenity": "cafe",
          "brand": "Cafe Coffee Day",
          "brand:wikidata": "Q5017235",
          "cuisine": "coffee_shop",
          "indoor_seating": "yes",
          "level": "0",
          "name": "Cafe Coffee Day",
          "smoking": "no",
          "takeaway": "yes",
          "toilets:access": "customers",
          "wheelchair": "no"
        }
      },
      {
        "type": "node",
        "id": 12206764170,
        "lat": 22.580695,
        "lon": 88.4250447,
        "tags": {
          "amenity": "atm",
          "brand": "HDFC Bank",
          "brand:wikidata": "Q631047",
          "cash_in": "no",
          "level": "0",
          "opening_hours": "24/7",
          "operator": "HDFC Bank",
          "operator:wikidata": "Q631047",
          "short_name": "HDFC",
          "wheelchair": "no"
        }
      },
      {
        "type": "node",
        "id": 12209860058,
        "lat": 22.5763944,
        "lon": 88.4307436,
        "tags": {
          "air_conditioning": "yes",
          "amenity": "fast_food",
          "brand": "Burger King",
          "brand:wikidata": "Q177054",
          "brand:wikipedia": "en:Burger King",
          "cuisine": "burger",
          "indoor_seating": "yes",
          "level": "0",
          "name": "Burger King",
          "takeaway": "yes",
          "toilets": "yes",
          "toilets:access": "customers"
        }
      },
      {
        "type": "node",
        "id": 12209860059,
        "lat": 22.5763607,
        "lon": 88.4308164,
        "tags": {
          "air_conditioning": "yes",
          "amenity": "fast_food",
          "cuisine": "indian;regional",
          "indoor_seating": "yes",
          "name": "Nizams Express",
          "takeaway": "yes",
          "wheelchair": "yes"
        }
      },
      {
        "type": "node",
        "id": 12289848051,
        "lat": 22.5723916,
        "lon": 88.4325857,
        "tags": {
          "addr:city": "Salt Lake Sector 5",
          "addr:district": "Kolkata",
          "addr:postcode": "700091",
          "addr:street": "Imagine Techpark, Grounds, Salt Lake Bypass, DP Block, Sector V, Bidhannagar, Kolkata, West Bengal 700091",
          "amenity": "restaurant",
          "name": "Sizzle Club n Dine Restaurant",
          "opening_hours": "Mo-Su 10:00-22:00",
          "phone": "+91 79804 28232",
          "website": "https://www.sizzleclubndine.co.in/"
        }
      },
      {
        "type": "node",
        "id": 13020929279,
        "lat": 22.5847897,
        "lon": 88.4325866,
        "tags": {
          "amenity": "restaurant",
          "fixme": "location",
          "name": "Agarwal's Kitchen"
        }
      },
      {
        "type": "node",
        "id": 13020934262,
        "lat": 22.5846714,
        "lon": 88.4327191,
        "tags": {
          "amenity": "fast_food",
          "fixme": "location and name",
          "name": "Snack Point"
        }
      }
    ]
  },
  "pois_2_5km": {
    "version": 0.6,
    "generator": "Overpass API 0.7.62.8 e802775f",
    "osm3s": {
      "timestamp_osm_base": "2025-09-06T09:47:45Z",
      "copyright": "The data included in this document is from www.openstreetmap.org. The data is made available under ODbL."
    },
    "elements": [
      {
        "type": "node",
        "id": 1702530312,
        "lat": 22.5804274,
        "lon": 88.438056,
        "tags": {
          "bus": "yes",
          "highway": "bus_stop",
          "name": "Technopolis",
          "public_transport": "stop_position"
        }
      },
      {
        "type": "node",
        "id": 1726094711,
        "lat": 22.5865031,
        "lon": 88.4245172,
        "tags": {
          "amenity": "fuel",
          "fuel:diesel": "no",
          "name": "Daga Service Station"
        }
      },
      {
        "type": "node",
        "id": 1742495415,
        "lat": 22.5796113,
        "lon": 88.4257949,
        "tags": {
          "addr:housename": "EE Block, Salt Lake City Kolkata, West Bengal 700091\u200e",
          "amenity": "fuel",
          "brand": "Bharat Petroleum",
          "brand:wikidata": "Q854826",
          "name": "Bharat Petroleum",
          "operator": "HP"
        }
      },
      {
        "type": "node",
        "id": 1850221742,
        "lat": 22.5732985,
        "lon": 88.4135971,
        "tags": {
          "amenity": "cinema",
          "name": "Broadway"
        }
      },
      {
        "type": "node",
        "id": 2009122783,
        "lat": 22.5814478,
        "lon": 88.4496537,
        "tags": {
          "bus": "yes",
          "highway": "bus_stop",
          "name": "DLF",
          "public_transport": "stop_position"
        }
      },
      {
        "type": "node",
        "id": 2460827382,
        "lat": 22.5891916,
        "lon": 88.4092137,
        "tags": {
          "amenity": "fuel",
          "brand": "Indian Oil",
          "brand:wikidata": "Q1289348",
          "brand:wikipedia": "en:Indian Oil Corporation",
          "name": "Indian Oil Petrol Pump",
          "operator": "Indian Oil"
        }
      },
      {
        "type": "node",
        "id": 2461308629,
        "lat": 22.5765416,
        "lon": 88.430382,
        "tags": {
          "amenity": "fuel",
          "brand": "Hindustan Petroleum",
          "brand:wikidata": "Q1619375",
          "name": "HP Petrol Pump",
          "official_name": "Hindustan Petroleum"
        }
      },
      {
        "type": "node",
        "id": 2464357889,
        "lat": 22.5819529,
        "lon": 88.4485138,
        "tags": {
          "amenity": "cinema",
          "name": "Nazrul Tirtha",
          "name:bn": "\u09a8\u099c\u09b0\u09c1\u09b2 \u09a4\u09c0\u09b0\u09cd\u09a5",
          "name:hi": "\u0928\u091c\u0930\u0941\u0932 \u0924\u0940\u0930\u094d\u0925",
          "screen": "3",
          "website": "http://nazrultirtha.co.in/",
          "wikidata": "Q17118225",
          "wikimedia_commons": "Category:Nazrul Tirtha",
          "wikipedia": "en:Nazrul Tirtha"
        }
      },
      {
        "type": "node",
        "id": 4933663221,
        "lat": 22.5717932,
        "lon": 88.4090241,
        "tags": {
          "amenity": "fuel",
          "name": "BP Petrol Pump",
          "name:en": "BP Petrol Pump"
        }
      },
      {
        "type": "node",
        "id": 5041514565,
        "lat": 22.5686412,
        "lon": 88.4330725,
        "tags": {
          "amenity": "cinema",
          "name": "RDB Cinemas"
        }
      },
      {
        "type": "node",
        "id": 5189265479,
        "lat": 22.5862751,
        "lon": 88.4215241,
        "tags": {
          "name": "Karunamoyee",
          "name:bn": "\u0995\u09b0\u09c1\u09a3\u09be\u09ae\u09af\u09bc\u09c0",
          "network": "Kolkata Metro",
          "public_transport": "stop_position",
          "railway": "stop",
          "subway": "yes"
        }
      },
      {
        "type": "node",
        "id": 5777572361,
        "lat": 22.5862923,
        "lon": 88.421568,
        "tags": {
          "name": "Karunamoyee",
          "name:bn": "\u0995\u09b0\u09c1\u09a3\u09be\u09ae\u09af\u09bc\u09c0",
          "network": "Kolkata Metro",
          "public_transport": "stop_position",
          "railway": "stop",
          "subway": "yes"
        }
      },
      {
        "type": "node",
        "id": 5777572424,
        "lat": 22.5809412,
        "lon": 88.4290204,
        "tags": {
          "name": "Salt Lake Sector V",
          "name:bn": "\u09b8\u09b2\u09cd\u099f\u09b2\u09c7\u0995 \u09b8\u09c7\u0995\u09cd\u099f\u09b0 V",
          "network": "Kolkata Metro",
          "public_transport": "stop_position",
          "railway": "stop",
          "ref": "1",
          "subway": "yes"
        }
      },
      {
        "type": "node",
        "id": 7628479190,
        "lat": 22.580895,
        "lon": 88.4290467,
        "tags": {
          "name": "Salt Lake Sector V",
          "name:bn": "\u09b8\u09b2\u09cd\u099f\u09b2\u09c7\u0995 \u09b8\u09c7\u0995\u09cd\u099f\u09b0 V",
          "network": "Kolkata Metro",
          "public_transport": "stop_position",
          "railway": "stop",
          "ref": "1",
          "subway": "yes"
        }
      },
      {
        "type": "node",
        "id": 7976140059,
        "lat": 22.58638,
        "lon": 88.4215312,
        "tags": {
          "name": "Karunamoyee",
          "name:bn": "\u0995\u09b0\u09c1\u09a3\u09be\u09ae\u09af\u09bc\u09c0",
          "network": "Kolkata Metro",
          "network:wikidata": "Q1048849",
          "operator": "Kolkata Metro Rail Corporation Limited (KMRCL)",
          "public_transport": "station",
          "railway": "station",
          "ref": "KESA",
          "station": "subway",
          "subway": "yes",
          "wikidata": "Q62019524",
          "wikipedia": "en:Karunamoyee metro station"
        }
      },
      {
        "type": "node",
        "id": 7976140060,
        "lat": 22.5904737,
        "lon": 88.4156247,
        "tags": {
          "name": "Central Park",
          "name:bn": "\u09b8\u09c7\u09a8\u09cd\u099f\u09cd\u09b0\u09be\u09b2 \u09aa\u09be\u09b0\u09cd\u0995",
          "network": "Kolkata Metro",
          "network:wikidata": "Q1048849",
          "operator": "Kolkata Metro Rail Corporation Limited (KMRCL)",
          "public_transport": "station",
          "railway": "station",
          "ref": "CPSA",
          "station": "subway",
          "subway": "yes",
          "wikidata": "Q30632539",
          "wikipedia": "en:Central Park metro station"
        }
      },
      {
        "type": "node",
        "id": 7976140061,
        "lat": 22.5903984,
        "lon": 88.4156434,
        "tags": {
          "name": "Central Park",
          "name:bn": "\u09b8\u09c7\u09a8\u09cd\u099f\u09cd\u09b0\u09be\u09b2 \u09aa\u09be\u09b0\u09cd\u0995",
          "network": "Kolkata Metro",
          "public_transport": "stop_position",
          "railway": "stop",
          "subway": "yes"
        }
      },
      {
        "type": "node",
        "id": 7976140062,
        "lat": 22.5903593,
        "lon": 88.4156358,
        "tags": {
          "name": "Central Park",
          "name:bn": "\u09b8\u09c7\u09a8\u09cd\u099f\u09cd\u09b0\u09be\u09b2 \u09aa\u09be\u09b0\u09cd\u0995",
          "network": "Kolkata Metro",
          "public_transport": "stop_position",
          "railway": "stop",
          "subway": "yes"
        }
      },
      {
        "type": "node",
        "id": 7976140063,
        "lat": 22.5870993,
        "lon": 88.4078908,
        "tags": {
          "name": "City Centre",
          "name:bn": "\u09b8\u09bf\u099f\u09bf \u09b8\u09c7\u09a8\u09cd\u099f\u09be\u09b0",
          "network": "Kolkata Metro",
          "network:wikidata": "Q1048849",
          "operator": "Kolkata Metro Rail Corporation Limited (KMRCL)",
          "public_transport": "station",
          "railway": "station",
          "ref": "CCSC",
          "station": "subway",
          "subway": "yes",
          "wikidata": "Q63256235",
          "wikipedia": "en:City Center metro station"
        }
      },
      {
        "type": "node",
        "id": 7976140064,
        "lat": 22.5869882,
        "lon": 88.4079174,
        "tags": {
          "name": "City Centre",
          "name:bn": "\u09b8\u09bf\u099f\u09bf \u09b8\u09c7\u09a8\u09cd\u099f\u09be\u09b0",
          "network": "Kolkata Metro",
          "public_transport": "stop_position",
          "railway": "stop",
          "subway": "yes"
        }
      },
      {
        "type": "node",
        "id": 7976140065,
        "lat": 22.5869532,
        "lon": 88.4079412,
        "tags": {
          "name": "City Centre",
          "name:bn": "\u09b8\u09bf\u099f\u09bf \u09b8\u09c7\u09a8\u09cd\u099f\u09be\u09b0",
          "network": "Kolkata Metro",
          "public_transport": "stop_position",
          "railway": "stop",
          "subway": "yes"
        }
      },
      {
        "type": "node",
        "id": 7976140073,
        "lat": 22.5809434,
        "lon": 88.4290872,
        "tags": {
          "name": "Salt Lake Sector V",
          "name:bn": "\u09b8\u09b2\u09cd\u099f\u09b2\u09c7\u0995 \u09b8\u09c7\u0995\u09cd\u099f\u09b0 V",
          "network": "Kolkata Metro",
          "network:wikidata": "Q1048849",
          "operator": "Kolkata Metro Rail Corporation Limited (KMRCL)",
          "public_transport": "station",
          "railway": "station",
          "ref": "SVSA",
          "station": "subway",
          "subway": "yes",
          "wheelchair": "limited",
          "wikidata": "Q55632405",
          "wikipedia": "en:Salt Lake Sector-V metro station"
        }
      },
      {
        "type": "node",
        "id": 10553967709,
        "lat": 22.5815869,
        "lon": 88.4481696,
        "tags": {
          "addr:postcode": "700059",
          "addr:street": "Street Number 30",
          "amenity": "charging_station",
          "name": "Electric Vehicle Charging Station",
          "opening_hours": "24/7"
        }
      },
      {
        "type": "node",
        "id": 11608922669,
        "lat": 22.5735617,
        "lon": 88.4075987,
        "tags": {
          "amenity": "theatre",
          "name": "Gyan Mancha"
        }
      }
    ]
  }
}