{
  "pois_1km": {
    "version": 0.6,
    "generator": "Overpass API 0.7.62.8 e802775f",
    "osm3s": {
      "timestamp_osm_base": "2025-09-06T06:59:11Z",
      "copyright": "The data included in this document is from www.openstreetmap.org. The data is made available under ODbL."
    },
    "elements": [
      {
        "type": "node",
        "id": 5885381449,
        "lat": 28.5881105,
        "lon": 77.1687372,
        "tags": {
          "amenity": "doctors",
          "check_date": "2024-04-13",
          "healthcare": "doctor",
          "name": "Doctor Yadav's Medicare",
          "name:hi": "\u0921\u0949\u0915\u094d\u091f\u0930 \u092f\u093e\u0926\u0935 \u092e\u0947\u0921\u093f\u0915\u0948\u0930"
        }
      },
      {
        "type": "node",
        "id": 5885381450,
        "lat": 28.5880799,
        "lon": 77.1687667,
        "tags": {
          "amenity": "pharmacy",
          "check_date": "2024-04-13",
          "delivery": "yes",
          "healthcare": "pharmacy",
          "level": "0",
          "name": "S.S. Medicos",
          "phone": "+91-96436-41111"
        }
      },
      {
        "type": "node",
        "id": 6760233482,
        "lat": 28.5877629,
        "lon": 77.1674682,
        "tags": {
          "amenity": "restaurant",
          "name": "Faculty of Food"
        }
      },
      {
        "type": "node",
        "id": 6760297385,
        "lat": 28.587778,
        "lon": 77.1675315,
        "tags": {
          "amenity": "cafe",
          "name": "The Construction Company"
        }
      },
      {
        "type": "node",
        "id": 6760297386,
        "lat": 28.5877769,
        "lon": 77.1673736,
        "tags": {
          "amenity": "restaurant",
          "branch": "South Campus",
          "cuisine": "italian",
          "diet:vegetarian": "yes",
          "level": "0",
          "name": "Big Yellow Door",
          "wheelchair": "no"
        }
      },
      {
        "type": "node",
        "id": 7138493207,
        "lat": 28.595138,
        "lon": 77.1773,
        "tags": {
          "addr:district": "New Delhi",
          "addr:full": "Near Baratghar, Bapudham",
          "addr:postcode": "110021",
          "addr:state": "Delhi",
          "amenity": "clinic",
          "contact:phone": "011-24101218",
          "description": "Dispensaries",
          "health_facility:type": "dispensary",
          "healthcare": "centre",
          "name": "Bapudham Allopathic Dispensary",
          "source": "OpenGovernmentData"
        }
      },
      {
        "type": "node",
        "id": 7205216485,
        "lat": 28.596518,
        "lon": 77.1769969,
        "tags": {
          "amenity": "bank",
          "brand": "State Bank of India",
          "brand:ur": "\u0627\u0633\u0679\u06cc\u0679 \u0628\u06cc\u0646\u06a9 \u0622\u0641 \u0627\u0646\u0688\u06cc\u0627",
          "brand:wikidata": "Q1340361",
          "brand:wikipedia": "en:State Bank of India",
          "name": "State Bank of India",
          "name:ur": "\u0627\u0633\u0679\u06cc\u0679 \u0628\u06cc\u0646\u06a9 \u0622\u0641 \u0627\u0646\u0688\u06cc\u0627",
          "short_name": "SBI",
          "short_name:ur": "\u0627\u06cc\u0633 \u0628\u06cc \u0622\u0626\u06cc"
        }
      },
      {
        "type": "node",
        "id": 11813567110,
        "lat": 28.5884383,
        "lon": 77.1687482,
        "tags": {
          "amenity": "restaurant",
          "name": "Off Campus"
        }
      },
      {
        "type": "node",
        "id": 11813590563,
        "lat": 28.5886052,
        "lon": 77.1690217,
        "tags": {
          "amenity": "restaurant",
          "check_date": "2024-04-13",
          "level": "0;1",
          "name": "QD All Day Diner",
          "wheelchair": "yes"
        }
      },
      {
        "type": "node",
        "id": 11813597428,
        "lat": 28.5883016,
        "lon": 77.1685409,
        "tags": {
          "amenity": "restaurant",
          "brand": "Pizza Hut",
          "brand:wikidata": "Q191615",
          "check_date": "2024-07-23",
          "cuisine": "pizza",
          "internet_access": "no",
          "level": "0",
          "name": "Pizza Hut",
          "name:hi": "\u092a\u093f\u091c\u093c\u094d\u091c\u093c\u093e \u0939\u091f",
          "opening_hours": "11:00-23:00",
          "wheelchair": "no"
        }
      },
      {
        "type": "node",
        "id": 11813613801,
        "lat": 28.588688,
        "lon": 77.1691745,
        "tags": {
          "amenity": "cafe",
          "check_date": "2024-04-13",
          "level": "0",
          "name": "Love Bite Cafe",
          "name:hi": "\u0932\u0935 \u092c\u093e\u0907\u091f \u0915\u0948\u092b\u093c\u0947",
          "wheelchair": "yes"
        }
      },
      {
        "type": "node",
        "id": 11813620034,
        "lat": 28.588414,
        "lon": 77.1686436,
        "tags": {
          "amenity": "cafe",
          "level": "1",
          "name": "Igniter Cafe"
        }
      },
      {
        "type": "node",
        "id": 11813620035,
        "lat": 28.5884323,
        "lon": 77.1686362,
        "tags": {
          "amenity": "fast_food",
          "level": "0",
          "name": "The Waffle Co."
        }
      },
      {
        "type": "node",
        "id": 11813623271,
        "lat": 28.5886031,
        "lon": 77.1689683,
        "tags": {
          "amenity": "cafe",
          "check_date": "2024-04-13",
          "level": "0",
          "name": "Caf\u00e9 69",
          "name:hi": "\u0915\u092b\u0947 \u096c\u096f"
        }
      },
      {
        "type": "node",
        "id": 11813626426,
        "lat": 28.5887593,
        "lon": 77.169349,
        "tags": {
          "amenity": "restaurant",
          "check_date": "2024-04-13",
          "internet_access": "wlan",
          "internet_access:fee": "customers",
          "level": "0;1",
          "name": "Caf\u00e9 Sandoz",
          "name:hi": "\u0915\u0948\u092b\u093c\u0947 \u0938\u0947\u0948\u0902\u0921\u094b\u091c\u093c",
          "outdoor_seating": "yes",
          "payment:cash": "yes",
          "payment:credit_cards": "yes",
          "payment:debit_cards": "yes",
          "toilets": "yes",
          "wheelchair": "limited"
        }
      },
      {
        "type": "node",
        "id": 11813629835,
        "lat": 28.588561,
        "lon": 77.168842,
        "tags": {
          "amenity": "fast_food",
          "check_date": "2024-07-23",
          "level": "0",
          "name": "Burger Singh",
          "name:hi": "\u092c\u0930\u094d\u0917\u0930 \u0938\u093f\u0902\u0939"
        }
      },
      {
        "type": "node",
        "id": 11813632593,
        "lat": 28.5885827,
        "lon": 77.1690539,
        "tags": {
          "amenity": "cafe",
          "check_date": "2024-04-13",
          "name": "Ricos",
          "wheelchair": "no"
        }
      },
      {
        "type": "node",
        "id": 11813632902,
        "lat": 28.5884966,
        "lon": 77.1688106,
        "tags": {
          "amenity": "cafe",
          "check_date": "2024-04-13",
          "level": "1",
          "name": "Awarapan Cafe"
        }
      },
      {
        "type": "node",
        "id": 11813651719,
        "lat": 28.5884365,
        "lon": 77.1686906,
        "tags": {
          "amenity": "restaurant",
          "check_date": "2024-04-13",
          "level": "0",
          "name": "Wrap O Burger",
          "wheelchair": "yes"
        }
      },
      {
        "type": "node",
        "id": 11813654139,
        "lat": 28.5878707,
        "lon": 77.168874,
        "tags": {
          "amenity": "clinic",
          "check_date": "2024-04-13",
          "healthcare": "clinic",
          "level": "1",
          "name": "Medi Derma Laser Clinic",
          "wheelchair": "no"
        }
      },
      {
        "type": "node",
        "id": 11813659682,
        "lat": 28.5881876,
        "lon": 77.1682611,
        "tags": {
          "amenity": "cafe",
          "check_date": "2024-04-13",
          "level": "0",
          "name": "Pandit Ji Partha Hut",
          "wheelchair": "no"
        }
      },
      {
        "type": "node",
        "id": 11813666366,
        "lat": 28.5879768,
        "lon": 77.1688142,
        "tags": {
          "amenity": "cafe",
          "check_date": "2024-04-13",
          "name": "Immortal Gaming Cafe",
          "wheelchair": "no"
        }
      },
      {
        "type": "node",
        "id": 11813667716,
        "lat": 28.587754,
        "lon": 77.1673336,
        "tags": {
          "amenity": "restaurant",
          "check_date": "2024-04-13",
          "name": "China Bowl"
        }
      },
      {
        "type": "node",
        "id": 11813670868,
        "lat": 28.5877126,
        "lon": 77.1672986,
        "tags": {
          "amenity": "restaurant",
          "check_date": "2024-04-13",
          "name": "Brickyard"
        }
      },
      {
        "type": "node",
        "id": 11813672561,
        "lat": 28.5879326,
        "lon": 77.1676506,
        "tags": {
          "amenity": "restaurant",
          "check_date": "2024-04-13",
          "name": "Hello! Canteen"
        }
      },
      {
        "type": "node",
        "id": 11813674025,
        "lat": 28.5878444,
        "lon": 77.1675983,
        "tags": {
          "amenity": "cafe",
          "check_date": "2024-04-13",
          "level": "0",
          "name": "Cafe Mitro"
        }
      },
      {
        "type": "node",
        "id": 11813674213,
        "lat": 28.5879227,
        "lon": 77.1676561,
        "tags": {
          "amenity": "restaurant",
          "check_date": "2024-04-13",
          "name": "Azhar Biryani"
        }
      },
      {
        "type": "node",
        "id": 11813676621,
        "lat": 28.5878311,
        "lon": 77.1675464,
        "tags": {
          "amenity": "cafe",
          "check_date": "2024-05-02",
          "level": "0",
          "name": "Bottle House"
        }
      },
      {
        "type": "node",
        "id": 11813681677,
        "lat": 28.5880583,
        "lon": 77.1678622,
        "tags": {
          "amenity": "restaurant",
          "check_date": "2024-04-13",
          "cuisine": "Rolls",
          "level": "0",
          "name": "Rolls Studio",
          "wheelchair": "no"
        }
      },
      {
        "type": "node",
        "id": 11813681969,
        "lat": 28.5877303,
        "lon": 77.1672874,
        "tags": {
          "amenity": "cafe",
          "check_date": "2024-04-13",
          "name": "The Bowton House Caf\u00e9"
        }
      },
      {
        "type": "node",
        "id": 11813681970,
        "lat": 28.5876755,
        "lon": 77.1672039,
        "tags": {
          "amenity": "restaurant",
          "check_date": "2024-04-13",
          "name": "Dakshin Ratna"
        }
      },
      {
        "type": "node",
        "id": 11813682742,
        "lat": 28.5881049,
        "lon": 77.1683271,
        "tags": {
          "amenity": "restaurant",
          "check_date": "2024-04-13",
          "contact:mobile": "+91-99533-27171;+91-99532-37171",
          "level": "1",
          "name": "KC Restaurant",
          "wheelchair": "no"
        }
      },
      {
        "type": "node",
        "id": 11813688958,
        "lat": 28.5876693,
        "lon": 77.1686234,
        "tags": {
          "amenity": "restaurant",
          "check_date": "2024-04-13",
          "contact:mobile": "+91-99530-33256",
          "cuisine": "chinese",
          "internet_access": "no",
          "level": "0",
          "name": "Mom Hand Momos",
          "wheelchair": "yes"
        }
      },
      {
        "type": "node",
        "id": 11813690992,
        "lat": 28.588064,
        "lon": 77.1679012,
        "tags": {
          "amenity": "cafe",
          "check_date": "2024-04-13",
          "level": "1",
          "name": "The Big House Caf\u00e9",
          "wheelchair": "no"
        }
      },
      {
        "type": "node",
        "id": 11813690993,
        "lat": 28.5880647,
        "lon": 77.1679162,
        "tags": {
          "addr:floor": "4",
          "amenity": "restaurant",
          "check_date": "2024-04-13",
          "level": "3",
          "name": "Crazy Kitchen",
          "wheelchair": "no"
        }
      },
      {
        "type": "node",
        "id": 11813690994,
        "lat": 28.5880537,
        "lon": 77.1679015,
        "tags": {
          "addr:floor": "3",
          "amenity": "cafe",
          "check_date": "2024-04-13",
          "name": "Rustic Cafe",
          "wheelchair": "no"
        }
      },
      {
        "type": "node",
        "id": 11813693494,
        "lat": 28.5880774,
        "lon": 77.168354,
        "tags": {
          "amenity": "restaurant",
          "check_date": "2024-04-13",
          "level": "0",
          "name": "High On Burger",
          "wheelchair": "no"
        }
      },
      {
        "type": "node",
        "id": 11813693495,
        "lat": 28.5880853,
        "lon": 77.1683903,
        "tags": {
          "amenity": "restaurant",
          "check_date": "2024-04-13",
          "level": "1",
          "name": "Amigos Hub",
          "wheelchair": "no"
        }
      },
      {
        "type": "node",
        "id": 11813700595,
        "lat": 28.5876277,
        "lon": 77.1686816,
        "tags": {
          "amenity": "cafe",
          "check_date": "2024-04-13",
          "cuisine": "tea",
          "level": "0",
          "name": "Pandit Ji Tea Stall"
        }
      },
      {
        "type": "node",
        "id": 11813703903,
        "lat": 28.5877645,
        "lon": 77.1689179,
        "tags": {
          "check_date": "2024-04-13",
          "name": "Agarwal Store",
          "shop": "department_store",
          "wheelchair": "no"
        }
      },
      {
        "type": "node",
        "id": 11813705202,
        "lat": 28.5878984,
        "lon": 77.1684629,
        "tags": {
          "amenity": "restaurant",
          "check_date": "2024-04-13",
          "level": "0",
          "name": "Shreya's Spices And Chutney",
          "wheelchair": "no"
        }
      },
      {
        "type": "node",
        "id": 11813705203,
        "lat": 28.5879312,
        "lon": 77.1684346,
        "tags": {
          "amenity": "restaurant",
          "check_date": "2024-04-13",
          "level": "0",
          "name": "Pulpssy",
          "wheelchair": "no"
        }
      },
      {
        "type": "node",
        "id": 11813705204,
        "lat": 28.5879809,
        "lon": 77.1684121,
        "tags": {
          "amenity": "restaurant",
          "check_date": "2024-04-13",
          "contact:mobile": "+91-98704-00673;+91-98704-00683",
          "level": "0",
          "name": "Sfizio Pizza",
          "wheelchair": "no"
        }
      },
      {
        "type": "node",
        "id": 11813706344,
        "lat": 28.5877898,
        "lon": 77.1684033,
        "tags": {
          "amenity": "cafe",
          "check_date": "2024-04-13",
          "diet:vegetarian": "only",
          "level": "-1",
          "name": "Mum Caf\u00e9 and Bakery",
          "outdoor_seating": "yes",
          "phone": "+91-8448-336-088",
          "wheelchair": "no"
        }
      },
      {
        "type": "node",
        "id": 11813707991,
        "lat": 28.5880173,
        "lon": 77.1679014,
        "tags": {
          "amenity": "atm",
          "brand": "ICICI Bank",
          "brand:en": "ICICI Bank",
          "brand:wikidata": "Q1653258",
          "check_date": "2024-04-13",
          "currency:INR": "yes",
          "drive_through": "no",
          "indoor": "yes",
          "level": "0",
          "note": "Contributors are requested to not edit the \"brand\", \"brand:en\", \"brand:wikidata\", \"operator\", \"operator:en\" and \"operator:wikidata\" tags. (2025/02/19)",
          "opening_hours": "24/7",
          "operator": "ICICI Bank",
          "operator:en": "ICICI Bank",
          "operator:wikidata": "Q1653258",
          "short_name": "ICICI"
        }
      },
      {
        "type": "node",
        "id": 11813708187,
        "lat": 28.587692,
        "lon": 77.1684552,
        "tags": {
          "amenity": "restaurant",
          "check_date": "2024-04-13",
          "name": "Zackary Chicken Biryani"
        }
      },
      {
        "type": "node",
        "id": 11813709471,
        "lat": 28.5878191,
        "lon": 77.1683809,
        "tags": {
          "addr:housenumber": "57",
          "addr:place": "Satya Niketan",
          "amenity": "fast_food",
          "check_date": "2024-04-13",
          "contact:mobile": "+91-6377-1901-25",
          "level": "-1",
          "name": "Chai Samosa Stories",
          "outdoor_seating": "yes",
          "wheelchair": "no"
        }
      },
      {
        "type": "node",
        "id": 11813709473,
        "lat": 28.587654,
        "lon": 77.1684893,
        "tags": {
          "amenity": "restaurant",
          "check_date": "2024-04-13",
          "level": "0",
          "name": "The Hungry Bear",
          "wheelchair": "yes"
        }
      },
      {
        "type": "node",
        "id": 11813711801,
        "lat": 28.5881502,
        "lon": 77.1681711,
        "tags": {
          "amenity": "restaurant",
          "check_date": "2024-04-13",
          "level": "0;1",
          "name": "Niku's",
          "wheelchair": "no"
        }
      },
      {
        "type": "node",
        "id": 11813711802,
        "lat": 28.5880515,
        "lon": 77.1682334,
        "tags": {
          "amenity": "cafe",
          "check_date": "2024-07-23",
          "level": "0",
          "name": "Nerds Of Comedy",
          "name:hi": "\u0928\u0930\u094d\u0921\u094d\u0938 \u0911\u092b \u0915\u0949\u092e\u0947\u0921\u0940",
          "wheelchair": "no"
        }
      },
      {
        "type": "node",
        "id": 11813712469,
        "lat": 28.5880081,
        "lon": 77.1677761,
        "tags": {
          "amenity": "cafe",
          "check_date": "2024-04-13",
          "level": "1",
          "name": "Sista\u2019s",
          "outdoor_seating": "no"
        }
      },
      {
        "type": "node",
        "id": 11813712470,
        "lat": 28.5879971,
        "lon": 77.1677583,
        "tags": {
          "amenity": "cafe",
          "check_date": "2024-04-13",
          "level": "2",
          "name": "Pipeline pizzeria",
          "outdoor_seating": "no"
        }
      },
      {
        "type": "node",
        "id": 11813945285,
        "lat": 28.5882442,
        "lon": 77.168369,
        "tags": {
          "amenity": "cafe",
          "check_date": "2024-04-13",
          "cuisine": "tea",
          "level": "0",
          "name": "The Chai Latte",
          "outdoor_seating": "yes",
          "wheelchair": "no"
        }
      },
      {
        "type": "node",
        "id": 11813945286,
        "lat": 28.5882233,
        "lon": 77.1683218,
        "tags": {
          "amenity": "fast_food",
          "check_date": "2024-04-13",
          "level": "0",
          "name": "Chowringhee",
          "outdoor_seating": "yes",
          "wheelchair": "no"
        }
      },
      {
        "type": "node",
        "id": 11814425245,
        "lat": 28.5875478,
        "lon": 77.1686825,
        "tags": {
          "amenity": "cafe",
          "cuisine": "tea",
          "name": "Goyal Tea Junction"
        }
      },
      {
        "type": "node",
        "id": 11814425248,
        "lat": 28.5875721,
        "lon": 77.1685498,
        "tags": {
          "amenity": "cafe",
          "level": "-1",
          "name": "Cafe Unbound",
          "outdoor_seating": "yes"
        }
      },
      {
        "type": "node",
        "id": 11818491475,
        "lat": 28.586802,
        "lon": 77.1691626,
        "tags": {
          "amenity": "bank",
          "brand": "Punjab National Bank",
          "brand:wikidata": "Q2743499",
          "name": "Punjab National Bank"
        }
      },
      {
        "type": "node",
        "id": 11818541447,
        "lat": 28.5876554,
        "lon": 77.1696751,
        "tags": {
          "amenity": "fast_food",
          "name": "The Smart Mart"
        }
      },
      {
        "type": "node",
        "id": 11818557132,
        "lat": 28.5875537,
        "lon": 77.1686987,
        "tags": {
          "amenity": "cafe",
          "name": "Alfa"
        }
      },
      {
        "type": "node",
        "id": 11818557133,
        "lat": 28.5876245,
        "lon": 77.168865,
        "tags": {
          "amenity": "fast_food",
          "cuisine": "chinese",
          "name": "Dhoom Machale Momos"
        }
      },
      {
        "type": "node",
        "id": 11818557134,
        "lat": 28.5876558,
        "lon": 77.1689393,
        "tags": {
          "amenity": "restaurant",
          "name": "Om Balaji Dhaba"
        }
      },
      {
        "type": "node",
        "id": 11818557135,
        "lat": 28.5876392,
        "lon": 77.1689042,
        "tags": {
          "amenity": "restaurant",
          "name": "Udgam"
        }
      },
      {
        "type": "node",
        "id": 11818557136,
        "lat": 28.5875782,
        "lon": 77.1687615,
        "tags": {
          "amenity": "restaurant",
          "name": "Baby Doll Chaap"
        }
      },
      {
        "type": "node",
        "id": 11818557139,
        "lat": 28.5875653,
        "lon": 77.1687263,
        "tags": {
          "amenity": "restaurant",
          "cuisine": "indian",
          "name": "Anna Dosa Point"
        }
      },
      {
        "type": "node",
        "id": 11818594834,
        "lat": 28.5878558,
        "lon": 77.1690366,
        "tags": {
          "amenity": "fast_food",
          "name": "Systumm"
        }
      },
      {
        "type": "node",
        "id": 11818675681,
        "lat": 28.5875719,
        "lon": 77.1689867,
        "tags": {
          "addr:city": "New Delhi",
          "addr:place": "Satya Niketan",
          "addr:postcode": "110021",
          "addr:unit": "1",
          "amenity": "pharmacy",
          "contact:phone": "+917827856055",
          "delivery": "yes",
          "healthcare": "pharmacy",
          "level": "0",
          "name": "Medicine House",
          "wheelchair": "no"
        }
      },
      {
        "type": "node",
        "id": 11818675682,
        "lat": 28.5875348,
        "lon": 77.1690259,
        "tags": {
          "amenity": "atm",
          "brand": "Yes Bank",
          "brand:wikidata": "Q2040394",
          "operator": "Yes Bank",
          "operator:wikidata": "Q2040394"
        }
      },
      {
        "type": "node",
        "id": 11819120741,
        "lat": 28.5870775,
        "lon": 77.1703094,
        "tags": {
          "amenity": "fast_food",
          "contact:mobile": "+91-8700-321-990;+91-97161-25330",
          "cuisine": "punjabi",
          "name": "Taste of Spices",
          "wheelchair": "no"
        }
      },
      {
        "type": "node",
        "id": 11819120747,
        "lat": 28.58721,
        "lon": 77.1705383,
        "tags": {
          "amenity": "fast_food",
          "cuisine": "punjabi",
          "level": "0",
          "name": "Silver Spoon Food Point",
          "outdoor_seating": "yes"
        }
      },
      {
        "type": "node",
        "id": 11819120761,
        "lat": 28.5870102,
        "lon": 77.1704721,
        "tags": {
          "amenity": "cafe",
          "diet:gluten_free": "yes",
          "level": "0",
          "name": "Free of Gluten",
          "operator": "Chocolate Temptation",
          "wheelchair": "no"
        }
      },
      {
        "type": "node",
        "id": 11819120763,
        "lat": 28.587092,
        "lon": 77.1706094,
        "tags": {
          "amenity": "fast_food",
          "contact:mobile": "+91-98916-46286",
          "contact:website": "https://www.teamoments.in/",
          "indoor_seating": "yes",
          "level": "0",
          "name": "Tea Moments"
        }
      },
      {
        "type": "node",
        "id": 11819120765,
        "lat": 28.5871285,
        "lon": 77.1705926,
        "tags": {
          "amenity": "fast_food",
          "name": "Barira's Rolls"
        }
      },
      {
        "type": "node",
        "id": 11837347888,
        "lat": 28.5931893,
        "lon": 77.1645815,
        "tags": {
          "amenity": "cafe",
          "level": "0",
          "name": "Sabharwal Tea Stall",
          "takeaway": "yes",
          "toilets": "no",
          "toilets:access": "private",
          "wheelchair": "no"
        }
      },
      {
        "type": "node",
        "id": 11837347889,
        "lat": 28.5931062,
        "lon": 77.1646281,
        "tags": {
          "amenity": "fast_food",
          "level": "0",
          "name": "Mahadev Food Corner",
          "takeaway": "yes",
          "toilets": "no",
          "toilets:access": "private",
          "wheelchair": "no"
        }
      },
      {
        "type": "node",
        "id": 12159147304,
        "lat": 28.5895332,
        "lon": 77.1690955,
        "tags": {
          "amenity": "fast_food",
          "brand": "Jumbo King",
          "cuisine": "burger",
          "indoor_seating": "no",
          "level": "1",
          "name": "Jumbo King",
          "takeaway": "yes"
        }
      },
      {
        "type": "node",
        "id": 12816033335,
        "lat": 28.5905185,
        "lon": 77.1669203,
        "tags": {
          "amenity": "cafe",
          "bar": "no",
          "brand": "Nescaf\u00e9",
          "indoor_seating": "no",
          "level": "0",
          "name": "Nescaf\u00e9",
          "operator": "Nescaf\u00e9",
          "outdoor_seating": "yes",
          "takeaway": "yes"
        }
      }
    ]
  },
  "pois_2_5km": {
    "version": 0.6,
    "generator": "Overpass API 0.7.62.8 e802775f",
    "osm3s": {
      "timestamp_osm_base": "2025-09-06T06:59:11Z",
      "copyright": "The data included in this document is from www.openstreetmap.org. The data is made available under ODbL."
    },
    "elements": [
      {
        "type": "node",
        "id": 910356438,
        "lat": 28.5822036,
        "lon": 77.1862115,
        "tags": {
          "alt_name:ur": "\u062f\u0644\u06cc \u0635\u0641\u062f\u0631 \u062c\u0646\u06af;\u0635\u0641\u062f\u0631 \u062c\u0646\u06af;\u062f\u0650\u0644\u0651\u06cc \u0635\u0641\u062f\u0631 \u062c\u0646\u06af",
          "internet_access": "no",
          "name": "Delhi Safdarjang",
          "name:ur": "\u062f\u06c1\u0644\u06cc \u0635\u0641\u062f\u0631 \u062c\u0646\u06af",
          "network": "IR",
          "operator": "NR",
          "public_transport": "station",
          "railway": "station",
          "ref": "DSJ",
          "train": "yes",
          "wikidata": "Q15648788"
        }
      },
      {
        "type": "node",
        "id": 927873513,
        "lat": 28.5918719,
        "lon": 77.1617158,
        "tags": {
          "name": "Dhaula Kuan",
          "name:hi": "\u0927\u094c\u0932\u093e \u0915\u0941\u0906\u0901",
          "name:ur": "\u062f\u06be\u0648\u0644\u06c1 \u06a9\u0646\u0648\u0627\u06ba",
          "network": "Delhi Metro",
          "network:wikidata": "Q271195",
          "note": "Contributors are requested to not edit the \"network\" and the \"operator\" tags. (2023/06/22)",
          "operator": "Delhi Metro Rail Corporation Limited",
          "operator:wikidata": "Q1029339",
          "public_transport": "station",
          "railway": "station",
          "ref": "DKV",
          "station": "subway",
          "subway": "yes",
          "wheelchair": "yes",
          "wikidata": "Q5269438"
        }
      },
      {
        "type": "node",
        "id": 2833526642,
        "lat": 28.5785245,
        "lon": 77.1757091,
        "tags": {
          "name": "Sir M. Vishweshwaraiah Moti Bagh",
          "name:hi": "\u0938\u0930 \u090f\u092e. \u0935\u093f\u0936\u094d\u0935\u0947\u0936\u094d\u0935\u0930\u092f\u094d\u092f\u093e \u092e\u094b\u0924\u0940 \u092c\u093e\u0917",
          "network": "Delhi Metro",
          "note": "Contributors are requested to not edit the \"network\" and the \"operator\" tags. (2023/06/22)",
          "operator": "Delhi Metro Rail Corporation Limited",
          "public_transport": "stop_position",
          "railway": "stop",
          "ref": "SVMB",
          "subway": "yes"
        }
      },
      {
        "type": "node",
        "id": 2833526656,
        "lat": 28.5892816,
        "lon": 77.1694377,
        "tags": {
          "name": "Durgabai Deshmukh South Campus",
          "name:hi": "\u0926\u0941\u0930\u094d\u0917\u093e\u092c\u093e\u0908 \u0926\u0947\u0936\u092e\u0941\u0916 \u0938\u093e\u0909\u0925 \u0915\u0948\u0902\u092a\u0938",
          "network": "Delhi Metro",
          "note": "Contributors are requested to not edit the \"network\" and the \"operator\" tags. (2023/06/23)",
          "operator": "Delhi Metro Rail Corporation Limited",
          "public_transport": "stop_position",
          "railway": "stop",
          "subway": "yes"
        }
      },
      {
        "type": "node",
        "id": 4211259635,
        "lat": 28.5831328,
        "lon": 77.1896241,
        "tags": {
          "amenity": "theatre",
          "name": "DT"
        }
      },
      {
        "type": "node",
        "id": 5137961056,
        "lat": 28.57741,
        "lon": 77.1736528,
        "tags": {
          "bus": "yes",
          "public_transport": "stop_position"
        }
      },
      {
        "type": "node",
        "id": 5137961057,
        "lat": 28.5778493,
        "lon": 77.1741945,
        "tags": {
          "bus": "yes",
          "public_transport": "stop_position"
        }
      },
      {
        "type": "node",
        "id": 5137961058,
        "lat": 28.579953,
        "lon": 77.1787923,
        "tags": {
          "public_transport": "stop_position"
        }
      },
      {
        "type": "node",
        "id": 5137961060,
        "lat": 28.5804633,
        "lon": 77.1793308,
        "tags": {
          "amenity": "fuel",
          "brand": "Bharat Petroleum",
          "brand:wikidata": "Q854826",
          "brand:wikipedia": "en:Bharat Petroleum",
          "name": "Bharat Petroleum"
        }
      },
      {
        "type": "node",
        "id": 5137961061,
        "lat": 28.5804349,
        "lon": 77.1802192,
        "tags": {
          "public_transport": "stop_position"
        }
      },
      {
        "type": "node",
        "id": 5137961064,
        "lat": 28.5812486,
        "lon": 77.181653,
        "tags": {
          "public_transport": "stop_position"
        }
      },
      {
        "type": "node",
        "id": 5137961067,
        "lat": 28.5869111,
        "lon": 77.1852901,
        "tags": {
          "bus": "yes",
          "name": "\u0631\u06cc\u0644 \u0639\u062c\u0627\u0626\u0628 \u06af\u06be\u0631",
          "name:ur": "\u0631\u06cc\u0644 \u0639\u062c\u0627\u0626\u0628 \u06af\u06be\u0631",
          "public_transport": "stop_position"
        }
      },
      {
        "type": "node",
        "id": 5137961068,
        "lat": 28.5872226,
        "lon": 77.1855039,
        "tags": {
          "bus": "yes",
          "name": "\u0631\u06cc\u0644 \u0639\u062c\u0627\u0626\u0628 \u06af\u06be\u0631",
          "name:ur": "\u0631\u06cc\u0644 \u0639\u062c\u0627\u0626\u0628 \u06af\u06be\u0631",
          "public_transport": "stop_position"
        }
      },
      {
        "type": "node",
        "id": 5137961073,
        "lat": 28.5894689,
        "lon": 77.1866591,
        "tags": {
          "bus": "yes",
          "public_transport": "stop_position"
        }
      },
      {
        "type": "node",
        "id": 5137961074,
        "lat": 28.5897968,
        "lon": 77.1867433,
        "tags": {
          "bus": "yes",
          "public_transport": "stop_position"
        }
      },
      {
        "type": "node",
        "id": 5137961078,
        "lat": 28.5924902,
        "lon": 77.1882204,
        "tags": {
          "bus": "yes",
          "public_transport": "stop_position"
        }
      },
      {
        "type": "node",
        "id": 5137961079,
        "lat": 28.5925177,
        "lon": 77.1881493,
        "tags": {
          "bus": "yes",
          "public_transport": "stop_position"
        }
      },
      {
        "type": "node",
        "id": 5137961081,
        "lat": 28.5983604,
        "lon": 77.1912443,
        "tags": {
          "bus": "yes",
          "public_transport": "stop_position"
        }
      },
      {
        "type": "node",
        "id": 5137961083,
        "lat": 28.5984268,
        "lon": 77.1911759,
        "tags": {
          "bus": "yes",
          "public_transport": "stop_position"
        }
      },
      {
        "type": "node",
        "id": 5137961085,
        "lat": 28.6008681,
        "lon": 77.1925354,
        "tags": {
          "bus": "yes",
          "public_transport": "stop_position"
        }
      },
      {
        "type": "node",
        "id": 5137961087,
        "lat": 28.6008163,
        "lon": 77.1924158,
        "tags": {
          "bus": "yes",
          "public_transport": "stop_position"
        }
      },
      {
        "type": "node",
        "id": 5137961097,
        "lat": 28.6039446,
        "lon": 77.184592,
        "tags": {
          "public_transport": "stop_position"
        }
      },
      {
        "type": "node",
        "id": 5426405564,
        "lat": 28.5843665,
        "lon": 77.1721419,
        "tags": {
          "amenity": "fuel",
          "brand": "Indian Oil",
          "brand:wikidata": "Q1289348",
          "name": "Indian Oil",
          "toilets": "yes"
        }
      },
      {
        "type": "node",
        "id": 5426405945,
        "lat": 28.587331,
        "lon": 77.1714396,
        "tags": {
          "amenity": "fuel",
          "brand": "Indian Oil",
          "brand:wikidata": "Q1289348",
          "name": "Indian Oil"
        }
      },
      {
        "type": "node",
        "id": 5464573101,
        "lat": 28.590359,
        "lon": 77.1684845,
        "tags": {
          "alt_name": "ARSD College",
          "bus": "yes",
          "name": "Dhaula Kuan",
          "public_transport": "stop_position"
        }
      },
      {
        "type": "node",
        "id": 5561733970,
        "lat": 28.5776067,
        "lon": 77.1746902,
        "tags": {
          "amenity": "fuel",
          "brand": "Indian Oil",
          "brand:wikidata": "Q1289348",
          "name": "Indian Oil"
        }
      },
      {
        "type": "node",
        "id": 5600547622,
        "lat": 28.5881935,
        "lon": 77.1549788,
        "tags": {
          "amenity": "theatre",
          "name": "Air Force Auditorium"
        }
      },
      {
        "type": "node",
        "id": 5737167172,
        "lat": 28.5918789,
        "lon": 77.161702,
        "tags": {
          "name": "Dhaula Kuan",
          "network": "Delhi Metro",
          "network:wikidata": "Q271195",
          "note": "Contributors are requested to not edit the \"network\" and the \"operator\" tags. (2023/06/22)",
          "operator": "Delhi Metro Rail Corporation Limited",
          "operator:wikidata": "Q1029339",
          "public_transport": "stop_position",
          "railway": "stop",
          "ref": "DKV",
          "subway": "yes"
        }
      },
      {
        "type": "node",
        "id": 5777630288,
        "lat": 28.5785426,
        "lon": 77.175752,
        "tags": {
          "name": "Sir M. Vishweshwaraiah Moti Bagh",
          "name:hi": "\u0938\u0930 \u090f\u092e. \u0935\u093f\u0936\u094d\u0935\u0947\u0936\u094d\u0935\u0930\u092f\u094d\u092f\u093e \u092e\u094b\u0924\u0940 \u092c\u093e\u0917",
          "network": "Delhi Metro",
          "note": "Contributors are requested to not edit the \"network\" and the \"operator\" tags. (2023/06/22)",
          "operator": "Delhi Metro Rail Corporation Limited",
          "public_transport": "stop_position",
          "railway": "stop",
          "ref": "SVMB",
          "subway": "yes"
        }
      },
      {
        "type": "node",
        "id": 5777631037,
        "lat": 28.5893006,
        "lon": 77.1694772,
        "tags": {
          "name": "Durgabai Deshmukh South Campus",
          "name:hi": "\u0926\u0941\u0930\u094d\u0917\u093e\u092c\u093e\u0908 \u0926\u0947\u0936\u092e\u0941\u0916 \u0938\u093e\u0909\u0925 \u0915\u0948\u0902\u092a\u0938",
          "network": "Delhi Metro",
          "note": "Contributors are requested to not edit the \"network\" and the \"operator\" tags. (2023/06/23)",
          "operator": "Delhi Metro Rail Corporation Limited",
          "public_transport": "stop_position",
          "railway": "stop",
          "subway": "yes"
        }
      },
      {
        "type": "node",
        "id": 6287897766,
        "lat": 28.5961909,
        "lon": 77.1676074,
        "tags": {
          "alt_name:ur": "\u0633\u0631\u062f\u0627\u0631 \u067e\u0679\u06cc\u0644 \u0645\u0627\u0631\u06af",
          "name": "Sardar Patel Marg",
          "name:ur": "\u0633\u0631\u062f\u0627\u0631 \u067e\u0679\u06cc\u0644 \u0631\u0648\u0688",
          "public_transport": "stop_position",
          "railway": "stop",
          "train": "yes"
        }
      },
      {
        "type": "node",
        "id": 6412437960,
        "lat": 28.5908246,
        "lon": 77.1683731,
        "tags": {
          "alt_name": "ARSD College",
          "bus": "yes",
          "name": "Dhaula Kuan",
          "name:hi": "\u0927\u094c\u0932\u093e  \u0915\u0941\u0906\u0901",
          "public_transport": "stop_position"
        }
      },
      {
        "type": "node",
        "id": 6453544485,
        "lat": 28.5785326,
        "lon": 77.175741,
        "tags": {
          "name": "Sir M. Vishweshwaraiah Moti Bagh",
          "name:hi": "\u0938\u0930 \u090f\u092e. \u0935\u093f\u0936\u094d\u0935\u0947\u0936\u094d\u0935\u0930\u092f\u094d\u092f\u093e \u092e\u094b\u0924\u0940 \u092c\u093e\u0917",
          "network": "Delhi Metro",
          "note": "Contributors are requested to not edit the \"network\" and the \"operator\" tags. (2023/06/22)",
          "operator": "Delhi Metro Rail Corporation Limited",
          "public_transport": "station",
          "railway": "station",
          "ref": "SVMB",
          "station": "subway",
          "subway": "yes",
          "wikidata": "Q30591952",
          "wikipedia": "en:Sir Vishweshwaraiah Moti Bagh metro station"
        }
      },
      {
        "type": "node",
        "id": 6961442929,
        "lat": 28.5865591,
        "lon": 77.1934263,
        "tags": {
          "amenity": "charging_station"
        }
      },
      {
        "type": "node",
        "id": 6961442948,
        "lat": 28.5908405,
        "lon": 77.1960832,
        "tags": {
          "amenity": "fuel",
          "brand": "Hindustan Petroleum",
          "brand:wikidata": "Q1619375",
          "name": "Angra HP Centre",
          "official_name": "Hindustan Petroleum"
        }
      },
      {
        "type": "node",
        "id": 6961442954,
        "lat": 28.5866112,
        "lon": 77.1934058,
        "tags": {
          "amenity": "charging_station"
        }
      },
      {
        "type": "node",
        "id": 7040474785,
        "lat": 28.584378,
        "lon": 77.1910554,
        "tags": {
          "amenity": "cinema",
          "brand": "PVR Cinemas",
          "brand:wikidata": "Q3359908",
          "name": "PVR ECX Chanakyapuri Cinema",
          "short_name": "PVR"
        }
      },
      {
        "type": "node",
        "id": 8124057196,
        "lat": 28.5996071,
        "lon": 77.1958058,
        "tags": {
          "addr:postcode": "110021",
          "addr:street": "Niti Marg",
          "amenity": "fuel",
          "brand": "Hindustan Petroleum",
          "brand:wikidata": "Q1619375",
          "brand:wikipedia": "en:Hindustan Petroleum",
          "fuel:diesel": "yes",
          "fuel:petrol": "yes",
          "name": "HP COCO Fuel Station",
          "official_name": "Hindustan Petroleum",
          "operator": "HPCL",
          "self_service": "no"
        }
      },
      {
        "type": "node",
        "id": 9938725206,
        "lat": 28.591914,
        "lon": 77.1616835,
        "tags": {
          "name": "Dhaula Kuan",
          "network": "Delhi Metro",
          "network:wikidata": "Q271195",
          "note": "Contributors are requested to not edit the \"network\" and the \"operator\" tags. (2023/06/22)",
          "operator": "Delhi Metro Rail Corporation Limited",
          "operator:wikidata": "Q1029339",
          "public_transport": "stop_position",
          "railway": "stop",
          "ref": "DKV",
          "subway": "yes"
        }
      },
      {
        "type": "node",
        "id": 12163204408,
        "lat": 28.5961514,
        "lon": 77.1675705,
        "tags": {
          "alt_name:ur": "\u0633\u0631\u062f\u0627\u0631 \u067e\u0679\u06cc\u0644 \u0645\u0627\u0631\u06af",
          "name": "Sardar Patel Marg",
          "name:ur": "\u0633\u0631\u062f\u0627\u0631 \u067e\u0679\u06cc\u0644 \u0631\u0648\u0688",
          "public_transport": "stop_position",
          "railway": "stop",
          "train": "yes"
        }
      },
      {
        "type": "node",
        "id": 12278110520,
        "lat": 28.5915129,
        "lon": 77.17549,
        "tags": {
          "amenity": "fuel",
          "brand": "Hindustan Petroleum",
          "brand:wikidata": "Q1619375",
          "name": "HP",
          "official_name": "Hindustan Petroleum"
        }
      },
      {
        "type": "node",
        "id": 12972970667,
        "lat": 28.5793023,
        "lon": 77.1883978,
        "tags": {
          "amenity": "charging_station"
        }
      }
    ]
  }
}