{
  "pois_1km": {
    "version": 0.6,
    "generator": "Overpass API 0.7.62.8 e802775f",
    "osm3s": {
      "timestamp_osm_base": "2025-09-06T07:13:35Z",
      "copyright": "The data included in this document is from www.openstreetmap.org. The data is made available under ODbL."
    },
    "elements": [
      {
        "type": "node",
        "id": 928550280,
        "lat": 28.6407045,
        "lon": 77.2105994,
        "tags": {
          "amenity": "restaurant",
          "cuisine": "international",
          "diet:vegetarian": "yes",
          "name": "Hotel Metropolis",
          "outdoor_seating": "yes",
          "tourism": "hotel"
        }
      },
      {
        "type": "node",
        "id": 928563678,
        "lat": 28.6345525,
        "lon": 77.2176037,
        "tags": {
          "amenity": "atm",
          "brand": "HDFC Bank",
          "brand:en": "HDFC Bank",
          "brand:wikidata": "Q631047",
          "currency:INR": "yes",
          "drive_through": "no",
          "indoor": "yes",
          "level": "0",
          "name": "HDFC Bank",
          "note": "Contributors are requested to not edit the \"brand\", \"brand:en\", \"brand:wikidata\", \"operator\", \"operator:en\" and \"operator:wikidata\" tags. (2025/02/19)",
          "opening_hours": "24/7",
          "operator": "HDFC Bank",
          "operator:en": "HDFC Bank",
          "operator:wikidata": "Q631047",
          "short_name": "HDFC"
        }
      },
      {
        "type": "node",
        "id": 928567979,
        "lat": 28.635243,
        "lon": 77.2196937,
        "tags": {
          "amenity": "restaurant",
          "diet:vegan": "yes",
          "diet:vegetarian": "yes",
          "disused": "yes",
          "name": "Piccadelhi"
        }
      },
      {
        "type": "node",
        "id": 1184509690,
        "lat": 28.6410051,
        "lon": 77.2125387,
        "tags": {
          "amenity": "cafe",
          "internet_access": "terminal",
          "name": "Internet"
        }
      },
      {
        "type": "node",
        "id": 1241932078,
        "lat": 28.6333595,
        "lon": 77.2083619,
        "tags": {
          "amenity": "restaurant",
          "ele": "235.41",
          "name": "Bangla Foods",
          "source:ele": "gpx"
        }
      },
      {
        "type": "node",
        "id": 1556466158,
        "lat": 28.6253844,
        "lon": 77.2181175,
        "tags": {
          "addr:city": "New Delhi",
          "amenity": "restaurant",
          "cuisine": "thai",
          "name": "Spice Route"
        }
      },
      {
        "type": "node",
        "id": 1940318525,
        "lat": 28.6409319,
        "lon": 77.2137081,
        "tags": {
          "amenity": "restaurant",
          "name": "Club India Restaurant"
        }
      },
      {
        "type": "node",
        "id": 1940318533,
        "lat": 28.6407272,
        "lon": 77.2111472,
        "tags": {
          "amenity": "cafe",
          "diet:vegetarian": "yes",
          "name": "Madan Caf\u00e9"
        }
      },
      {
        "type": "node",
        "id": 1940318549,
        "lat": 28.641034,
        "lon": 77.213836,
        "tags": {
          "amenity": "restaurant",
          "name": "New Mt. Everest Restaurant"
        }
      },
      {
        "type": "node",
        "id": 2106104833,
        "lat": 28.6350182,
        "lon": 77.219418,
        "tags": {
          "amenity": "fast_food",
          "diet:vegan": "yes",
          "diet:vegetarian": "yes",
          "name": "Nizam's Kathi Kabab",
          "name:en": "Nizam's Kathi Kabab"
        }
      },
      {
        "type": "node",
        "id": 2327524028,
        "lat": 28.6323764,
        "lon": 77.2172154,
        "tags": {
          "addr:city": "New Delhi",
          "amenity": "restaurant",
          "cuisine": "asian;chinese;thai",
          "name": "Berco's"
        }
      },
      {
        "type": "node",
        "id": 2327524039,
        "lat": 28.6331146,
        "lon": 77.2179776,
        "tags": {
          "addr:housename": "A",
          "alt_name": "Kentucky Fried Chicken",
          "alt_name:en": "Kentucky Fried Chicken",
          "alt_name:hi": "\u0915\u0947\u0902\u091f\u0941\u0915\u0940 \u092b\u094d\u0930\u093e\u0907\u0921 \u091a\u093f\u0915\u0928",
          "alt_name:pa": "\u0a15\u0a48\u0a02\u0a1f\u0a41\u0a15\u0a40 \u0a2b\u0a4d\u0a30\u0a3e\u0a08\u0a21 \u0a1a\u0a3f\u0a15\u0a28",
          "alt_name:pnb": "\u06a9\u06cc\u0646\u0679\u06a9\u06cc \u0641\u0631\u0627\u0626\u06cc\u0688 \u0686\u06a9\u0646",
          "alt_name:ur": "\u06a9\u06cc\u0646\u0679\u06a9\u06cc \u0641\u0631\u0627\u0626\u06cc\u0688 \u0686\u06a9\u0646",
          "amenity": "fast_food",
          "brand": "KFC",
          "brand:en": "KFC",
          "brand:hi": "\u0915\u0947\u090f\u092b\u0938\u0940",
          "brand:pa": "\u0a15\u0a47\u0a10\u0a2b\u0a38\u0a40",
          "brand:pnb": "\u06a9\u06d2 \u0627\u06cc\u0641 \u0633\u06cc",
          "brand:ur": "\u06a9\u06d2 \u0627\u06cc\u0641 \u0633\u06cc",
          "brand:wikidata": "Q524757",
          "brand:wikipedia": "en:KFC",
          "brand:wikipedia:pa": "\u0a15\u0a47\u0a10\u0a2b\u0a38\u0a40",
          "brand:wikipedia:ur": "\u06a9\u06cc\u0646\u0679\u06a9\u06cc \u0641\u0631\u0627\u0626\u06cc\u0688 \u0686\u06a9\u0646",
          "cuisine": "chicken",
          "diet:vegan": "yes",
          "diet:vegetarian": "yes",
          "name": "KFC",
          "name:en": "KFC",
          "name:hi": "\u0915\u0947\u090f\u092b\u0938\u0940",
          "name:pa": "\u0a15\u0a47\u0a10\u0a2b\u0a38\u0a40",
          "name:pnb": "\u06a9\u06d2 \u0627\u06cc\u0641 \u0633\u06cc",
          "name:ur": "\u06a9\u06d2 \u0627\u06cc\u0641 \u0633\u06cc",
          "opening_hours": "Mo-Su 11:00-23:00",
          "takeaway": "yes"
        }
      },
      {
        "type": "node",
        "id": 2327524046,
        "lat": 28.6272942,
        "lon": 77.2195527,
        "tags": {
          "amenity": "atm",
          "brand": "Yes Bank",
          "brand:wikidata": "Q2040394",
          "name": "Yes Bank",
          "operator": "Yes Bank",
          "operator:wikidata": "Q2040394"
        }
      },
      {
        "type": "node",
        "id": 2327524049,
        "lat": 28.6278063,
        "lon": 77.2195823,
        "tags": {
          "amenity": "atm",
          "brand": "Central Bank of India",
          "brand:wikidata": "Q2007090",
          "name": "Central Bank of India",
          "operator": "Central Bank of India",
          "operator:wikidata": "Q2007090"
        }
      },
      {
        "type": "node",
        "id": 2327524052,
        "lat": 28.6286284,
        "lon": 77.2197267,
        "tags": {
          "amenity": "atm",
          "brand": "ICICI Bank",
          "brand:en": "ICICI Bank",
          "brand:wikidata": "Q1653258",
          "currency:INR": "yes",
          "drive_through": "no",
          "indoor": "yes",
          "name": "ICICI Bank",
          "note": "Contributors are requested to not edit the \"brand\", \"brand:en\", \"brand:wikidata\", \"operator\", \"operator:en\" and \"operator:wikidata\" tags. (2025/02/19)",
          "opening_hours": "24/7",
          "operator": "ICICI Bank",
          "operator:en": "ICICI Bank",
          "operator:wikidata": "Q1653258",
          "short_name": "ICICI"
        }
      },
      {
        "type": "node",
        "id": 2410180163,
        "lat": 28.6312577,
        "lon": 77.2153721,
        "tags": {
          "addr:city": "New Delhi",
          "name": "Delhi Emporium",
          "shop": "department_store"
        }
      },
      {
        "type": "node",
        "id": 2410180164,
        "lat": 28.6261056,
        "lon": 77.2197715,
        "tags": {
          "amenity": "atm",
          "brand": "State Bank of India",
          "brand:en": "State Bank of India",
          "brand:wikidata": "Q1340361",
          "currency:INR": "yes",
          "drive_through": "no",
          "indoor": "yes",
          "name": "State Bank of India",
          "note": "Contributors are requested to not edit the \"brand\", \"brand:en\", \"brand:wikidata\", \"operator\", \"operator:en\" and \"operator:wikidata\" tags. (2025/02/19)",
          "opening_hours": "24/7",
          "operator": "State Bank of India",
          "operator:en": "State Bank of India",
          "operator:wikidata": "Q1340361",
          "short_name": "SBI"
        }
      },
      {
        "type": "node",
        "id": 2410180166,
        "lat": 28.6321974,
        "lon": 77.2177075,
        "tags": {
          "amenity": "cafe",
          "brand": "Starbucks",
          "brand:pa": "\u0a38\u0a1f\u0a3e\u0a30\u0a2c\u0a15\u0a38",
          "brand:ur": "\u0627\u0633\u0679\u0627\u0631\u0628\u06a9\u0633",
          "brand:wikidata": "Q37158",
          "brand:wikipedia": "en:Starbucks",
          "cuisine": "coffee_shop",
          "name": "Starbucks",
          "name:pa": "\u0a38\u0a1f\u0a3e\u0a30\u0a2c\u0a15\u0a38",
          "name:ur": "\u0627\u0633\u0679\u0627\u0631\u0628\u06a9\u0633",
          "official_name": "Starbucks Coffee",
          "official_name:pa": "\u0a38\u0a1f\u0a3e\u0a30\u0a2c\u0a15\u0a38 \u0a15\u0a4c\u0a2b\u0a40",
          "official_name:ur": "\u0627\u0633\u0679\u0627\u0631\u0628\u06a9\u0633 \u06a9\u0627\u0641\u06cc",
          "takeaway": "yes"
        }
      },
      {
        "type": "node",
        "id": 2591114289,
        "lat": 28.6306895,
        "lon": 77.2160507,
        "tags": {
          "addr:city": "New Delhi",
          "addr:housename": "Mohan Singh Place",
          "addr:postcode": "110001",
          "addr:street": "Baba Kharak Singh Marg",
          "addr:suburb": "Connaught Place",
          "amenity": "restaurant",
          "brand": "Indian Coffee House",
          "brand:wikidata": "Q3595301",
          "check_date": "2024-12-23",
          "contact:phone": "+91-11-2334-2994",
          "cuisine": "coffee_shop;indian",
          "diet:vegetarian": "yes",
          "level": "2",
          "name": "Indian Coffee House",
          "opening_hours": "08:30-21:00",
          "operator": "Indian Coffee Workers' Cooperative Society Limited",
          "outdoor_seating": "yes",
          "reservation": "no",
          "service:electricity": "ask",
          "start_date": "1957",
          "website": "http://indiancoffeehouse.com/",
          "wheelchair": "yes"
        }
      },
      {
        "type": "node",
        "id": 2592537223,
        "lat": 28.6353527,
        "lon": 77.220063,
        "tags": {
          "addr:postcode": "110001",
          "air_conditioning": "yes",
          "amenity": "restaurant",
          "cuisine": "pizza;indian;burger;italian;chinese;sandwich;coffee_shop",
          "delivery": "yes",
          "diet:vegan": "yes",
          "diet:vegetarian": "yes",
          "name": "Hira Sweets",
          "opening_hours": "Mo-Su 08:00-23:00",
          "phone": "+91-97736 13336",
          "takeaway": "yes"
        }
      },
      {
        "type": "node",
        "id": 2592537225,
        "lat": 28.6411417,
        "lon": 77.2137445,
        "tags": {
          "amenity": "restaurant",
          "name": "Sayam Roof Top Restaurant"
        }
      },
      {
        "type": "node",
        "id": 2709534496,
        "lat": 28.6337495,
        "lon": 77.2230833,
        "tags": {
          "addr:city": "New Delhi",
          "addr:postcode": "110001",
          "addr:street": "Radial Road 6",
          "amenity": "restaurant",
          "capacity": "50",
          "name": "Keshav Restaurant",
          "opening_hours": "Mo-Su 10:00-18:00",
          "phone": "+91-90154-84272"
        }
      },
      {
        "type": "node",
        "id": 3185191993,
        "lat": 28.6413641,
        "lon": 77.2152163,
        "tags": {
          "amenity": "atm",
          "brand": "Yes Bank",
          "brand:wikidata": "Q2040394",
          "name": "Yes Bank",
          "operator": "Yes Bank",
          "operator:wikidata": "Q2040394"
        }
      },
      {
        "type": "node",
        "id": 3242109311,
        "lat": 28.6409844,
        "lon": 77.2137687,
        "tags": {
          "amenity": "restaurant",
          "cuisine": "indian",
          "name": "The exotic rooftop restaurant",
          "opening_hours": "Mo-Su 08:00-23:00"
        }
      },
      {
        "type": "node",
        "id": 3242109751,
        "lat": 28.6318506,
        "lon": 77.2163093,
        "tags": {
          "addr:full": "P-5/90, Connaught Circus, New Delhi - 110001",
          "addr:housenumber": "P-5/90",
          "amenity": "cafe",
          "contact:phone": "+91-11-2336-3074",
          "indoor_seating": "yes",
          "level": "0",
          "name": "Madras Coffee House",
          "outdoor_seating": "no",
          "start_date": "1935"
        }
      },
      {
        "type": "node",
        "id": 3250376814,
        "lat": 28.6414451,
        "lon": 77.2132453,
        "tags": {
          "amenity": "restaurant",
          "cuisine": "korean",
          "name": "\uc27c\ud130",
          "name:en": "Shimtur",
          "name:fr": "Shimtur"
        }
      },
      {
        "type": "node",
        "id": 3269421783,
        "lat": 28.6412802,
        "lon": 77.2147522,
        "tags": {
          "amenity": "atm",
          "brand": "Axis Bank",
          "brand:wikidata": "Q2003549",
          "check_date": "2022-07-07",
          "name": "AXIS Bank",
          "operator": "Axis Bank",
          "operator:wikidata": "Q2003549"
        }
      },
      {
        "type": "node",
        "id": 3269429079,
        "lat": 28.6403009,
        "lon": 77.2131013,
        "tags": {
          "addr:housenumber": "4986",
          "addr:street": "Ramdwara Road",
          "amenity": "restaurant",
          "diet:vegetarian": "yes",
          "name": "Tadka",
          "name:es": "Tadka",
          "opening_hours": "Mo-Su 09:00-22:30"
        }
      },
      {
        "type": "node",
        "id": 3269441162,
        "lat": 28.6405917,
        "lon": 77.2108939,
        "tags": {
          "amenity": "fast_food",
          "brand": "Subway",
          "brand:pa": "\u0a38\u0a2c\u0a35\u0a47\u0a05",
          "brand:ur": "\u0633\u0628 \u0648\u06d2",
          "brand:wikidata": "Q244457",
          "brand:wikipedia": "en:Subway (restaurant)",
          "cuisine": "sandwich",
          "diet:vegetarian": "yes",
          "name": "Subway",
          "name:pa": "\u0a38\u0a2c\u0a35\u0a47\u0a05",
          "name:ur": "\u0633\u0628 \u0648\u06d2",
          "takeaway": "yes"
        }
      },
      {
        "type": "node",
        "id": 3704734413,
        "lat": 28.6309879,
        "lon": 77.2197896,
        "tags": {
          "addr:city": "New Delhi",
          "amenity": "restaurant",
          "brand": "Nando's",
          "brand:wikidata": "Q3472954",
          "cuisine": "chicken;portuguese",
          "diet:vegetarian": "yes",
          "name": "Nando's",
          "opening_hours": "Mo-Su 11:30-00:30"
        }
      },
      {
        "type": "node",
        "id": 3813668638,
        "lat": 28.6319496,
        "lon": 77.2217935,
        "tags": {
          "amenity": "bank",
          "atm": "yes",
          "brand": "Federal Bank",
          "brand:wikidata": "Q2044983",
          "name": "Federal Bank",
          "name:en": "Federal Bank",
          "operator": "Federal Bank",
          "website": "https://www.federalbank.co.in"
        }
      },
      {
        "type": "node",
        "id": 3813671938,
        "lat": 28.6322316,
        "lon": 77.2223143,
        "tags": {
          "amenity": "bank",
          "atm": "yes",
          "brand": "State Bank of India",
          "brand:wikidata": "Q1340361",
          "name": "State Bank of India",
          "short_name": "SBI"
        }
      },
      {
        "type": "node",
        "id": 3862442973,
        "lat": 28.6301576,
        "lon": 77.2197258,
        "tags": {
          "addr:city": "New Delhi",
          "amenity": "fast_food",
          "brand": "Domino's",
          "brand:ks": "\u0688\u0648\u0645\u06cc\u0646\u0648\u0632",
          "brand:pa": "\u0a21\u0a4b\u0a2e\u0a40\u0a28\u0a4b\u0a1c\u0a3c",
          "brand:ur": "\u0688\u0648\u0645\u06cc\u0646\u0648\u0632",
          "brand:wikidata": "Q839466",
          "brand:wikipedia": "en:Domino's Pizza",
          "cuisine": "pizza",
          "diet:vegetarian": "yes",
          "indoor_seating": "yes",
          "level": "0",
          "name": "Domino's",
          "name:ks": "\u0688\u0648\u0645\u06cc\u0646\u0648\u0632",
          "name:pa": "\u0a21\u0a4b\u0a2e\u0a40\u0a28\u0a4b\u0a1c\u0a3c",
          "name:ur": "\u0688\u0648\u0645\u06cc\u0646\u0648\u0632",
          "takeaway": "yes"
        }
      },
      {
        "type": "node",
        "id": 3991743215,
        "lat": 28.6336816,
        "lon": 77.2210924,
        "tags": {
          "amenity": "fast_food",
          "diet:vegan": "yes",
          "diet:vegetarian": "yes",
          "name": "The Embassy",
          "note": "good panir"
        }
      },
      {
        "type": "node",
        "id": 4069815728,
        "lat": 28.6342635,
        "lon": 77.2190699,
        "tags": {
          "addr:housename": "B",
          "addr:housenumber": "B-23",
          "addr:place": "Connaught Place",
          "addr:postcode": "110001",
          "addr:street": "Inner Circle",
          "air_conditioning": "yes",
          "amenity": "restaurant",
          "diet:vegan": "yes",
          "diet:vegetarian": "yes",
          "indoor_seating": "yes",
          "level": "0",
          "name": "The Colonnade",
          "outdoor_seating": "no",
          "smoking": "separated",
          "wheelchair": "no"
        }
      },
      {
        "type": "node",
        "id": 4069858894,
        "lat": 28.6352724,
        "lon": 77.220127,
        "tags": {
          "amenity": "restaurant",
          "diet:vegan": "yes",
          "diet:vegetarian": "yes",
          "name": "Gola"
        }
      },
      {
        "type": "node",
        "id": 4122535796,
        "lat": 28.6316863,
        "lon": 77.2166292,
        "tags": {
          "amenity": "atm"
        }
      },
      {
        "type": "node",
        "id": 4122549692,
        "lat": 28.6311221,
        "lon": 77.2164451,
        "tags": {
          "amenity": "atm",
          "brand": "Kotak Mahindra Bank",
          "brand:wikidata": "Q2040404",
          "name": "Kotak Mahindra Bank",
          "opening_hours": "24/7",
          "operator": "Kotak Mahindra Bank",
          "operator:wikidata": "Q2040404"
        }
      },
      {
        "type": "node",
        "id": 4122549693,
        "lat": 28.6294722,
        "lon": 77.2129442,
        "tags": {
          "amenity": "bank",
          "branch": "Capital Point",
          "brand": "Ratnakar Bank Limited",
          "brand:short": "RNL Bank"
        }
      },
      {
        "type": "node",
        "id": 4122549695,
        "lat": 28.6334535,
        "lon": 77.207037,
        "tags": {
          "amenity": "atm",
          "cash_in": "no",
          "check_date": "2025-06-08",
          "name": "IndusInd Bank"
        }
      },
      {
        "type": "node",
        "id": 4122549792,
        "lat": 28.6321307,
        "lon": 77.2163119,
        "tags": {
          "amenity": "bank"
        }
      },
      {
        "type": "node",
        "id": 4122564390,
        "lat": 28.6322738,
        "lon": 77.2162739,
        "tags": {
          "addr:city": "New Delhi",
          "amenity": "fast_food",
          "brand": "McDonald's",
          "brand:pa": "\u0a2e\u0a48\u0a15\u0a21\u0a4b\u0a28\u0a32\u0a21\u2019\u0a1c\u0a3c",
          "brand:ur": "\u0645\u06a9\u0688\u0648\u0646\u0644\u0688\u0632",
          "brand:wikidata": "Q38076",
          "brand:wikipedia": "en:McDonald's",
          "brand:wikipedia:pa": "\u0a2e\u0a48\u0a15\u0a21\u0a4b\u0a28\u0a32\u0a21\u2019\u0a1c\u0a3c",
          "brand:wikipedia:ur": "\u0645\u06a9\u0688\u0648\u0646\u0644\u0688\u0632",
          "cuisine": "burger",
          "name": "McDonald's",
          "name:pa": "\u0a2e\u0a48\u0a15\u0a21\u0a4b\u0a28\u0a32\u0a21\u2019\u0a1c\u0a3c",
          "name:ur": "\u0645\u06a9\u0688\u0648\u0646\u0644\u0688\u0632",
          "takeaway": "yes"
        }
      },
      {
        "type": "node",
        "id": 4122564391,
        "lat": 28.6294413,
        "lon": 77.212874,
        "tags": {
          "amenity": "atm",
          "check_date": "2023-12-15"
        }
      },
      {
        "type": "node",
        "id": 4122592290,
        "lat": 28.6333793,
        "lon": 77.2076665,
        "tags": {
          "amenity": "bank"
        }
      },
      {
        "type": "node",
        "id": 4122592291,
        "lat": 28.6334275,
        "lon": 77.2080471,
        "tags": {
          "amenity": "restaurant",
          "name": "Odeon sweets"
        }
      },
      {
        "type": "node",
        "id": 4219631340,
        "lat": 28.6410923,
        "lon": 77.2126799,
        "tags": {
          "amenity": "restaurant",
          "name": "Sam's Cafe"
        }
      },
      {
        "type": "node",
        "id": 4241254891,
        "lat": 28.6302915,
        "lon": 77.2204826,
        "tags": {
          "amenity": "cafe",
          "brand": "Starbucks",
          "brand:pa": "\u0a38\u0a1f\u0a3e\u0a30\u0a2c\u0a15\u0a38",
          "brand:ur": "\u0627\u0633\u0679\u0627\u0631\u0628\u06a9\u0633",
          "brand:wikidata": "Q37158",
          "brand:wikipedia": "en:Starbucks",
          "cuisine": "coffee_shop",
          "diet:vegetarian": "yes",
          "internet_access": "wlan",
          "internet_access:fee": "no",
          "level": "0;1",
          "name": "Starbucks",
          "name:pa": "\u0a38\u0a1f\u0a3e\u0a30\u0a2c\u0a15\u0a38",
          "name:ur": "\u0627\u0633\u0679\u0627\u0631\u0628\u06a9\u0633",
          "official_name": "Starbucks Coffee",
          "official_name:pa": "\u0a38\u0a1f\u0a3e\u0a30\u0a2c\u0a15\u0a38 \u0a15\u0a4c\u0a2b\u0a40",
          "official_name:ur": "\u0627\u0633\u0679\u0627\u0631\u0628\u06a9\u0633 \u06a9\u0627\u0641\u06cc",
          "opening_hours": "Mo-Su 08:15-01:00",
          "outdoor_seating": "no",
          "smoking": "no",
          "takeaway": "yes",
          "wheelchair": "limited"
        }
      },
      {
        "type": "node",
        "id": 4241264489,
        "lat": 28.630206,
        "lon": 77.2200866,
        "tags": {
          "addr:block": "G",
          "addr:city": "New Delhi",
          "addr:housenumber": "14",
          "addr:place": "Connaught Place",
          "addr:postcode": "110001",
          "air_conditioning": "yes",
          "amenity": "fast_food",
          "brand": "McDonald's",
          "brand:pa": "\u0a2e\u0a48\u0a15\u0a21\u0a4b\u0a28\u0a32\u0a21\u2019\u0a1c\u0a3c",
          "brand:ur": "\u0645\u06a9\u0688\u0648\u0646\u0644\u0688\u0632",
          "brand:wikidata": "Q38076",
          "brand:wikipedia": "en:McDonald's",
          "brand:wikipedia:pa": "\u0a2e\u0a48\u0a15\u0a21\u0a4b\u0a28\u0a32\u0a21\u2019\u0a1c\u0a3c",
          "brand:wikipedia:ur": "\u0645\u06a9\u0688\u0648\u0646\u0644\u0688\u0632",
          "cuisine": "burger",
          "diet:vegetarian": "yes",
          "name": "McDonald's",
          "name:pa": "\u0a2e\u0a48\u0a15\u0a21\u0a4b\u0a28\u0a32\u0a21\u2019\u0a1c\u0a3c",
          "name:ur": "\u0645\u06a9\u0688\u0648\u0646\u0644\u0688\u0632",
          "takeaway": "yes"
        }
      },
      {
        "type": "node",
        "id": 4336565091,
        "lat": 28.6409875,
        "lon": 77.2128901,
        "tags": {
          "addr:postcode": "110055",
          "addr:street": "Main Bazaar",
          "amenity": "cafe",
          "name": "kitchen cafe roof top"
        }
      },
      {
        "type": "node",
        "id": 4336790092,
        "lat": 28.6269741,
        "lon": 77.2202933,
        "tags": {
          "amenity": "cafe",
          "internet_access": "wlan",
          "name": "Caf\u00e9 office office"
        }
      },
      {
        "type": "node",
        "id": 4338105559,
        "lat": 28.6337656,
        "lon": 77.2213244,
        "tags": {
          "addr:block": "D",
          "addr:city": "New Delhi",
          "addr:housenumber": "26/28",
          "addr:postcode": "110001",
          "addr:street": "Radial Road No.6",
          "amenity": "restaurant",
          "cuisine": "regional",
          "level": "0",
          "name": "Zaffran",
          "name:ca": "Zaffran"
        }
      },
      {
        "type": "node",
        "id": 4338129371,
        "lat": 28.6303156,
        "lon": 77.2206535,
        "tags": {
          "addr:city": "New Delhi",
          "addr:housenumber": "N-96",
          "addr:postcode": "110001",
          "addr:street": "2nd Floor, Munshi Lal Building, Connaught Place",
          "amenity": "restaurant",
          "cuisine": "regional",
          "diet:vegetarian": "yes",
          "name": "Barbeque Nation"
        }
      },
      {
        "type": "node",
        "id": 4341101093,
        "lat": 28.6411171,
        "lon": 77.2144269,
        "tags": {
          "amenity": "restaurant",
          "name": "Nepali Food"
        }
      },
      {
        "type": "node",
        "id": 4341161389,
        "lat": 28.6316411,
        "lon": 77.2215631,
        "tags": {
          "amenity": "bank",
          "brand": "Punjab National Bank",
          "brand:wikidata": "Q2743499",
          "name": "Punjab National Bank",
          "name:en": "Punjab National Bank",
          "short_name": "PNB",
          "website": "https://www.pnbindia.in"
        }
      },
      {
        "type": "node",
        "id": 4389312993,
        "lat": 28.6320509,
        "lon": 77.2163058,
        "tags": {
          "addr:city": "New Delhi",
          "addr:housenumber": "P13/90",
          "addr:street": "Counnaught Circus, Block P",
          "amenity": "fast_food",
          "brand": "Saravana Bhavan",
          "brand:wikidata": "Q3528082",
          "cuisine": "indian;south_indian",
          "name": "Saravana Bhavan",
          "name:es": "Hotel Saravana Bhavan",
          "official_name": "Hotel Saravana Bhavan",
          "takeaway": "yes",
          "website": "https://saravanabhavan.com/"
        }
      },
      {
        "type": "node",
        "id": 4389398989,
        "lat": 28.6303463,
        "lon": 77.217545,
        "tags": {
          "addr:city": "New Delhi",
          "addr:housenumber": "13",
          "addr:street": "Sansad Marg",
          "amenity": "restaurant",
          "cuisine": "punjabi",
          "name": "Pind Balluchi",
          "name:es": "Pind Baluchi",
          "name:fa": "\u067e\u06cc\u0646\u062f \u0628\u0644\u0648\u0686\u06cc",
          "opening_hours": "Mo-Su 12:00-23:00",
          "website": "https://www.pindballuchi.com/"
        }
      },
      {
        "type": "node",
        "id": 4391613189,
        "lat": 28.6298048,
        "lon": 77.2204846,
        "tags": {
          "addr:housename": "Atmaram Mansion, Scindia House",
          "addr:place": "Connaught Place",
          "addr:unit": "Shop 9A",
          "amenity": "restaurant",
          "name": "Rajdhani",
          "website": "https://www.rajdhani.co.in/"
        }
      },
      {
        "type": "node",
        "id": 4401493065,
        "lat": 28.6420621,
        "lon": 77.2179887,
        "tags": {
          "amenity": "restaurant",
          "name": "Neelam Restaurant"
        }
      },
      {
        "type": "node",
        "id": 4460479219,
        "lat": 28.6328293,
        "lon": 77.2172007,
        "tags": {
          "addr:city": "New Delhi",
          "amenity": "restaurant",
          "diet:vegan": "yes",
          "diet:vegetarian": "yes",
          "name": "Fa Yian The Chinese Restaurant",
          "website": "http://www.fayian.com"
        }
      },
      {
        "type": "node",
        "id": 4502144089,
        "lat": 28.6297305,
        "lon": 77.2201372,
        "tags": {
          "alt_name": "Kentucky Fried Chicken",
          "alt_name:en": "Kentucky Fried Chicken",
          "alt_name:hi": "\u0915\u0947\u0902\u091f\u0941\u0915\u0940 \u092b\u094d\u0930\u093e\u0907\u0921 \u091a\u093f\u0915\u0928",
          "alt_name:pa": "\u0a15\u0a48\u0a02\u0a1f\u0a41\u0a15\u0a40 \u0a2b\u0a4d\u0a30\u0a3e\u0a08\u0a21 \u0a1a\u0a3f\u0a15\u0a28",
          "alt_name:pnb": "\u06a9\u06cc\u0646\u0679\u06a9\u06cc \u0641\u0631\u0627\u0626\u06cc\u0688 \u0686\u06a9\u0646",
          "alt_name:ur": "\u06a9\u06cc\u0646\u0679\u06a9\u06cc \u0641\u0631\u0627\u0626\u06cc\u0688 \u0686\u06a9\u0646",
          "amenity": "fast_food",
          "brand": "KFC",
          "brand:en": "KFC",
          "brand:hi": "\u0915\u0947\u090f\u092b\u0938\u0940",
          "brand:pa": "\u0a15\u0a47\u0a10\u0a2b\u0a38\u0a40",
          "brand:pnb": "\u06a9\u06d2 \u0627\u06cc\u0641 \u0633\u06cc",
          "brand:ur": "\u06a9\u06d2 \u0627\u06cc\u0641 \u0633\u06cc",
          "brand:wikidata": "Q524757",
          "brand:wikipedia": "en:KFC",
          "brand:wikipedia:pa": "\u0a15\u0a47\u0a10\u0a2b\u0a38\u0a40",
          "brand:wikipedia:ur": "\u06a9\u06cc\u0646\u0679\u06a9\u06cc \u0641\u0631\u0627\u0626\u06cc\u0688 \u0686\u06a9\u0646",
          "cuisine": "chicken",
          "name": "KFC",
          "name:en": "KFC",
          "name:hi": "\u0915\u0947\u090f\u092b\u0938\u0940",
          "name:pa": "\u0a15\u0a47\u0a10\u0a2b\u0a38\u0a40",
          "name:pnb": "\u06a9\u06d2 \u0627\u06cc\u0641 \u0633\u06cc",
          "name:ur": "\u06a9\u06d2 \u0627\u06cc\u0641 \u0633\u06cc",
          "takeaway": "yes"
        }
      },
      {
        "type": "node",
        "id": 4541197689,
        "lat": 28.6266262,
        "lon": 77.2145324,
        "tags": {
          "amenity": "bank",
          "atm": "yes",
          "branch": "New Delhi",
          "brand": "State Bank of India",
          "brand:wikidata": "Q1340361",
          "name": "State Bank of India",
          "name:en": "State Bank of India",
          "short_name": "SBI"
        }
      },
      {
        "type": "node",
        "id": 4565027989,
        "lat": 28.6412137,
        "lon": 77.2147624,
        "tags": {
          "amenity": "restaurant",
          "name": "Wow Cafe",
          "name:en": "Wow Cafe",
          "name:ko": "\uc640\uc6b0\uce74\ud398 \ud55c\uc2dd\ub2f9"
        }
      },
      {
        "type": "node",
        "id": 4599840390,
        "lat": 28.6415909,
        "lon": 77.2155347,
        "tags": {
          "amenity": "restaurant",
          "name:ko": "\uc778\ub3c4\ubc29\ub791\uae30"
        }
      },
      {
        "type": "node",
        "id": 4679882984,
        "lat": 28.6298227,
        "lon": 77.2205834,
        "tags": {
          "amenity": "restaurant",
          "name": "Biryani Blues"
        }
      },
      {
        "type": "node",
        "id": 4711571792,
        "lat": 28.6336538,
        "lon": 77.2211826,
        "tags": {
          "amenity": "restaurant",
          "name": "Embassy Restaurant ( Samosa)",
          "name:en": "Embassy Restaurant ( Samosa)",
          "phone": "01123416434"
        }
      },
      {
        "type": "node",
        "id": 4715157790,
        "lat": 28.6423302,
        "lon": 77.2182562,
        "tags": {
          "amenity": "restaurant",
          "name": "Malabar Hotel",
          "name:en": "Malabar Hotel"
        }
      },
      {
        "type": "node",
        "id": 4715157791,
        "lat": 28.642273,
        "lon": 77.218265,
        "tags": {
          "amenity": "restaurant",
          "name": "Hotel Madras Dx",
          "name:en": "Hotel Madras Dx",
          "name:kn": "\u0cb9\u0ccb\u0c9f\u0cc6\u0cb2\u0ccd \u0cae\u0ca1\u0ccd\u0cb0\u0cbe\u0cb8\u0ccd \u0ca1\u0cc0\u0cb2\u0c95\u0ccd\u0cb8\u0ccd"
        }
      },
      {
        "type": "node",
        "id": 4715162190,
        "lat": 28.6424057,
        "lon": 77.2182489,
        "tags": {
          "addr:housenumber": "113",
          "addr:street": "Amir Kaur Market",
          "amenity": "restaurant",
          "description": "In side road of Babu Ram Solanki Marg near railway station",
          "name": "Hyderabadi Dum Biriyaani",
          "name:en": "Hyderabadi Dum Biriyaani",
          "phone": "+919717334256"
        }
      },
      {
        "type": "node",
        "id": 4715173889,
        "lat": 28.6424536,
        "lon": 77.2182429,
        "tags": {
          "amenity": "restaurant",
          "name": "South Indian Foods",
          "name:en": "South Indian Foods"
        }
      },
      {
        "type": "node",
        "id": 4752292921,
        "lat": 28.6417215,
        "lon": 77.2147806,
        "tags": {
          "amenity": "cafe",
          "cuisine": "italian_pizza;indian;italian",
          "diet:vegetarian": "yes",
          "name": "Everest Bakery Cafe",
          "opening_hours": "Mo-Su 10:00-22:00"
        }
      },
      {
        "type": "node",
        "id": 4772064342,
        "lat": 28.6319603,
        "lon": 77.2078492,
        "tags": {
          "amenity": "restaurant",
          "name": "Safari Restro Lounge"
        }
      },
      {
        "type": "node",
        "id": 4772753924,
        "lat": 28.6405446,
        "lon": 77.217099,
        "tags": {
          "amenity": "restaurant",
          "cuisine": "indian",
          "diet:vegetarian": "yes",
          "name": "Rishi Vaishno Dhaba",
          "name:en": "Rishi Vaishno Dhaba"
        }
      },
      {
        "type": "node",
        "id": 4773105444,
        "lat": 28.6409944,
        "lon": 77.2127435,
        "tags": {
          "amenity": "restaurant",
          "name": "Sonu",
          "name:hi": "Sonu"
        }
      },
      {
        "type": "node",
        "id": 4783668221,
        "lat": 28.6299114,
        "lon": 77.2172701,
        "tags": {
          "amenity": "restaurant",
          "cuisine": "indian",
          "name": "Kwality",
          "name:de": "Kwality",
          "name:en": "Kwality",
          "name:hi": "Kwality",
          "survey:date": "2023-01-22"
        }
      },
      {
        "type": "node",
        "id": 4857522521,
        "lat": 28.6411046,
        "lon": 77.2135151,
        "tags": {
          "amenity": "restaurant",
          "diet:vegetarian": "yes",
          "name": "Everest kitchen",
          "name:en": "Everest Caf\u00e9",
          "name:fr": "Everest Caf\u00e9"
        }
      },
      {
        "type": "node",
        "id": 4875489421,
        "lat": 28.6317854,
        "lon": 77.2159495,
        "tags": {
          "addr:city": "New Delhi",
          "amenity": "fast_food",
          "diet:lacto_vegetarian": "yes",
          "level": "0",
          "name": "Jain Chawal Wale",
          "opening_hours": "Mo-Su 09:00-01:00"
        }
      },
      {
        "type": "node",
        "id": 4882164023,
        "lat": 28.6314625,
        "lon": 77.2206262,
        "tags": {
          "amenity": "cafe",
          "brand": "Chaayos",
          "brand:wikidata": "Q117235235",
          "cuisine": "tea",
          "delivery": "yes",
          "level": "1",
          "name": "Chaayos",
          "name:en": "Chaayos",
          "outdoor_seating": "no",
          "takeaway": "yes"
        }
      },
      {
        "type": "node",
        "id": 4907281021,
        "lat": 28.6425769,
        "lon": 77.2193166,
        "tags": {
          "amenity": "atm",
          "check_date": "2023-08-27",
          "operator": "Union Bank"
        }
      },
      {
        "type": "node",
        "id": 4907281121,
        "lat": 28.6425338,
        "lon": 77.2193198,
        "tags": {
          "amenity": "atm",
          "brand": "Bank of Baroda",
          "brand:wikidata": "Q2003797",
          "check_date": "2023-08-27",
          "operator": "Bank of Baroda",
          "operator:wikidata": "Q2003797"
        }
      },
      {
        "type": "node",
        "id": 4908782321,
        "lat": 28.6418156,
        "lon": 77.2126057,
        "tags": {
          "amenity": "restaurant",
          "name": "Kathmandu Food Cafe",
          "name:en": "Kathmandu Food Cafe"
        }
      },
      {
        "type": "node",
        "id": 4959734021,
        "lat": 28.6353146,
        "lon": 77.2206088,
        "tags": {
          "amenity": "restaurant",
          "diet:vegetarian": "yes",
          "name": "Lazeez Affaire"
        }
      },
      {
        "type": "node",
        "id": 4959734022,
        "lat": 28.6333695,
        "lon": 77.2212936,
        "tags": {
          "amenity": "restaurant",
          "name": "Kovil",
          "name:en": "Kovil"
        }
      },
      {
        "type": "node",
        "id": 4959734121,
        "lat": 28.6270891,
        "lon": 77.2197178,
        "tags": {
          "addr:housenumber": "50",
          "addr:postcode": "110001",
          "addr:street": "Janpath",
          "amenity": "fast_food",
          "brand": "Saravana Bhavan",
          "brand:wikidata": "Q3528082",
          "contact:phone": "+91 11 2331 7755;+91 11 2331 6060",
          "cuisine": "indian;south_indian",
          "diet:lacto_vegetarian": "yes",
          "diet:vegan": "yes",
          "name": "Saravana Bhavan",
          "name:en": "Saravana Bhavan",
          "name:hi": "\u0938\u0930\u0935\u0923 \u092d\u0935\u0928",
          "official_name": "Hotel Saravana Bhavan",
          "opening_hours": "Mo-Su 08:00-23:00",
          "takeaway": "yes"
        }
      },
      {
        "type": "node",
        "id": 4959768821,
        "lat": 28.630182,
        "lon": 77.2204075,
        "tags": {
          "amenity": "restaurant",
          "cuisine": "indian",
          "diet:vegetarian": "yes",
          "name": "Radjhani Thali",
          "name:en": "Radjhani Thali"
        }
      },
      {
        "type": "node",
        "id": 5017491421,
        "lat": 28.6275145,
        "lon": 77.2198691,
        "tags": {
          "addr:city": "New Delhi",
          "amenity": "restaurant",
          "brand": "Pizza Hut",
          "brand:wikidata": "Q191615",
          "cuisine": "pizza",
          "name": "Pizza Hut",
          "name:en": "Pizza Hut"
        }
      },
      {
        "type": "node",
        "id": 5017912424,
        "lat": 28.6307517,
        "lon": 77.2205444,
        "tags": {
          "amenity": "restaurant",
          "cuisine": "indian",
          "name": "Mughlai Junction",
          "name:en": "Mughlai Junction",
          "opening_hours": "Mo-Su 12:00-23:00",
          "website": "http://mughlaihunction.com"
        }
      },
      {
        "type": "node",
        "id": 5017924724,
        "lat": 28.63412,
        "lon": 77.2222423,
        "tags": {
          "addr:street": "Radial Road 6",
          "alt_name": "Haldiram",
          "amenity": "fast_food",
          "brand": "Haldiram's",
          "brand:wikidata": "Q17054442",
          "cuisine": "indian",
          "diet:vegan": "yes",
          "diet:vegetarian": "yes",
          "indoor_seating": "yes",
          "name": "Haldiram's",
          "outdoor_seating": "no",
          "takeaway": "yes",
          "toilets": "yes"
        }
      },
      {
        "type": "node",
        "id": 5068217450,
        "lat": 28.6296084,
        "lon": 77.2241064,
        "tags": {
          "amenity": "bank",
          "atm": "yes",
          "brand": "Kotak Mahindra Bank",
          "brand:wikidata": "Q2040404",
          "name": "Kotak Mahindra Bank"
        }
      },
      {
        "type": "node",
        "id": 5068217831,
        "lat": 28.6291812,
        "lon": 77.2248562,
        "tags": {
          "amenity": "bank",
          "atm": "yes",
          "branch": "Barakhamba Road",
          "brand": "ICICI Bank",
          "brand:wikidata": "Q1653258",
          "name": "ICICI Bank",
          "operator": "ICICI Bank",
          "short_name": "ICICI"
        }
      },
      {
        "type": "node",
        "id": 5068220704,
        "lat": 28.6296576,
        "lon": 77.2239758,
        "tags": {
          "amenity": "bank",
          "atm": "yes",
          "brand": "Standard Chartered",
          "brand:wikidata": "Q548278",
          "name": "Standard Chartered"
        }
      },
      {
        "type": "node",
        "id": 5068221030,
        "lat": 28.6298916,
        "lon": 77.2237716,
        "tags": {
          "amenity": "bank",
          "brand": "HSBC",
          "brand:wikidata": "Q190464",
          "level": "1",
          "name": "HSBC"
        }
      },
      {
        "type": "node",
        "id": 5068221252,
        "lat": 28.630268,
        "lon": 77.2232644,
        "tags": {
          "amenity": "bank",
          "brand": "Punjab National Bank",
          "brand:wikidata": "Q2743499",
          "name": "Punjab National Bank"
        }
      },
      {
        "type": "node",
        "id": 5068221949,
        "lat": 28.6305309,
        "lon": 77.222709,
        "tags": {
          "amenity": "bank",
          "atm": "yes",
          "brand": "Axis Bank",
          "brand:wikidata": "Q2003549",
          "name": "Axis Bank"
        }
      },
      {
        "type": "node",
        "id": 5068227542,
        "lat": 28.6297651,
        "lon": 77.2224663,
        "tags": {
          "amenity": "food_court",
          "name": "FRUIT & CHATT CORNER"
        }
      },
      {
        "type": "node",
        "id": 5068237785,
        "lat": 28.630164,
        "lon": 77.2230255,
        "tags": {
          "amenity": "food_court",
          "name": "Food Croner"
        }
      },
      {
        "type": "node",
        "id": 5068239400,
        "lat": 28.6293464,
        "lon": 77.2239496,
        "tags": {
          "amenity": "bank",
          "name": "ICICI Mutual Funds"
        }
      },
      {
        "type": "node",
        "id": 5068243449,
        "lat": 28.6297414,
        "lon": 77.2241193,
        "tags": {
          "leisure": "garden",
          "name": "Narian manzil Mini garden"
        }
      },
      {
        "type": "node",
        "id": 5073788821,
        "lat": 28.6321991,
        "lon": 77.2163026,
        "tags": {
          "addr:housenumber": "P-13/90",
          "addr:place": "Connaught Circus",
          "addr:postcode": "110001",
          "amenity": "fast_food",
          "brand": "Saravana Bhavan",
          "brand:wikidata": "Q3528082",
          "contact:phone": "+91-11-2334-7755;+91-11-2334-5577",
          "cuisine": "indian;south_indian",
          "indoor_seating": "yes",
          "name": "Saravana Bhavan",
          "name:en": "Saravana Bhavan",
          "name:hi": "\u0938\u0930\u094d\u0935\u0923 \u092d\u0935\u0928",
          "official_name": "Hotel Saravana Bhavan",
          "takeaway": "yes"
        }
      },
      {
        "type": "node",
        "id": 5109849421,
        "lat": 28.6341541,
        "lon": 77.218784,
        "tags": {
          "addr:housename": "B",
          "addr:place": "Connaught Place",
          "addr:postcode": "110001",
          "air_conditioning": "no",
          "amenity": "restaurant",
          "diet:vegan": "yes",
          "diet:vegetarian": "yes",
          "indoor_seating": "yes",
          "level": "1",
          "name": "The Immigrant Cafe",
          "outdoor_seating": "no",
          "smoking": "yes",
          "wheelchair": "no"
        }
      },
      {
        "type": "node",
        "id": 5248543927,
        "lat": 28.64038,
        "lon": 77.213101,
        "tags": {
          "name": "Bhumi spices shop",
          "shop": "supermarket"
        }
      },
      {
        "type": "node",
        "id": 5277323960,
        "lat": 28.6312513,
        "lon": 77.2218705,
        "tags": {
          "addr:housenumber": "N-46",
          "addr:place": "Connaught Circus",
          "addr:postcode": "110001",
          "amenity": "bank",
          "atm": "yes",
          "brand": "Punjab National Bank",
          "brand:wikidata": "Q2743499",
          "name": "Punjab National Bank"
        }
      },
      {
        "type": "node",
        "id": 5277324909,
        "lat": 28.6314468,
        "lon": 77.2205311,
        "tags": {
          "amenity": "bank",
          "atm": "yes",
          "brand": "Union Bank of India",
          "brand:wikidata": "Q2004078",
          "name": "Union Bank of India",
          "opening_hours": "24/7 \"atm\""
        }
      },
      {
        "type": "node",
        "id": 5323174525,
        "lat": 28.6408832,
        "lon": 77.213014,
        "tags": {
          "amenity": "restaurant"
        }
      },
      {
        "type": "node",
        "id": 5329504729,
        "lat": 28.6353446,
        "lon": 77.2203635,
        "tags": {
          "addr:block": "K",
          "addr:city": "New Delhi",
          "addr:housenumber": "15",
          "addr:neighbourhood": "Connaught Place",
          "addr:postcode": "110001",
          "air_conditioning": "yes",
          "amenity": "restaurant",
          "bar": "no",
          "branch": "Connaught Place",
          "brand": "Sagar Ratna",
          "check_date": "2024-09-17",
          "contact:facebook": "sagarratnaofficial",
          "cuisine": "indian",
          "diet:lactose_free": "yes",
          "diet:vegan": "yes",
          "diet:vegetarian": "yes",
          "image:menu": "d5c7fef7-7a20-4fee-92e2-b98c9c8bf758",
          "image:menu:0": "d1e87968-6f95-4826-87a7-221a8199360b",
          "image:menu:1": "3c754826-eb60-42b1-a0d8-67023b2329f4",
          "image:menu:2": "91010955-0ee4-4ed5-a373-df46286f6d81",
          "image:menu:3": "31813afa-4dbb-48eb-a5b0-64e602a9f843",
          "image:menu:4": "7c962b49-4088-4b14-bd86-bcee4ea70d98",
          "image:menu:5": "cd0420cc-d125-47ac-8bdb-3a6ee352b415",
          "image:menu:6": "a18ef6e5-43ee-4b5b-bdf6-e2a35b11bbe1",
          "image:menu:7": "da144236-2143-4bb6-979b-b2ecc69864b6",
          "internet_access": "no",
          "level": "0;1",
          "name": "Sagar Ratna",
          "name:hi": "\u0938\u093e\u0917\u0930 \u0930\u0924\u094d\u0928\u093e",
          "opening_hours": "08:00-23:00",
          "operator": "M/s Sagar Ratna Restaurants Pvt Ltd",
          "outdoor_seating": "no",
          "panoramax": "0429c2c4-bab1-44a4-88bd-43afbcde61b9",
          "panoramax:0": "1fd58a46-2970-4414-b75c-954acc43cc66",
          "panoramax:1": "aaca5a4b-377f-4651-bc28-12d3407a01c2",
          "panoramax:2": "2b440358-fb82-4a12-bb6d-b7a3dbe3e0bc",
          "payment:cash": "yes",
          "payment:credit_cards": "yes",
          "payment:debit_cards": "yes",
          "payment:upi": "yes",
          "phone": "+91 11 4737 7300",
          "smoking": "no",
          "source": "survey",
          "start_date": "1986",
          "takeaway": "yes",
          "toilets": "yes",
          "toilets:access": "customers",
          "toilets:fee": "no",
          "toilets:level": "1",
          "toilets:wheelchair": "no",
          "website": "https://www.sagarratna.in",
          "wheelchair": "no"
        }
      },
      {
        "type": "node",
        "id": 5368454824,
        "lat": 28.62898,
        "lon": 77.2173598,
        "tags": {
          "amenity": "atm",
          "brand": "Bank of Baroda",
          "brand:wikidata": "Q2003797",
          "name": "Bank of Baroda",
          "operator": "Bank of Baroda",
          "operator:wikidata": "Q2003797"
        }
      },
      {
        "type": "node",
        "id": 5368463121,
        "lat": 28.6289357,
        "lon": 77.2174179,
        "tags": {
          "amenity": "bank",
          "brand": "Bank of Baroda",
          "brand:wikidata": "Q2003797",
          "name": "Bank of Baroda"
        }
      },
      {
        "type": "node",
        "id": 5368544822,
        "lat": 28.6325492,
        "lon": 77.2080312,
        "tags": {
          "amenity": "atm"
        }
      },
      {
        "type": "node",
        "id": 5432868321,
        "lat": 28.638233,
        "lon": 77.2120277,
        "tags": {
          "amenity": "cafe",
          "name:ru": "\u041d\u0443\u0434\u043b 30\u0440\u0443\u043f\u0438\u0439"
        }
      },
      {
        "type": "node",
        "id": 5488627982,
        "lat": 28.6411123,
        "lon": 77.2136081,
        "tags": {
          "amenity": "restaurant",
          "diet:vegetarian": "yes",
          "name": "Krishna Cafe",
          "wheelchair": "no"
        }
      },
      {
        "type": "node",
        "id": 5537049539,
        "lat": 28.6334848,
        "lon": 77.2181289,
        "tags": {
          "addr:housename": "A",
          "amenity": "cafe",
          "cuisine": "ice_cream",
          "diet:vegan": "yes",
          "diet:vegetarian": "yes",
          "name": "Keventer's Milkshake",
          "note": "I'm not sure if this is in the right block.",
          "website": "https://keventers.com/",
          "wikidata": "Q110654891",
          "wikipedia": "en:Keventers Milkshake"
        }
      },
      {
        "type": "node",
        "id": 5545575717,
        "lat": 28.632967,
        "lon": 77.2179001,
        "tags": {
          "addr:housename": "A",
          "addr:place": "Connaught Place",
          "addr:unit": "9",
          "amenity": "bank",
          "atm": "yes",
          "brand": "Punjab National Bank",
          "brand:wikidata": "Q2743499",
          "name": "Punjab National Bank"
        }
      },
      {
        "type": "node",
        "id": 5545575720,
        "lat": 28.6310982,
        "lon": 77.2167474,
        "tags": {
          "addr:city": "New Delhi",
          "name": "Khadi India",
          "opening_hours": "Mo-Su 11:00-19:30; PH closed",
          "shop": "department_store",
          "wheelchair": "no"
        }
      },
      {
        "type": "node",
        "id": 5577533598,
        "lat": 28.6325327,
        "lon": 77.2179816,
        "tags": {
          "addr:housename": "A",
          "amenity": "atm",
          "brand": "ICICI Bank",
          "brand:en": "ICICI Bank",
          "brand:wikidata": "Q1653258",
          "currency:INR": "yes",
          "drive_through": "no",
          "indoor": "yes",
          "name": "ICICI Bank",
          "note": "Contributors are requested to not edit the \"brand\", \"brand:en\", \"brand:wikidata\", \"operator\", \"operator:en\" and \"operator:wikidata\" tags. (2025/02/19)",
          "opening_hours": "24/7",
          "operator": "ICICI Bank",
          "operator:en": "ICICI Bank",
          "operator:wikidata": "Q1653258",
          "short_name": "ICICI"
        }
      },
      {
        "type": "node",
        "id": 5577534202,
        "lat": 28.632608,
        "lon": 77.2179719,
        "tags": {
          "addr:housename": "A",
          "amenity": "bank",
          "brand": "ICICI Bank",
          "brand:wikidata": "Q1653258",
          "name": "ICICI Bank",
          "opening_hours": "Mo-Fr 08:00-20:00, 09:00-18:00; Sa 09:30-17:00; PH off; Sa[2,4] off",
          "short_name": "ICICI"
        }
      },
      {
        "type": "node",
        "id": 5577534325,
        "lat": 28.6342788,
        "lon": 77.2176384,
        "tags": {
          "amenity": "fast_food",
          "cuisine": "burger",
          "diet:vegan": "yes",
          "diet:vegetarian": "yes",
          "name": "Burger Singh",
          "phone": "+91-87671-21212",
          "toilets": "yes",
          "website": "https://burgersinghonline.com/"
        }
      },
      {
        "type": "node",
        "id": 5634524438,
        "lat": 28.6291804,
        "lon": 77.219755,
        "tags": {
          "addr:city": "New Delhi",
          "amenity": "restaurant",
          "cuisine": "indian",
          "name": "Pind Balluchi",
          "phone": "07686948952",
          "website": "https://www.pindballuchi.com/"
        }
      },
      {
        "type": "node",
        "id": 5647754113,
        "lat": 28.6315666,
        "lon": 77.2223238,
        "tags": {
          "amenity": "restaurant",
          "brand": "Chili's",
          "brand:wikidata": "Q1072948",
          "cuisine": "tex-mex",
          "diet:vegetarian": "yes",
          "name": "Chili's",
          "official_name": "Chili's Grill & Bar"
        }
      },
      {
        "type": "node",
        "id": 5647754300,
        "lat": 28.6315876,
        "lon": 77.2222789,
        "tags": {
          "addr:full": "F 14/15, Mezzanine F1, Connaught Place, Inner Circle, New Delhi, Delhi",
          "air_conditioning": "yes",
          "amenity": "cafe",
          "brand": "Chaayos",
          "brand:wikidata": "Q117235235",
          "cuisine": "tea",
          "diet:vegetarian": "yes",
          "level": "1",
          "name": "Chaayos",
          "shop": "tea",
          "takeaway": "yes"
        }
      },
      {
        "type": "node",
        "id": 5647754558,
        "lat": 28.6316182,
        "lon": 77.2222311,
        "tags": {
          "amenity": "fast_food",
          "brand": "Subway",
          "brand:pa": "\u0a38\u0a2c\u0a35\u0a47\u0a05",
          "brand:ur": "\u0633\u0628 \u0648\u06d2",
          "brand:wikidata": "Q244457",
          "brand:wikipedia": "en:Subway (restaurant)",
          "cuisine": "sandwich",
          "diet:vegetarian": "yes",
          "name": "Subway",
          "name:pa": "\u0a38\u0a2c\u0a35\u0a47\u0a05",
          "name:ur": "\u0633\u0628 \u0648\u06d2",
          "opening_hours": "Mo-Su 11:00-23:00",
          "takeaway": "yes"
        }
      },
      {
        "type": "node",
        "id": 5647754778,
        "lat": 28.6317679,
        "lon": 77.2220318,
        "tags": {
          "amenity": "atm",
          "brand": "Oriental Bank of Commerce",
          "brand:wikidata": "Q367008",
          "name": "Oriental Bank of Commerce",
          "operator": "Oriental Bank of Commerce",
          "operator:wikidata": "Q367008"
        }
      },
      {
        "type": "node",
        "id": 5647754781,
        "lat": 28.6317429,
        "lon": 77.222079,
        "tags": {
          "amenity": "bank",
          "brand": "Oriental Bank of Commerce",
          "brand:wikidata": "Q367008",
          "name": "Oriental Bank of Commerce"
        }
      },
      {
        "type": "node",
        "id": 5656397310,
        "lat": 28.633169,
        "lon": 77.2179864,
        "tags": {
          "addr:housename": "A",
          "amenity": "restaurant",
          "diet:vegan": "yes",
          "diet:vegetarian": "yes",
          "name": "Rodeo"
        }
      },
      {
        "type": "node",
        "id": 5709171322,
        "lat": 28.6343655,
        "lon": 77.2179596,
        "tags": {
          "amenity": "cafe",
          "diet:vegan": "yes",
          "diet:vegetarian": "yes",
          "internet_access": "wlan",
          "name": "The Chai Kafe"
        }
      },
      {
        "type": "node",
        "id": 5771449331,
        "lat": 28.6421748,
        "lon": 77.2183515,
        "tags": {
          "amenity": "fast_food",
          "diet:vegetarian": "only",
          "name": "Pure Veg Foods"
        }
      },
      {
        "type": "node",
        "id": 5784310847,
        "lat": 28.6337914,
        "lon": 77.217038,
        "tags": {
          "addr:block": "G",
          "addr:city": "New Delhi",
          "addr:housenumber": "8",
          "addr:street": "D00",
          "amenity": "pharmacy",
          "branch": "Connaught Place",
          "brand": "Apollo Pharmacy",
          "brand:wikidata": "Q62562612",
          "healthcare": "pharmacy",
          "name": "Apollo Pharmacy",
          "opening_hours": "24/7"
        }
      },
      {
        "type": "node",
        "id": 5784310848,
        "lat": 28.6339281,
        "lon": 77.217254,
        "tags": {
          "addr:block": "G",
          "addr:housenumber": "4;5;6",
          "amenity": "restaurant",
          "diet:vegan": "yes",
          "diet:vegetarian": "yes",
          "name": "Oriental Garden Chinese"
        }
      },
      {
        "type": "node",
        "id": 5784312103,
        "lat": 28.6336342,
        "lon": 77.2169575,
        "tags": {
          "addr:block": "G",
          "addr:housenumber": "13",
          "addr:street": "D00",
          "amenity": "bank",
          "atm": "yes",
          "brand": "State Bank of India",
          "brand:wikidata": "Q1340361",
          "name": "State Bank of India",
          "opening_hours": "Mo-Sa 10:00-16:00; Sa[2, 4] closed",
          "short_name": "SBI"
        }
      },
      {
        "type": "node",
        "id": 5784312104,
        "lat": 28.6337075,
        "lon": 77.2169847,
        "tags": {
          "addr:housenumber": "G09",
          "addr:street": "D00",
          "amenity": "restaurant",
          "diet:vegetarian": "yes",
          "name": "Xero degrees",
          "website": "https://www.xerodegrees.com/"
        }
      },
      {
        "type": "node",
        "id": 5784312301,
        "lat": 28.6338871,
        "lon": 77.2173285,
        "tags": {
          "addr:block": "G",
          "addr:city": "New Delhi",
          "addr:housename": "Marina Arcade",
          "addr:housenumber": "04",
          "addr:postcode": "110001",
          "addr:street": "D00",
          "amenity": "pharmacy",
          "name": "Medicine House",
          "phone": "+91-95825-34440;+91-11-2332-1747;+91-11-6590-8784;+91-11-2332-1758"
        }
      },
      {
        "type": "node",
        "id": 5784312302,
        "lat": 28.6338668,
        "lon": 77.2173585,
        "tags": {
          "addr:block": "G",
          "amenity": "pharmacy",
          "name": "Nath Brothers",
          "opening_hours": "Mo-Sa 10:00-20:30",
          "phone": "+91-98994-41605;+91-11-4151-6266;+91-11-2332-7284"
        }
      },
      {
        "type": "node",
        "id": 5790140091,
        "lat": 28.6326368,
        "lon": 77.2167019,
        "tags": {
          "amenity": "bank",
          "atm": "yes",
          "brand": "Kotak Mahindra Bank",
          "brand:wikidata": "Q2040404",
          "name": "Kotak Mahindra Bank"
        }
      },
      {
        "type": "node",
        "id": 5790140153,
        "lat": 28.6329277,
        "lon": 77.2173766,
        "tags": {
          "amenity": "atm",
          "brand": "Standard Chartered",
          "brand:wikidata": "Q548278",
          "name": "Standard Chartered",
          "operator": "Standard Chartered",
          "operator:wikidata": "Q548278"
        }
      },
      {
        "type": "node",
        "id": 5792048840,
        "lat": 28.6298283,
        "lon": 77.213752,
        "tags": {
          "amenity": "bank",
          "brand": "Citibank",
          "brand:wikidata": "Q857063",
          "name": "Citibank",
          "short_name": "Citi"
        }
      },
      {
        "type": "node",
        "id": 5792048841,
        "lat": 28.6310681,
        "lon": 77.2147904,
        "tags": {
          "addr:city": "New Delhi",
          "amenity": "fast_food",
          "cuisine": "indian",
          "name": "Coffee Home"
        }
      },
      {
        "type": "node",
        "id": 5792049366,
        "lat": 28.6315538,
        "lon": 77.2162363,
        "tags": {
          "amenity": "fast_food",
          "brand": "Subway",
          "brand:pa": "\u0a38\u0a2c\u0a35\u0a47\u0a05",
          "brand:ur": "\u0633\u0628 \u0648\u06d2",
          "brand:wikidata": "Q244457",
          "brand:wikipedia": "en:Subway (restaurant)",
          "cuisine": "sandwich",
          "diet:vegetarian": "yes",
          "level": "0",
          "name": "Subway",
          "name:pa": "\u0a38\u0a2c\u0a35\u0a47\u0a05",
          "name:ur": "\u0633\u0628 \u0648\u06d2",
          "operator": "Aarbee International LLP",
          "takeaway": "yes"
        }
      },
      {
        "type": "node",
        "id": 5792388053,
        "lat": 28.6271703,
        "lon": 77.2197132,
        "tags": {
          "addr:city": "New Delhi",
          "addr:street": "Janpath",
          "amenity": "restaurant",
          "cuisine": "south_indian",
          "diet:lacto_vegetarian": "yes",
          "diet:vegan": "yes",
          "name": "Padmanabham"
        }
      },
      {
        "type": "node",
        "id": 5799061869,
        "lat": 28.6297605,
        "lon": 77.217177,
        "tags": {
          "amenity": "bank",
          "branch": "Parliament Street",
          "brand": "ICICI Bank",
          "brand:wikidata": "Q1653258",
          "name": "ICICI Bank",
          "opening_hours": "24/7",
          "short_name": "ICICI"
        }
      },
      {
        "type": "node",
        "id": 5799061871,
        "lat": 28.6297028,
        "lon": 77.2171284,
        "tags": {
          "amenity": "atm",
          "brand": "State Bank of India",
          "brand:en": "State Bank of India",
          "brand:short": "SBI",
          "brand:wikidata": "Q1340361",
          "currency:INR": "yes",
          "drive_through": "no",
          "indoor": "yes",
          "name": "State Bank of India",
          "note": "Contributors are requested to not edit the \"brand\", \"brand:en\", \"brand:wikidata\", \"operator\", \"operator:en\" and \"operator:wikidata\" tags. (2025/02/19)",
          "opening_hours": "24/7",
          "operator": "State Bank of India",
          "operator:en": "State Bank of India",
          "operator:wikidata": "Q1340361",
          "short_name": "SBI"
        }
      },
      {
        "type": "node",
        "id": 5810592534,
        "lat": 28.6343883,
        "lon": 77.2183155,
        "tags": {
          "amenity": "atm",
          "brand": "Bank of Baroda",
          "brand:wikidata": "Q2003797",
          "name": "Bank of Baroda",
          "operator": "Bank of Baroda",
          "operator:wikidata": "Q2003797"
        }
      },
      {
        "type": "node",
        "id": 5810594585,
        "lat": 28.6339716,
        "lon": 77.2180188,
        "tags": {
          "amenity": "cafe",
          "brand": "Cafe Coffee Day",
          "brand:wikidata": "Q5017235",
          "cuisine": "coffee_shop",
          "diet:vegan": "yes",
          "diet:vegetarian": "yes",
          "name": "Cafe Coffee Day",
          "takeaway": "yes",
          "wheelchair": "no"
        }
      },
      {
        "type": "node",
        "id": 5841456285,
        "lat": 28.6333172,
        "lon": 77.2226137,
        "tags": {
          "amenity": "fast_food",
          "brand": "Domino's",
          "brand:wikidata": "Q839466",
          "cuisine": "pizza",
          "diet:vegan": "yes",
          "diet:vegetarian": "yes",
          "name": "Domino's",
          "takeaway": "yes"
        }
      },
      {
        "type": "node",
        "id": 5864629285,
        "lat": 28.632007,
        "lon": 77.2176823,
        "tags": {
          "amenity": "restaurant",
          "name": "Sharavana Bhavan",
          "name:en": "Sharavana Bhavan"
        }
      },
      {
        "type": "node",
        "id": 5913957887,
        "lat": 28.6290782,
        "lon": 77.2202827,
        "tags": {
          "amenity": "bank"
        }
      },
      {
        "type": "node",
        "id": 5914043786,
        "lat": 28.6290515,
        "lon": 77.2200995,
        "tags": {
          "addr:housename": "Scindia House",
          "addr:postcode": "110001",
          "addr:unit": "G-34",
          "amenity": "fast_food",
          "email": "info@sagaworldtravels.in",
          "website": "http://sagatravels.in"
        }
      },
      {
        "type": "node",
        "id": 6047921386,
        "lat": 28.6410202,
        "lon": 77.2126034,
        "tags": {
          "amenity": "restaurant",
          "diet:vegetarian": "yes",
          "name": "Diamond restaurant"
        }
      },
      {
        "type": "node",
        "id": 6073119985,
        "lat": 28.6303838,
        "lon": 77.2207212,
        "tags": {
          "addr:street": "Outer Circle",
          "amenity": "cafe",
          "contact:phone": "+91 95999 47642;+91 95999 47643",
          "internet_access": "wlan",
          "level": "2",
          "name": "The Junkyard Cafe",
          "wheelchair": "limited"
        }
      },
      {
        "type": "node",
        "id": 6094909115,
        "lat": 28.6407001,
        "lon": 77.211572,
        "tags": {
          "amenity": "restaurant",
          "name": "Grand Singh restaurant"
        }
      },
      {
        "type": "node",
        "id": 6161686838,
        "lat": 28.6353515,
        "lon": 77.2190315,
        "tags": {
          "amenity": "restaurant",
          "diet:vegan": "yes",
          "diet:vegetarian": "yes",
          "name": "Mother India"
        }
      },
      {
        "type": "node",
        "id": 6161686839,
        "lat": 28.6352021,
        "lon": 77.2184123,
        "tags": {
          "amenity": "atm",
          "brand": "Yes Bank",
          "brand:wikidata": "Q2040394",
          "indoor": "yes",
          "name": "Yes Bank",
          "operator": "Yes Bank",
          "operator:wikidata": "Q2040394"
        }
      },
      {
        "type": "node",
        "id": 6161689894,
        "lat": 28.6353937,
        "lon": 77.2196262,
        "tags": {
          "amenity": "atm",
          "brand": "Punjab & Sind Bank",
          "brand:en": "Punjab & Sind Bank",
          "brand:hi": "\u092a\u0902\u091c\u093e\u092c \u090f\u0923\u094d\u0921 \u0938\u093f\u0902\u0927 \u092c\u0948\u0902\u0915",
          "brand:pa": "\u0a2a\u0a70\u0a1c\u0a3e\u0a2c \u0a10\u0a02\u0a21 \u0a38\u0a3f\u0a70\u0a27 \u0a2c\u0a48\u0a02\u0a15",
          "brand:ur": "\u067e\u0646\u062c\u0627\u0628 \u0627\u06cc\u0646\u0688 \u0633\u0646\u062f\u06be \u0628\u06cc\u0646\u06a9",
          "brand:website": "https://punjabandsindbank.co.in/",
          "brand:wikidata": "Q2003302",
          "indoor": "yes",
          "name": "Punjab & Sind Bank",
          "name:en": "Punjab & Sind Bank",
          "name:hi": "\u092a\u0902\u091c\u093e\u092c \u090f\u0923\u094d\u0921 \u0938\u093f\u0902\u0927 \u092c\u0948\u0902\u0915",
          "name:pa": "\u0a2a\u0a70\u0a1c\u0a3e\u0a2c \u0a10\u0a02\u0a21 \u0a38\u0a3f\u0a70\u0a27 \u0a2c\u0a48\u0a02\u0a15",
          "name:ur": "\u067e\u0646\u062c\u0627\u0628 \u0627\u06cc\u0646\u0688 \u0633\u0646\u062f\u06be \u0628\u06cc\u0646\u06a9",
          "operator": "Punjab & Sind Bank",
          "operator:wikidata": "Q2003302"
        }
      },
      {
        "type": "node",
        "id": 6161689896,
        "lat": 28.6323784,
        "lon": 77.2213733,
        "tags": {
          "addr:block": "E",
          "addr:housenumber": "15",
          "amenity": "restaurant",
          "bar": "no",
          "check_date": "2023-12-07",
          "cuisine": "coffee_shop",
          "indoor_seating": "yes",
          "level": "0",
          "name": "United Coffee House",
          "outdoor_seating": "no",
          "smoking": "no"
        }
      },
      {
        "type": "node",
        "id": 6161690525,
        "lat": 28.633622,
        "lon": 77.2222396,
        "tags": {
          "amenity": "fast_food",
          "diet:vegan": "yes",
          "diet:vegetarian": "yes",
          "indoor_seating": "yes",
          "name": "Nirula's",
          "outdoor_seating": "no",
          "toilets": "no"
        }
      },
      {
        "type": "node",
        "id": 6161690528,
        "lat": 28.6352636,
        "lon": 77.2186749,
        "tags": {
          "amenity": "atm",
          "brand": "Canara Bank",
          "brand:en": "Canara Bank",
          "brand:hi": "\u0915\u0947\u0928\u0930\u093e \u092c\u0948\u0902\u0915",
          "brand:kn": "\u0c95\u0cc6\u0ca8\u0cb0\u0cbe \u0cac\u0ccd\u0caf\u0cbe\u0c82\u0c95\u0ccd",
          "brand:pa": "\u0a15\u0a47\u0a28\u0a30\u0a3e \u0a2c\u0a48\u0a02\u0a15",
          "brand:pnb": "\u06a9\u06cc\u0646\u0631\u0627 \u0628\u06cc\u0646\u06a9",
          "brand:ur": "\u06a9\u06cc\u0646\u0631\u0627 \u0628\u06cc\u0646\u06a9",
          "brand:wikidata": "Q2003777",
          "indoor": "yes",
          "name": "Canara Bank",
          "name:en": "Canara Bank",
          "name:hi": "\u0915\u0947\u0928\u0930\u093e \u092c\u0948\u0902\u0915",
          "name:kn": "\u0c95\u0cc6\u0ca8\u0cb0\u0cbe \u0cac\u0ccd\u0caf\u0cbe\u0c82\u0c95\u0ccd",
          "name:pa": "\u0a15\u0a47\u0a28\u0a30\u0a3e \u0a2c\u0a48\u0a02\u0a15",
          "name:pnb": "\u06a9\u06cc\u0646\u0631\u0627 \u0628\u06cc\u0646\u06a9",
          "name:ur": "\u06a9\u06cc\u0646\u0631\u0627 \u0628\u06cc\u0646\u06a9",
          "opening_hours": "24/7",
          "operator": "Canara Bank",
          "operator:wikidata": "Q2003777"
        }
      },
      {
        "type": "node",
        "id": 6161690529,
        "lat": 28.6350577,
        "lon": 77.2181263,
        "tags": {
          "amenity": "restaurant",
          "diet:vegan": "yes",
          "diet:vegetarian": "yes",
          "name": "V\u00e9da",
          "operator": "The Billiardiers"
        }
      },
      {
        "type": "node",
        "id": 6161690587,
        "lat": 28.6343528,
        "lon": 77.2220221,
        "tags": {
          "amenity": "cafe",
          "check_date": "2023-12-22",
          "cuisine": "tea",
          "indoor_seating": "yes",
          "level": "0;1",
          "name": "Wagh Bakri Tea Lounge",
          "outdoor_seating": "no",
          "toilets": "yes"
        }
      },
      {
        "type": "node",
        "id": 6161690588,
        "lat": 28.6344013,
        "lon": 77.2214575,
        "tags": {
          "air_conditioning": "yes",
          "amenity": "restaurant",
          "diet:vegan": "yes",
          "diet:vegetarian": "yes",
          "indoor_seating": "yes",
          "name": "Unplugged Courtyard",
          "outdoor_seating": "no"
        }
      },
      {
        "type": "node",
        "id": 6161690589,
        "lat": 28.6351302,
        "lon": 77.2210229,
        "tags": {
          "addr:housenumber": "K-8",
          "addr:postcode": "110001",
          "addr:street": "Minto Road",
          "amenity": "bank",
          "atm": "yes",
          "branch": "Minto Road",
          "brand": "Punjab National Bank",
          "brand:short": "PNB",
          "brand:wikidata": "Q2743499",
          "name": "Punjab National Bank"
        }
      },
      {
        "type": "node",
        "id": 6161690590,
        "lat": 28.6352382,
        "lon": 77.218477,
        "tags": {
          "amenity": "atm",
          "brand": "IndusInd Bank",
          "brand:wikidata": "Q2040323",
          "indoor": "yes",
          "name": "IndusInd Bank",
          "opening_hours": "24/7",
          "operator": "IndusInd Bank",
          "operator:wikidata": "Q2040323"
        }
      },
      {
        "type": "node",
        "id": 6161987878,
        "lat": 28.6291307,
        "lon": 77.2197582,
        "tags": {
          "amenity": "restaurant",
          "brand": "Hard Rock Cafe",
          "brand:wikidata": "Q918151",
          "cuisine": "american",
          "name": "Hard Rock Cafe",
          "takeaway": "yes"
        }
      },
      {
        "type": "node",
        "id": 6161987883,
        "lat": 28.6298758,
        "lon": 77.2210617,
        "tags": {
          "alcohol": "yes",
          "amenity": "restaurant",
          "diet:lacto_vegetarian": "yes",
          "diet:vegan": "yes",
          "drink:beer": "yes",
          "drink:vodka": "yes",
          "drink:wine": "yes",
          "indoor_seating": "yes",
          "name": "Local",
          "outdoor_seating": "no"
        }
      },
      {
        "type": "node",
        "id": 6187928085,
        "lat": 28.6299698,
        "lon": 77.2229648,
        "tags": {
          "amenity": "cafe",
          "name": "Mittal Teas"
        }
      },
      {
        "type": "node",
        "id": 6203987736,
        "lat": 28.6330613,
        "lon": 77.2198505,
        "tags": {
          "amenity": "cafe",
          "brand": "Cafe Coffee Day",
          "brand:wikidata": "Q5017235",
          "cuisine": "coffee_shop",
          "diet:vegan": "yes",
          "diet:vegetarian": "yes",
          "indoor_seating": "yes",
          "level": "-1",
          "name": "Cafe Coffee Day",
          "takeaway": "yes"
        }
      },
      {
        "type": "node",
        "id": 6203987737,
        "lat": 28.6331482,
        "lon": 77.2197969,
        "tags": {
          "amenity": "atm",
          "brand": "State Bank of India",
          "brand:en": "State Bank of India",
          "brand:short": "SBI",
          "brand:wikidata": "Q1340361",
          "currency:INR": "yes",
          "drive_through": "no",
          "indoor": "yes",
          "name": "State Bank of India",
          "note": "Contributors are requested to not edit the \"brand\", \"brand:en\", \"brand:wikidata\", \"operator\", \"operator:en\" and \"operator:wikidata\" tags. (2025/02/19)",
          "opening_hours": "24/7",
          "operator": "State Bank of India",
          "operator:en": "State Bank of India",
          "operator:wikidata": "Q1340361",
          "short_name": "SBI"
        }
      },
      {
        "type": "node",
        "id": 6277332185,
        "lat": 28.6305945,
        "lon": 77.220264,
        "tags": {
          "amenity": "fast_food",
          "cuisine": "kabab",
          "name": "Qureshi Kabab"
        }
      },
      {
        "type": "node",
        "id": 6278067985,
        "lat": 28.6347294,
        "lon": 77.2203803,
        "tags": {
          "air_conditioning": "yes",
          "amenity": "restaurant",
          "cuisine": "rajasthani",
          "diet:vegan": "yes",
          "diet:vegetarian": "yes",
          "indoor_seating": "yes",
          "level": "0",
          "name": "Rajasthali",
          "opening_hours": "Mo-Su 12:00-16:00 \"lunch\", 19:00-23:00 \"dinner\"",
          "outdoor_seating": "no",
          "wheelchair": "no"
        }
      },
      {
        "type": "node",
        "id": 6278105486,
        "lat": 28.632874,
        "lon": 77.2220034,
        "tags": {
          "amenity": "atm",
          "brand": "Oriental Bank of Commerce",
          "brand:wikidata": "Q367008",
          "name": "Oriental Bank of Commerce",
          "operator": "Oriental Bank of Commerce",
          "operator:wikidata": "Q367008"
        }
      },
      {
        "type": "node",
        "id": 6278106187,
        "lat": 28.6325274,
        "lon": 77.2223125,
        "tags": {
          "amenity": "restaurant",
          "name": "Hotmess"
        }
      },
      {
        "type": "node",
        "id": 6278725085,
        "lat": 28.6412994,
        "lon": 77.215302,
        "tags": {
          "amenity": "atm",
          "brand": "ICICI Bank",
          "brand:en": "ICICI Bank",
          "brand:wikidata": "Q1653258",
          "currency:INR": "yes",
          "drive_through": "no",
          "indoor": "yes",
          "note": "Contributors are requested to not edit the \"brand\", \"brand:en\", \"brand:wikidata\", \"operator\", \"operator:en\" and \"operator:wikidata\" tags. (2025/02/19)",
          "opening_hours": "24/7",
          "operator": "ICICI Bank",
          "operator:en": "ICICI Bank",
          "operator:wikidata": "Q1653258",
          "short_name": "ICICI"
        }
      },
      {
        "type": "node",
        "id": 6322136985,
        "lat": 28.6407857,
        "lon": 77.213179,
        "tags": {
          "amenity": "fast_food",
          "name": "Tea Tchai to take away"
        }
      },
      {
        "type": "node",
        "id": 6328795085,
        "lat": 28.6317221,
        "lon": 77.22247,
        "tags": {
          "amenity": "restaurant",
          "cuisine": "indian",
          "name": "Bagundi"
        }
      },
      {
        "type": "node",
        "id": 6404118985,
        "lat": 28.6309899,
        "lon": 77.2218384,
        "tags": {
          "addr:block": "N",
          "addr:city": "New Delhi",
          "addr:housenumber": "44",
          "addr:place": "Connaught Place",
          "addr:postcode": "110001",
          "air_conditioning": "yes",
          "amenity": "cafe",
          "brand": "Blue Tokai Coffee Roasters",
          "contact:phone": "+91 70429 79993",
          "cuisine": "coffee_shop",
          "delivery": "yes",
          "diet:vegetarian": "yes",
          "internet_access": "yes",
          "internet_access:fee": "no",
          "level": "0;1",
          "name": "Blue Tokai Coffee Roasters",
          "opening_hours": "Mo-Su 07:30-23:00",
          "outdoor_seating": "no",
          "takeaway": "yes",
          "toilets:access": "customers"
        }
      },
      {
        "type": "node",
        "id": 6495330848,
        "lat": 28.6345172,
        "lon": 77.2195629,
        "tags": {
          "addr:housename": "B",
          "addr:place": "Connaught Place",
          "addr:postcode": "110001",
          "amenity": "bank",
          "atm": "yes",
          "branch": "Connaught Place",
          "brand": "Bank of Maharashtra",
          "brand:wikidata": "Q2004304",
          "level": "1",
          "name": "Bank of Maharashtra"
        }
      },
      {
        "type": "node",
        "id": 6495330860,
        "lat": 28.6343112,
        "lon": 77.2194624,
        "tags": {
          "addr:housename": "B",
          "addr:place": "Connaught Place",
          "addr:postcode": "110001",
          "amenity": "cafe",
          "brand": "Cafe Coffee Day",
          "brand:wikidata": "Q5017235",
          "cuisine": "coffee_shop",
          "diet:vegetarian": "yes",
          "level": "1",
          "name": "Cafe Coffee Day",
          "takeaway": "yes",
          "wheelchair": "no"
        }
      },
      {
        "type": "node",
        "id": 6495330865,
        "lat": 28.6345008,
        "lon": 77.219561,
        "tags": {
          "addr:housename": "B",
          "addr:place": "Connaught Place",
          "addr:postcode": "110001",
          "amenity": "atm",
          "brand": "Bank of Maharashtra",
          "brand:wikidata": "Q2004304",
          "level": "0",
          "name": "Bank of Maharashtra",
          "opening_hours": "24/7",
          "operator": "Bank of Maharashtra",
          "operator:wikidata": "Q2004304",
          "wheelchair": "no"
        }
      },
      {
        "type": "node",
        "id": 6495330876,
        "lat": 28.6342714,
        "lon": 77.2192315,
        "tags": {
          "addr:housename": "B-25",
          "addr:place": "Connaught Place",
          "addr:postcode": "110001",
          "air_conditioning": "yes",
          "alcohol": "yes",
          "amenity": "restaurant",
          "diet:vegan": "yes",
          "diet:vegetarian": "yes",
          "indoor_seating": "yes",
          "level": "0",
          "name": "Zen",
          "opening_hours": "PH,Mo-Su 11:30-19:45",
          "outdoor_seating": "no",
          "smoking": "separated",
          "wheelchair": "limited"
        }
      },
      {
        "type": "node",
        "id": 6495346837,
        "lat": 28.6336036,
        "lon": 77.2178165,
        "tags": {
          "addr:housename": "A",
          "amenity": "cafe",
          "brand": "Cafe Coffee Day",
          "brand:wikidata": "Q5017235",
          "cuisine": "coffee_shop",
          "diet:vegan": "yes",
          "diet:vegetarian": "yes",
          "name": "Cafe Coffee Day",
          "takeaway": "yes",
          "wheelchair": "no"
        }
      },
      {
        "type": "node",
        "id": 6495346838,
        "lat": 28.6342817,
        "lon": 77.2190663,
        "tags": {
          "addr:housename": "B",
          "addr:place": "Connaught Place",
          "addr:postcode": "110001",
          "air_conditioning": "no",
          "amenity": "restaurant",
          "diet:vegan": "yes",
          "diet:vegetarian": "yes",
          "indoor_seating": "yes",
          "level": "1",
          "name": "The Big Chill",
          "outdoor_seating": "no",
          "smoking": "yes"
        }
      },
      {
        "type": "node",
        "id": 6566966468,
        "lat": 28.6343601,
        "lon": 77.2182711,
        "tags": {
          "addr:city": "New Delhi",
          "addr:housenumber": "B-49",
          "addr:postcode": "110001",
          "addr:street": "Connaught Circus (Indira Chowk), Connaught Place",
          "amenity": "cafe",
          "diet:vegan": "yes",
          "diet:vegetarian": "yes",
          "name": "OTB Caf\u00e9"
        }
      },
      {
        "type": "node",
        "id": 6657141286,
        "lat": 28.6409128,
        "lon": 77.2136434,
        "tags": {
          "amenity": "restaurant",
          "internet_access": "wlan",
          "name": "Bistrot 55"
        }
      },
      {
        "type": "node",
        "id": 6676143713,
        "lat": 28.6305595,
        "lon": 77.2212797,
        "tags": {
          "amenity": "restaurant",
          "cuisine": "indian;pizza",
          "diet:vegetarian": "yes",
          "internet_access": "no",
          "name": "The Art House Cafe",
          "opening_hours": "Mo-Su 10:00-01:00",
          "toilets": "yes",
          "wheelchair": "limited"
        }
      },
      {
        "type": "node",
        "id": 6676417797,
        "lat": 28.6307089,
        "lon": 77.222185,
        "tags": {
          "amenity": "atm"
        }
      },
      {
        "type": "node",
        "id": 6707994776,
        "lat": 28.634703,
        "lon": 77.2205246,
        "tags": {
          "addr:block": "C",
          "addr:housenumber": "42/2",
          "addr:place": "Connaught Place",
          "addr:postcode": "110001",
          "addr:street": "Middle Circle",
          "amenity": "restaurant",
          "contact:email": "info@shakesquare.co.in",
          "contact:facebook": "https://www.facebook.com/Shake-Square-Connaught-Place-242986939074737",
          "contact:instagram": "https://www.instagram.com/shakesquare",
          "contact:website": "http://shakesquare.co.in",
          "cuisine": "shake;ice_cream;italian;salad;noodles;pizza;pasta",
          "diet:vegan": "yes",
          "diet:vegetarian": "only",
          "drink:shake": "yes",
          "level": "0;1",
          "name": "Shake Square",
          "operator": "M/s SS Milk Products",
          "seats": "23",
          "smoking": "no",
          "wheelchair": "no"
        }
      },
      {
        "type": "node",
        "id": 6734411085,
        "lat": 28.6405754,
        "lon": 77.2117485,
        "tags": {
          "amenity": "cafe",
          "name": "Open Hand Cafe (top top ;)"
        }
      },
      {
        "type": "node",
        "id": 6761961064,
        "lat": 28.6347974,
        "lon": 77.2201885,
        "tags": {
          "amenity": "fast_food",
          "cuisine": "roll",
          "diet:vegan": "yes",
          "diet:vegetarian": "yes",
          "level": "0",
          "name": "Halka Fulka",
          "name:hi": "\u0939\u0932\u0915\u093e \u092b\u093c\u0941\u0932\u0915\u093e",
          "wheelchair": "yes"
        }
      },
      {
        "type": "node",
        "id": 6814370612,
        "lat": 28.6288935,
        "lon": 77.2187659,
        "tags": {
          "addr:city": "New Delhi",
          "addr:district": "Connaught Place",
          "addr:housename": "Janpath Bhawan",
          "addr:subdistrict": "Janpath Market",
          "addr:unit": "19",
          "amenity": "fast_food",
          "contact:phone": "+91-99999-12566",
          "cuisine": "roll",
          "delivery": "yes",
          "name": "34, Chowringhee Lane",
          "opening_hours": "Mo-Su 11:00-22:00"
        }
      },
      {
        "type": "node",
        "id": 6814370613,
        "lat": 28.6288925,
        "lon": 77.2186728,
        "tags": {
          "amenity": "cafe",
          "name": "DePaul's"
        }
      },
      {
        "type": "node",
        "id": 6832945794,
        "lat": 28.6347114,
        "lon": 77.2217366,
        "tags": {
          "amenity": "bank",
          "atm": "yes",
          "brand": "Saraswat Bank",
          "survey:date": "2023-01-24"
        }
      },
      {
        "type": "node",
        "id": 6898010185,
        "lat": 28.6305923,
        "lon": 77.2172927,
        "tags": {
          "addr:city": "New Delhi",
          "amenity": "fast_food",
          "name": "Mcdonald",
          "wheelchair": "no"
        }
      },
      {
        "type": "node",
        "id": 7040223886,
        "lat": 28.6256334,
        "lon": 77.2201793,
        "tags": {
          "addr:city": "New Delhi",
          "name": "Cottage Emporium",
          "shop": "supermarket"
        }
      },
      {
        "type": "node",
        "id": 7041400209,
        "lat": 28.6344467,
        "lon": 77.2220056,
        "tags": {
          "amenity": "restaurant",
          "diet:vegan": "yes",
          "diet:vegetarian": "yes",
          "indoor_seating": "yes",
          "name": "Sandoz",
          "outdoor_seating": "no"
        }
      },
      {
        "type": "node",
        "id": 7043007385,
        "lat": 28.6348608,
        "lon": 77.2186893,
        "tags": {
          "amenity": "bank",
          "branch": "Connaught Circus",
          "brand": "Bank of India",
          "brand:wikidata": "Q2004439",
          "indoor": "yes",
          "name": "Bank of India",
          "operator": "Bank of India",
          "operator:wikidata": "Q2004439"
        }
      },
      {
        "type": "node",
        "id": 7044903485,
        "lat": 28.6345679,
        "lon": 77.2219125,
        "tags": {
          "amenity": "restaurant",
          "diet:vegan": "yes",
          "diet:vegetarian": "yes",
          "indoor_seating": "yes",
          "name": "Minar",
          "outdoor_seating": "no",
          "survey:date": "2023-01-24"
        }
      },
      {
        "type": "node",
        "id": 7062639241,
        "lat": 28.6302271,
        "lon": 77.2202118,
        "tags": {
          "amenity": "fast_food",
          "brand": "Taco Bell",
          "brand:wikidata": "Q752941",
          "cuisine": "tex-mex",
          "diet:lacto_vegetarian": "yes",
          "diet:vegetarian": "yes",
          "name": "Taco Bell",
          "note": "Seat and table count only for the first level.",
          "seats": "60",
          "tables": "20",
          "takeaway": "yes",
          "wheelchair": "limited"
        }
      },
      {
        "type": "node",
        "id": 7083796923,
        "lat": 28.6350184,
        "lon": 77.2195254,
        "tags": {
          "addr:housename": "H",
          "addr:housenumber": "9",
          "addr:place": "Connaught Place",
          "addr:postcode": "110001",
          "air_conditioning": "yes",
          "amenity": "restaurant",
          "bar": "yes",
          "contact:phone": "+91 11 2332 0081;+91 11 4152 8042",
          "contact:website": "https://toninoindia.com/",
          "cuisine": "italian",
          "diet:vegan": "yes",
          "diet:vegetarian": "yes",
          "drink:beer": "served",
          "drink:wine": "served",
          "level": "1",
          "name": "Caff\u00e8 Tonino",
          "toilets": "yes",
          "toilets:access": "customers",
          "wheelchair": "no"
        }
      },
      {
        "type": "node",
        "id": 7083916145,
        "lat": 28.6342664,
        "lon": 77.2180918,
        "tags": {
          "alt_name": "Hashery",
          "amenity": "cafe",
          "diet:vegan": "yes",
          "diet:vegetarian": "yes",
          "drink:hot_chocolate": "served",
          "name": "#ashery",
          "seats": "17"
        }
      },
      {
        "type": "node",
        "id": 7109534085,
        "lat": 28.6412335,
        "lon": 77.2144015,
        "tags": {
          "amenity": "bank",
          "brand": "Western Union",
          "brand:wikidata": "Q861042",
          "name": "Western Union & Express Money"
        }
      },
      {
        "type": "node",
        "id": 7110019814,
        "lat": 28.6345219,
        "lon": 77.2225088,
        "tags": {
          "amenity": "restaurant",
          "diet:vegan": "yes",
          "diet:vegetarian": "yes",
          "indoor_seating": "yes",
          "name": "National Restaurant",
          "outdoor_seating": "no"
        }
      },
      {
        "type": "node",
        "id": 7138493163,
        "lat": 28.633024,
        "lon": 77.2111811,
        "tags": {
          "addr:district": "New Delhi",
          "addr:full": "Shaheed Bhagat Singh Marg, DIZ Area, Connaught Place",
          "addr:postcode": "110001",
          "addr:state": "Delhi",
          "amenity": "clinic",
          "contact:phone": "011-23365482",
          "description": "Polyclinic",
          "name": "New Delhi Municipal Council Polyclinic",
          "source": "OpenGovernmentData"
        }
      },
      {
        "type": "node",
        "id": 7138493193,
        "lat": 28.6357652,
        "lon": 77.2110664,
        "tags": {
          "addr:district": "New Delhi",
          "addr:full": "C- 604, Connaught Circus, DIZ Area, Connaught Place, New Delhi",
          "addr:postcode": "110001",
          "addr:state": "Delhi",
          "amenity": "hospital",
          "contact:phone": "011 2334 4147",
          "name": "Kalawati Saran Children's Hospital",
          "source": "OpenGovernmentData"
        }
      },
      {
        "type": "node",
        "id": 7138493258,
        "lat": 28.6365867,
        "lon": 77.2173905,
        "tags": {
          "addr:district": "New Delhi",
          "addr:full": "Basant Lane, Paharganj, Connaught Place",
          "addr:postcode": "110055",
          "addr:state": "Delhi",
          "amenity": "hospital",
          "contact:phone": "011- 2334 4092",
          "description": "100-500 Bedded Hospital",
          "healthcare": "hospital",
          "name": "Central Hospital (Northern Railways)",
          "source": "OpenGovernmentData"
        }
      },
      {
        "type": "node",
        "id": 7138534287,
        "lat": 28.634138,
        "lon": 77.212909,
        "tags": {
          "addr:district": "Central",
          "addr:full": "C-604, Shaheed Bhagat Singh Road, Diz Area, Connaught Place, New Delhi",
          "addr:postcode": "110001",
          "addr:state": "Delhi",
          "amenity": "hospital",
          "contact:nodal_officer_email": "serologyhailhmc@gmail.com",
          "contact:nodal_officer_mobile": "9868961269",
          "contact:phone": "1123363728",
          "healthcare": "hospital",
          "name": "Lady Hardinge Medical College & Associated Hospitals",
          "name:etymology:wikidata": "Q4020403",
          "source": "OpenGovernmentData"
        }
      },
      {
        "type": "node",
        "id": 7222985985,
        "lat": 28.6411587,
        "lon": 77.2134007,
        "tags": {
          "addr:street": "1176 Main Bazar",
          "amenity": "restaurant",
          "internet_access": "wlan",
          "name": "Singh\u2019s caf\u00e9 & restaurant"
        }
      },
      {
        "type": "node",
        "id": 7263014446,
        "lat": 28.6294081,
        "lon": 77.2221975,
        "tags": {
          "amenity": "bank",
          "branch": "Kasturba Gandhi Marg",
          "brand": "HDFC Bank",
          "brand:wikidata": "Q631047",
          "name": "HDFC Bank",
          "short_name": "HDFC"
        }
      },
      {
        "type": "node",
        "id": 8042900291,
        "lat": 28.6408204,
        "lon": 77.2114592,
        "tags": {
          "addr:city": "New Delhi",
          "addr:housenumber": "1606,",
          "addr:postcode": "110055",
          "addr:street": "Main Bazar Road, Chuna Mandi, Paharganj 110055",
          "name": "Organic India Pharganj",
          "organic": "yes",
          "shop": "supermarket"
        }
      },
      {
        "type": "node",
        "id": 8044305077,
        "lat": 28.6357531,
        "lon": 77.2205669,
        "tags": {
          "amenity": "cafe",
          "diet:vegan": "yes",
          "diet:vegetarian": "yes",
          "name": "Travel Yoga Cafe"
        }
      },
      {
        "type": "node",
        "id": 8151189839,
        "lat": 28.6287272,
        "lon": 77.2229395,
        "tags": {
          "addr:full": "Antriksh Bhavan, 22, KG Marg, Barakhamba, New Delhi, Delhi",
          "amenity": "restaurant",
          "name": "Parikrama - The Revolving Restaurant",
          "website": "www.thewoofytails.com"
        }
      },
      {
        "type": "node",
        "id": 8151246340,
        "lat": 28.6311711,
        "lon": 77.2170294,
        "tags": {
          "addr:city": "New Delhi",
          "addr:full": "L-43, Connaught Cir, Hanuman Road Area, Connaught Place, New Delhi, Delhi",
          "amenity": "hospital",
          "name": "Arvind Medicare"
        }
      },
      {
        "type": "node",
        "id": 8151246349,
        "lat": 28.6267808,
        "lon": 77.2182706,
        "tags": {
          "addr:city": "New Delhi",
          "addr:full": "40, Tolstoy Rd, Atul Grove Road, Janpath, Connaught Place, New Delhi, Delhi",
          "amenity": "hospital",
          "name": "General Williams Hospital"
        }
      },
      {
        "type": "node",
        "id": 8982336371,
        "lat": 28.6267988,
        "lon": 77.2197099,
        "tags": {
          "amenity": "cafe",
          "brand": "Cafe Coffee Day",
          "brand:wikidata": "Q5017235",
          "cuisine": "coffee_shop",
          "name": "Cafe Coffee Day",
          "takeaway": "yes"
        }
      },
      {
        "type": "node",
        "id": 8982433114,
        "lat": 28.6274298,
        "lon": 77.2198655,
        "tags": {
          "amenity": "bank",
          "brand": "Yes Bank",
          "brand:wikidata": "Q2040394",
          "name": "Yes Bank"
        }
      },
      {
        "type": "node",
        "id": 8982438637,
        "lat": 28.6279832,
        "lon": 77.2198697,
        "tags": {
          "alt_name": "Haldiram",
          "amenity": "fast_food",
          "brand": "Haldiram's",
          "brand:wikidata": "Q17054442",
          "cuisine": "indian",
          "name": "Haldiram's",
          "takeaway": "yes"
        }
      },
      {
        "type": "node",
        "id": 8982438640,
        "lat": 28.6282217,
        "lon": 77.2198897,
        "tags": {
          "amenity": "bank",
          "branch": "Janpath",
          "brand": "Canara Bank",
          "brand:en": "Canara Bank",
          "brand:hi": "\u0915\u0947\u0928\u0930\u093e \u092c\u0948\u0902\u0915",
          "brand:kn": "\u0c95\u0cc6\u0ca8\u0cb0\u0cbe \u0cac\u0ccd\u0caf\u0cbe\u0c82\u0c95\u0ccd",
          "brand:pa": "\u0a15\u0a47\u0a28\u0a30\u0a3e \u0a2c\u0a48\u0a02\u0a15",
          "brand:pnb": "\u06a9\u06cc\u0646\u0631\u0627 \u0628\u06cc\u0646\u06a9",
          "brand:ur": "\u06a9\u06cc\u0646\u0631\u0627 \u0628\u06cc\u0646\u06a9",
          "brand:wikidata": "Q2003777",
          "name": "Canara Bank",
          "name:en": "Canara Bank",
          "name:hi": "\u0915\u0947\u0928\u0930\u093e \u092c\u0948\u0902\u0915",
          "name:kn": "\u0c95\u0cc6\u0ca8\u0cb0\u0cbe \u0cac\u0ccd\u0caf\u0cbe\u0c82\u0c95\u0ccd",
          "name:pa": "\u0a15\u0a47\u0a28\u0a30\u0a3e \u0a2c\u0a48\u0a02\u0a15",
          "name:pnb": "\u06a9\u06cc\u0646\u0631\u0627 \u0628\u06cc\u0646\u06a9",
          "name:ur": "\u06a9\u06cc\u0646\u0631\u0627 \u0628\u06cc\u0646\u06a9"
        }
      },
      {
        "type": "node",
        "id": 9037075910,
        "lat": 28.6304108,
        "lon": 77.2198181,
        "tags": {
          "amenity": "restaurant",
          "diet:vegetarian": "yes",
          "name": "Nik Baker's"
        }
      },
      {
        "type": "node",
        "id": 9038318509,
        "lat": 28.6349683,
        "lon": 77.2190751,
        "tags": {
          "addr:block": "H",
          "addr:housenumber": "54",
          "amenity": "bank",
          "branch": "Connaught Circus",
          "brand": "Canara Bank",
          "brand:en": "Canara Bank",
          "brand:hi": "\u0915\u0947\u0928\u0930\u093e \u092c\u0948\u0902\u0915",
          "brand:kn": "\u0c95\u0cc6\u0ca8\u0cb0\u0cbe \u0cac\u0ccd\u0caf\u0cbe\u0c82\u0c95\u0ccd",
          "brand:pa": "\u0a15\u0a47\u0a28\u0a30\u0a3e \u0a2c\u0a48\u0a02\u0a15",
          "brand:pnb": "\u06a9\u06cc\u0646\u0631\u0627 \u0628\u06cc\u0646\u06a9",
          "brand:ur": "\u06a9\u06cc\u0646\u0631\u0627 \u0628\u06cc\u0646\u06a9",
          "brand:wikidata": "Q2003777",
          "name": "Canara Bank",
          "name:en": "Canara Bank",
          "name:hi": "\u0915\u0947\u0928\u0930\u093e \u092c\u0948\u0902\u0915",
          "name:kn": "\u0c95\u0cc6\u0ca8\u0cb0\u0cbe \u0cac\u0ccd\u0caf\u0cbe\u0c82\u0c95\u0ccd",
          "name:pa": "\u0a15\u0a47\u0a28\u0a30\u0a3e \u0a2c\u0a48\u0a02\u0a15",
          "name:pnb": "\u06a9\u06cc\u0646\u0631\u0627 \u0628\u06cc\u0646\u06a9",
          "name:ur": "\u06a9\u06cc\u0646\u0631\u0627 \u0628\u06cc\u0646\u06a9"
        }
      },
      {
        "type": "node",
        "id": 9182111845,
        "lat": 28.6258863,
        "lon": 77.213853,
        "tags": {
          "amenity": "atm",
          "brand": "State Bank of India",
          "brand:en": "State Bank of India",
          "brand:wikidata": "Q1340361",
          "currency:INR": "yes",
          "drive_through": "no",
          "indoor": "yes",
          "level": "0",
          "note": "Contributors are requested to not edit the \"brand\", \"brand:en\", \"brand:wikidata\", \"operator\", \"operator:en\" and \"operator:wikidata\" tags. (2025/02/19)",
          "opening_hours": "24/7",
          "operator": "State Bank of India",
          "operator:en": "State Bank of India",
          "operator:wikidata": "Q1340361",
          "short_name": "SBI"
        }
      },
      {
        "type": "node",
        "id": 9202231252,
        "lat": 28.6348369,
        "lon": 77.219416,
        "tags": {
          "amenity": "atm",
          "brand": "Canara Bank",
          "brand:en": "Canara Bank",
          "brand:hi": "\u0915\u0947\u0928\u0930\u093e \u092c\u0948\u0902\u0915",
          "brand:kn": "\u0c95\u0cc6\u0ca8\u0cb0\u0cbe \u0cac\u0ccd\u0caf\u0cbe\u0c82\u0c95\u0ccd",
          "brand:pa": "\u0a15\u0a47\u0a28\u0a30\u0a3e \u0a2c\u0a48\u0a02\u0a15",
          "brand:pnb": "\u06a9\u06cc\u0646\u0631\u0627 \u0628\u06cc\u0646\u06a9",
          "brand:ur": "\u06a9\u06cc\u0646\u0631\u0627 \u0628\u06cc\u0646\u06a9",
          "brand:wikidata": "Q2003777",
          "name": "Canara Bank",
          "name:en": "Canara Bank",
          "name:hi": "\u0915\u0947\u0928\u0930\u093e \u092c\u0948\u0902\u0915",
          "name:kn": "\u0c95\u0cc6\u0ca8\u0cb0\u0cbe \u0cac\u0ccd\u0caf\u0cbe\u0c82\u0c95\u0ccd",
          "name:pa": "\u0a15\u0a47\u0a28\u0a30\u0a3e \u0a2c\u0a48\u0a02\u0a15",
          "name:pnb": "\u06a9\u06cc\u0646\u0631\u0627 \u0628\u06cc\u0646\u06a9",
          "name:ur": "\u06a9\u06cc\u0646\u0631\u0627 \u0628\u06cc\u0646\u06a9",
          "operator": "Canara Bank",
          "operator:wikidata": "Q2003777",
          "wheelchair": "no"
        }
      },
      {
        "type": "node",
        "id": 9202231253,
        "lat": 28.6348478,
        "lon": 77.2194897,
        "tags": {
          "amenity": "fast_food",
          "diet:vegan": "yes",
          "diet:vegetarian": "yes",
          "name": "Tau",
          "name:hi": "\u0924\u093e\u090a"
        }
      },