{
  "pois_1km": {
    "version": 0.6,
    "generator": "Overpass API 0.7.62.8 e802775f",
    "osm3s": {
      "timestamp_osm_base": "2025-09-06T08:01:01Z",
      "copyright": "The data included in this document is from www.openstreetmap.org. The data is made available under ODbL."
    },
    "elements": [
      {
        "type": "node",
        "id": 312508904,
        "lat": 12.9619513,
        "lon": 77.6419064,
        "tags": {
          "addr:street": "100 Feet Road",
          "amenity": "restaurant",
          "name": "Nandhini",
          "name:kn": "\u0ca8\u0c82\u0ca6\u0cbf\u0ca8\u0cbf",
          "wheelchair": "no"
        }
      },
      {
        "type": "node",
        "id": 312509585,
        "lat": 12.9601353,
        "lon": 77.6431187,
        "tags": {
          "addr:street": "HAL Airport Road",
          "amenity": "atm",
          "brand": "Axis Bank",
          "brand:wikidata": "Q2003549",
          "name": "Axis Bank",
          "opening_hours": "24/7",
          "operator": "Axis Bank",
          "operator:wikidata": "Q2003549"
        }
      },
      {
        "type": "node",
        "id": 312595359,
        "lat": 12.9559416,
        "lon": 77.6412371,
        "tags": {
          "amenity": "restaurant",
          "brand": "Pizza Hut",
          "brand:wikidata": "Q191615",
          "cuisine": "pizza",
          "name": "Pizza Hut",
          "name:kn": "\u0caa\u0cbf\u0c9c\u0cbe \u0cb9\u0c9f\u0ccd"
        }
      },
      {
        "type": "node",
        "id": 312595492,
        "lat": 12.9558995,
        "lon": 77.6411692,
        "tags": {
          "amenity": "restaurant",
          "name": "Nandhana",
          "name:kn": "\u0ca8\u0c82\u0ca6\u0ca8"
        }
      },
      {
        "type": "node",
        "id": 316993744,
        "lat": 12.9600367,
        "lon": 77.6452495,
        "tags": {
          "addr:street": "HAL Airport Road",
          "amenity": "atm",
          "brand": "Kotak Mahindra Bank",
          "brand:wikidata": "Q2040404",
          "check_date": "2022-07-30",
          "name": "Kotak Mahindra Bank",
          "operator": "Kotak Mahindra Bank",
          "operator:wikidata": "Q2040404"
        }
      },
      {
        "type": "node",
        "id": 316993745,
        "lat": 12.9600398,
        "lon": 77.6452145,
        "tags": {
          "addr:street": "HAL Airport Road",
          "amenity": "atm",
          "brand": "Citibank",
          "brand:wikidata": "Q857063",
          "name": "Citibank",
          "opening_hours": "24/7",
          "operator": "Citibank",
          "operator:wikidata": "Q857063",
          "short_name": "Citi"
        }
      },
      {
        "type": "node",
        "id": 316995046,
        "lat": 12.9600171,
        "lon": 77.6454021,
        "tags": {
          "addr:street": "HAL Airport Road",
          "amenity": "pharmacy",
          "name": "Ashwin Pharma"
        }
      },
      {
        "type": "node",
        "id": 316996550,
        "lat": 12.9581727,
        "lon": 77.6402029,
        "tags": {
          "amenity": "pharmacy"
        }
      },
      {
        "type": "node",
        "id": 316999364,
        "lat": 12.9637134,
        "lon": 77.6403936,
        "tags": {
          "addr:street": "Indiranagar Double Road",
          "amenity": "fast_food",
          "brand": "Subway",
          "brand:pa": "\u0a38\u0a2c\u0a35\u0a47\u0a05",
          "brand:ur": "\u0633\u0628 \u0648\u06d2",
          "brand:wikidata": "Q244457",
          "brand:wikipedia": "en:Subway (restaurant)",
          "cuisine": "sandwich",
          "name": "Subway",
          "name:kn": "\u0cb8\u0cac\u0ccd\u200c\u0cb5\u0cc7",
          "name:pa": "\u0a38\u0a2c\u0a35\u0a47\u0a05",
          "name:ur": "\u0633\u0628 \u0648\u06d2",
          "takeaway": "yes"
        }
      },
      {
        "type": "node",
        "id": 316999477,
        "lat": 12.9686175,
        "lon": 77.6489441,
        "tags": {
          "amenity": "pharmacy",
          "brand": "Apollo Pharmacy",
          "brand:wikidata": "Q62562612",
          "healthcare": "pharmacy",
          "name": "Apollo Pharmacy",
          "name:kn": "\u0c85\u0caa\u0cca\u0cb2\u0ccb \u0cab\u0cbe\u0cb0\u0ccd\u0cae\u0cb8\u0cbf"
        }
      },
      {
        "type": "node",
        "id": 736014185,
        "lat": 12.9622135,
        "lon": 77.6414116,
        "tags": {
          "addr:street": "100 Feet Road( S K Karim Khan Road)",
          "amenity": "restaurant",
          "name": "Barbeque Nation",
          "name:kn": "\u0cac\u0cb0\u0ccd\u0cac\u0c95\u0ccd\u0caf\u0cc2 \u0ca8\u0cc7\u0cb6\u0ca8\u0ccd",
          "wheelchair": "limited"
        }
      },
      {
        "type": "node",
        "id": 844423869,
        "lat": 12.9590966,
        "lon": 77.6544331,
        "tags": {
          "amenity": "restaurant",
          "brand": "Pizza Hut",
          "brand:wikidata": "Q191615",
          "cuisine": "pizza",
          "indoor_seating": "yes",
          "name": "Pizza Hut",
          "name:kn": "\u0caa\u0cbf\u0c9f\u0ccd\u0cb8 \u0cb9\u0c9f\u0ccd",
          "outdoor_seating": "no"
        }
      },
      {
        "type": "node",
        "id": 844434365,
        "lat": 12.960424,
        "lon": 77.646233,
        "tags": {
          "addr:street": "Kodihalli Main Road",
          "amenity": "pharmacy"
        }
      },
      {
        "type": "node",
        "id": 844434369,
        "lat": 12.9622433,
        "lon": 77.6470269,
        "tags": {
          "addr:street": "Kodihalli Main Road",
          "amenity": "pharmacy"
        }
      },
      {
        "type": "node",
        "id": 940515833,
        "lat": 12.959041,
        "lon": 77.6564566,
        "tags": {
          "addr:street": "HAL Airport Road",
          "amenity": "restaurant",
          "cuisine": "Andhra",
          "name": "Hyderabad Biryani House",
          "name:kn": "\u0cb9\u0cc8\u0ca6\u0cb0\u0cbe\u0cac\u0cbe\u0ca6\u0ccd \u0cac\u0cbf\u0cb0\u0caf\u0cbe\u0ca8\u0cbf \u0cb9\u0ccc\u0cb8\u0ccd"
        }
      },
      {
        "type": "node",
        "id": 1091414246,
        "lat": 12.9594188,
        "lon": 77.6486258,
        "tags": {
          "amenity": "restaurant",
          "name": "Matthan",
          "name:kn": "\u0cae\u0ca4\u0ccd\u0ca4\u0ca8\u0ccd"
        }
      },
      {
        "type": "node",
        "id": 1328613155,
        "lat": 12.9621543,
        "lon": 77.6418716,
        "tags": {
          "amenity": "restaurant",
          "name": "Mainland China",
          "name:kn": "\u0cae\u0cc7\u0ca8\u0ccd\u200c\u0cb2\u0ccd\u0caf\u0cbe\u0c82\u0ca1\u0ccd \u0c9a\u0cc8\u0ca8\u0cbe",
          "wheelchair": "limited"
        }
      },
      {
        "type": "node",
        "id": 1339408152,
        "lat": 12.9687955,
        "lon": 77.6488858,
        "tags": {
          "addr:housenumber": "1650",
          "addr:street": "Jeevan Bhima Nagar 10th Main Road",
          "amenity": "fast_food",
          "cuisine": "juice;sandwich",
          "diet:vegetarian": "only",
          "level": "0",
          "name": "Sabari Juice Junction",
          "opening_hours": "Mo-Su 10:00-22:00",
          "wheelchair": "limited"
        }
      },
      {
        "type": "node",
        "id": 1339408167,
        "lat": 12.9690594,
        "lon": 77.6479877,
        "tags": {
          "addr:street": "80 Feet Road(Sir C.V. Raman Hospital Road)",
          "amenity": "restaurant",
          "cuisine": "chinese",
          "diet:vegetarian": "yes",
          "indoor_seating": "yes",
          "name": "Beijing Bites",
          "name:kn": "\u0cac\u0cc0\u0c9c\u0cbf\u0c82\u0c97\u0ccd \u0cac\u0cc8\u0c9f\u0ccd\u0cb8\u0ccd",
          "outdoor_seating": "no"
        }
      },
      {
        "type": "node",
        "id": 1420058894,
        "lat": 12.9643071,
        "lon": 77.6437722,
        "tags": {
          "amenity": "restaurant",
          "name": "Sethji's",
          "name:kn": "\u0cb8\u0cc7\u0ca4\u0ccd\u200c\u0c9c\u0cc0\u0cb8\u0ccd"
        }
      },
      {
        "type": "node",
        "id": 1420105723,
        "lat": 12.9638721,
        "lon": 77.6400982,
        "tags": {
          "amenity": "bank",
          "atm": "yes",
          "check_date": "2023-10-08",
          "name": "Maha Bank"
        }
      },
      {
        "type": "node",
        "id": 1466495360,
        "lat": 12.9600525,
        "lon": 77.6505303,
        "tags": {
          "amenity": "bank",
          "branch": "NAL Main Branch",
          "brand": "State Bank of India",
          "brand:wikidata": "Q1340361",
          "brand:wikipedia": "en:State Bank of India",
          "name": "State Bank of India",
          "name:kn": "\u0cad\u0cbe\u0cb0\u0ca4\u0cc0\u0caf \u0cb8\u0ccd\u0c9f\u0cc7\u0c9f\u0ccd \u0cac\u0ccd\u0caf\u0cbe\u0c82\u0c95\u0ccd",
          "short_name": "SBI",
          "wheelchair": "no"
        }
      },
      {
        "type": "node",
        "id": 1472937714,
        "lat": 12.9603151,
        "lon": 77.6458853,
        "tags": {
          "amenity": "restaurant",
          "cuisine": "indian",
          "name": "Raham's Families International (Richies) Restaurant",
          "name:kn": "\u0cb0\u0cbf\u0c9a\u0cc0\u0cb8\u0ccd",
          "wheelchair": "no"
        }
      },
      {
        "type": "node",
        "id": 1594750994,
        "lat": 12.9591717,
        "lon": 77.6550416,
        "tags": {
          "amenity": "restaurant",
          "cuisine": "indian",
          "level": "1",
          "name": "Suchitra Biriyani",
          "name:kn": "\u0cb8\u0cc1\u0c9a\u0cbf\u0ca4\u0ccd\u0cb0 \u0cac\u0cbf\u0cb0\u0cbf\u0caf\u0cbe\u0ca8\u0cbf"
        }
      },
      {
        "type": "node",
        "id": 1594751028,
        "lat": 12.9595298,
        "lon": 77.6561326,
        "tags": {
          "amenity": "restaurant",
          "diet:vegetarian": "only",
          "name": "Udupi Park",
          "name:kn": "\u0c89\u0ca1\u0cc1\u0caa\u0cbf \u0caa\u0cbe\u0cb0\u0ccd\u0c95\u0ccd"
        }
      },
      {
        "type": "node",
        "id": 1654513480,
        "lat": 12.9607214,
        "lon": 77.6458388,
        "tags": {
          "addr:street": "Manipal Motors Road",
          "amenity": "fast_food",
          "cuisine": "indian",
          "name": "Madurai Style Idli Vada Dosa",
          "name:kn": "\u0cae\u0ca7\u0cc1\u0cb0\u0cc8 \u0cb6\u0cc8\u0cb2\u0cbf\u0caf \u0c87\u0ca1\u0ccd\u0cb2\u0cbf \u0cb5\u0ca1\u0cbe \u0ca6\u0ccb\u0cb8\u0cc6",
          "wheelchair": "no"
        }
      },
      {
        "type": "node",
        "id": 1659137304,
        "lat": 12.9582464,
        "lon": 77.6412466,
        "tags": {
          "amenity": "pharmacy",
          "brand": "Apollo Pharmacy",
          "brand:wikidata": "Q62562612",
          "dispensing": "no",
          "healthcare": "pharmacy",
          "name": "Apollo Pharmacy",
          "name:kn": "\u0c85\u0caa\u0ccb\u0cb2\u0ccb \u0cab\u0cbe\u0cb0\u0ccd\u0cae\u0cb8\u0cbf",
          "opening_hours": "Mo-Fr 08:30-20:00"
        }
      },
      {
        "type": "node",
        "id": 1758038053,
        "lat": 12.9683052,
        "lon": 77.6504678,
        "tags": {
          "addr:postcode": "560008",
          "addr:street": "Jeevan Bhima Nagar Main road,",
          "amenity": "restaurant",
          "name": "Kaayal",
          "name:kn": "\u0c95\u0cbe\u0caf\u0cb2\u0ccd",
          "website": "http://kaayal.in/"
        }
      },
      {
        "type": "node",
        "id": 1758038060,
        "lat": 12.9686424,
        "lon": 77.6498752,
        "tags": {
          "amenity": "atm",
          "brand": "ICICI Bank",
          "brand:wikidata": "Q1653258",
          "name": "ICICI Bank",
          "operator": "ICICI Bank",
          "operator:wikidata": "Q1653258",
          "short_name": "ICICI"
        }
      },
      {
        "type": "node",
        "id": 1758230692,
        "lat": 12.9679728,
        "lon": 77.6517588,
        "tags": {
          "name": "Top in Town",
          "shop": "supermarket"
        }
      },
      {
        "type": "node",
        "id": 1760015499,
        "lat": 12.968117,
        "lon": 77.6504466,
        "tags": {
          "amenity": "pharmacy",
          "brand": "MedPlus",
          "brand:wikidata": "Q65684234",
          "brand:wikipedia": "en:MedPlus",
          "healthcare": "pharmacy",
          "name": "MedPlus",
          "name:kn": "\u0cae\u0cc6\u0ca1\u0ccd \u0caa\u0ccd\u0cb2\u0cb8\u0ccd"
        }
      },
      {
        "type": "node",
        "id": 1760015500,
        "lat": 12.9662704,
        "lon": 77.6497422,
        "tags": {
          "addr:housenumber": "579",
          "addr:street": "6th Cross",
          "name": "Z Shoppe",
          "phone": "+91 80 252171841",
          "shop": "supermarket"
        }
      },
      {
        "type": "node",
        "id": 1760015506,
        "lat": 12.9662438,
        "lon": 77.649815,
        "tags": {
          "amenity": "pharmacy",
          "healthcare": "pharmacy"
        }
      },
      {
        "type": "node",
        "id": 1902297692,
        "lat": 12.9569217,
        "lon": 77.6416898,
        "tags": {
          "amenity": "bank",
          "atm": "yes",
          "brand": "HDFC Bank",
          "brand:wikidata": "Q631047",
          "brand:wikipedia": "en:HDFC Bank",
          "name": "HDFC Bank",
          "name:kn": "\u0c8e\u0c9a\u0ccd \u0ca1\u0cbf \u0c8e\u0cab\u0ccd \u0cb8\u0cbf",
          "short_name": "HDFC",
          "source": "survey",
          "website": "https://www.hdfcbank.com"
        }
      },
      {
        "type": "node",
        "id": 1934827302,
        "lat": 12.9683464,
        "lon": 77.6512784,
        "tags": {
          "addr:city": "Bangalore",
          "addr:housename": "Panchami Upahar",
          "addr:housenumber": "513",
          "addr:postcode": "560075",
          "addr:street": "Jeevan Bheema Nagar",
          "amenity": "fast_food",
          "diet:vegetarian": "only",
          "fixme": "Website (www.panchamiupahar.co.cc) doesn't work and Google claims the place is permanantly closed. Can someone confirm that?",
          "name": "Panchami Upahar"
        }
      },
      {
        "type": "node",
        "id": 2550216930,
        "lat": 12.9690389,
        "lon": 77.6481056,
        "tags": {
          "addr:street": "Jeevan Bhima Nagar 10th Main Road",
          "amenity": "restaurant",
          "cuisine": "indian",
          "diet:vegetarian": "yes",
          "name": "Mani's Dum Briyani"
        }
      },
      {
        "type": "node",
        "id": 3007431020,
        "lat": 12.9591031,
        "lon": 77.6563601,
        "tags": {
          "addr:city": "Bangalore",
          "addr:postcode": "560017",
          "addr:street": "Old Airport Road",
          "amenity": "bank",
          "atm": "yes",
          "brand": "ICICI Bank",
          "brand:wikidata": "Q1653258",
          "name": "ICICI Bank",
          "name:en": "ICICI Bank",
          "name:kn": "\u0c90\u0cb8\u0cbf\u0c90\u0cb8\u0cbf\u0c90 \u0cac\u0ccd\u0caf\u0cbe\u0c82\u0c95\u0cc1",
          "opening_hours": "08:00-18:00",
          "short_name": "ICICI",
          "website": "https://www.icicibank.com"
        }
      },
      {
        "type": "node",
        "id": 3016090363,
        "lat": 12.956002,
        "lon": 77.6416096,
        "tags": {
          "amenity": "restaurant",
          "cuisine": "indian;regional",
          "name": "Paramount",
          "name:kn": "\u0c9a\u0cca\u0c95\u0cbf \u0ca6\u0cbe\u0ca8\u0cbf"
        }
      },
      {
        "type": "node",
        "id": 3047997926,
        "lat": 12.9683557,
        "lon": 77.6512329,
        "tags": {
          "addr:city": "Bangalore",
          "addr:postcode": "560075",
          "addr:street": "7th Cross 10th main",
          "amenity": "cafe",
          "brand": "Sweet Chariot",
          "cuisine": "cake",
          "delivery": "yes",
          "name": "Sweet Chariot",
          "shop": "pastry",
          "smoking": "no",
          "takeaway": "yes"
        }
      },
      {
        "type": "node",
        "id": 3047997927,
        "lat": 12.9687951,
        "lon": 77.6488597,
        "tags": {
          "addr:housenumber": "1650",
          "addr:street": "Jeevan Bhima Nagar Main Road",
          "amenity": "fast_food",
          "cuisine": "Manchurian;chinese",
          "diet:vegetarian": "yes",
          "level": "0",
          "name": "Spicy Corner",
          "smoking": "no",
          "wheelchair": "limited"
        }
      },
      {
        "type": "node",
        "id": 3298916258,
        "lat": 12.9563085,
        "lon": 77.6560269,
        "tags": {
          "amenity": "restaurant",
          "cuisine": "regional",
          "name": "Odia Dyne"
        }
      },
      {
        "type": "node",
        "id": 3300076797,
        "lat": 12.9559406,
        "lon": 77.6535335,
        "tags": {
          "name": "Easy Supermarket",
          "shop": "supermarket",
          "wheelchair": "no"
        }
      },
      {
        "type": "node",
        "id": 3300076798,
        "lat": 12.9558936,
        "lon": 77.6535219,
        "tags": {
          "amenity": "restaurant",
          "cuisine": "pizza",
          "name": "J's Pastas n Pizzas"
        }
      },
      {
        "type": "node",
        "id": 3300076818,
        "lat": 12.9549835,
        "lon": 77.6532944,
        "tags": {
          "amenity": "atm",
          "brand": "State Bank of India",
          "brand:wikidata": "Q1340361",
          "name": "State Bank of India",
          "operator": "State Bank of India",
          "operator:wikidata": "Q1340361",
          "short_name": "SBI"
        }
      },
      {
        "type": "node",
        "id": 3300077807,
        "lat": 12.9589663,
        "lon": 77.6543712,
        "tags": {
          "brand": "More",
          "brand:wikidata": "Q6910891",
          "level": "0",
          "name": "More",
          "name:kn": "\u0cae\u0ccb\u0cb0\u0ccd",
          "operator": "More",
          "shop": "supermarket"
        }
      },
      {
        "type": "node",
        "id": 3304100396,
        "lat": 12.9607933,
        "lon": 77.64587,
        "tags": {
          "amenity": "restaurant",
          "name": "Srinidhi Sagar",
          "name:kn": "\u0cb6\u0ccd\u0cb0\u0cc0\u0ca8\u0cbf\u0ca7\u0cbf \u0cb8\u0cbe\u0c97\u0cb0"
        }
      },
      {
        "type": "node",
        "id": 3305353529,
        "lat": 12.9636358,
        "lon": 77.6438548,
        "tags": {
          "addr:street": "2nd Cross",
          "name": "Top in Town Departmental Store",
          "name:kn": "\u0c9f\u0cbe\u0caa\u0ccd \u0c87\u0ca8\u0ccd \u0c9f\u0ccc\u0ca8\u0ccd \u0c95\u0cbf\u0cb0\u0cbe\u0ca3\u0cbf \u0c86\u0c82\u0c97\u0ca1\u0cbf",
          "shop": "department_store"
        }
      },
      {
        "type": "node",
        "id": 3305353532,
        "lat": 12.9650864,
        "lon": 77.6441914,
        "tags": {
          "amenity": "atm",
          "brand": "Corporation Bank",
          "brand:wikidata": "Q2003387",
          "name": "Corporation Bank",
          "name:kn": "\u0c95\u0cbe\u0cb0\u0ccd\u0caa\u0cb0\u0cc7\u0cb7\u0ca8\u0ccd \u0cac\u0ccd\u0caf\u0cbe\u0c82\u0c95\u0ccd",
          "operator": "Corporation Bank",
          "operator:wikidata": "Q2003387"
        }
      },
      {
        "type": "node",
        "id": 3305353534,
        "lat": 12.9652093,
        "lon": 77.6442295,
        "tags": {
          "shop": "department_store"
        }
      },
      {
        "type": "node",
        "id": 3306173192,
        "lat": 12.95682,
        "lon": 77.653741,
        "tags": {
          "amenity": "pharmacy",
          "dispensing": "no"
        }
      },
      {
        "type": "node",
        "id": 3309207333,
        "lat": 12.9571881,
        "lon": 77.6550651,
        "tags": {
          "amenity": "restaurant",
          "cuisine": "meals",
          "name": "Diya Family Restaurant"
        }
      },
      {
        "type": "node",
        "id": 3313847821,
        "lat": 12.9565128,
        "lon": 77.6537159,
        "tags": {
          "amenity": "restaurant",
          "cuisine": "meals",
          "name": "Akshaya Veg"
        }
      },
      {
        "type": "node",
        "id": 3340457186,
        "lat": 12.953121,
        "lon": 77.652908,
        "tags": {
          "amenity": "restaurant",
          "name": "Status"
        }
      },
      {
        "type": "node",
        "id": 3340457188,
        "lat": 12.9530588,
        "lon": 77.652888,
        "tags": {
          "amenity": "restaurant",
          "name": "Udipi Park"
        }
      },
      {
        "type": "node",
        "id": 3340457189,
        "lat": 12.9533697,
        "lon": 77.6525624,
        "tags": {
          "name": "Top in Town",
          "shop": "supermarket",
          "wheelchair": "no"
        }
      },
      {
        "type": "node",
        "id": 3355272069,
        "lat": 12.96257,
        "lon": 77.6432823,
        "tags": {
          "addr:city": "Bengaluru",
          "addr:postcode": "570008",
          "addr:street": "17th B Main",
          "amenity": "restaurant",
          "capacity": "10",
          "delivery": "yes",
          "name": "Big Mummy",
          "takeaway": "yes"
        }
      },
      {
        "type": "node",
        "id": 3355272070,
        "lat": 12.9627703,
        "lon": 77.6424953,
        "tags": {
          "addr:city": "Bengaluru",
          "addr:postcode": "570008",
          "addr:street": "17th B Main",
          "amenity": "restaurant",
          "capacity": "10",
          "cuisine": "hyderabadi",
          "name": "Nandu Biryani Corner",
          "takeaway": "yes"
        }
      },
      {
        "type": "node",
        "id": 3362040054,
        "lat": 12.9633105,
        "lon": 77.6422202,
        "tags": {
          "addr:housenumber": "13",
          "addr:street": "17th Main",
          "amenity": "clinic",
          "name": "Homeocare International",
          "operator": "Private"
        }
      },
      {
        "type": "node",
        "id": 3396324855,
        "lat": 12.9625591,
        "lon": 77.6430964,
        "tags": {
          "addr:street": "18th Main Road",
          "amenity": "pharmacy",
          "brand": "MedPlus",
          "brand:wikidata": "Q65684234",
          "healthcare": "pharmacy",
          "name": "MedPlus",
          "name:kn": "\u0cae\u0cc6\u0ca1\u0ccd \u0caa\u0ccd\u0cb2\u0cb8\u0ccd",
          "website": "https://medplus.com/"
        }
      },
      {
        "type": "node",
        "id": 3396334741,
        "lat": 12.9625376,
        "lon": 77.6432147,
        "tags": {
          "amenity": "bank",
          "atm": "yes",
          "brand": "Tamilnad Mercantile Bank Limited",
          "brand:wikidata": "Q2044991",
          "name": "Tamilnad Mercantile Bank Limited",
          "opening_hours": "24/7"
        }
      },
      {
        "type": "node",
        "id": 3497321173,
        "lat": 12.9548274,
        "lon": 77.6415855,
        "tags": {
          "amenity": "restaurant",
          "cuisine": "indian;regional",
          "description": "Veg food from North India",
          "name": "Mast Kalandar",
          "name:kn": "\u0cae\u0cb8\u0ccd\u0ca4\u0ccd \u0c95\u0cb2\u0c82\u0ca6\u0cb0\u0ccd",
          "opening_hours": "08:30-12:30,15:30-22:00",
          "smoking": "no"
        }
      },
      {
        "type": "node",
        "id": 3497378218,
        "lat": 12.9582235,
        "lon": 77.6415281,
        "tags": {
          "amenity": "restaurant",
          "cuisine": "regional",
          "internet_access": "no",
          "internet_access:fee": "no",
          "name": "Ambur Biriyani",
          "name:kn": "\u0c85\u0c82\u0cac\u0cc1\u0cb0\u0ccd \u0cac\u0cbf\u0cb0\u0cbf\u0caf\u0cbe\u0ca8\u0cbf"
        }
      },
      {
        "type": "node",
        "id": 3497378219,
        "lat": 12.95771,
        "lon": 77.6416441,
        "tags": {
          "amenity": "restaurant",
          "description": "Resturant and Bar",
          "name": "Chef Inn Regency",
          "name:kn": "\u0c9a\u0cc6\u0cab\u0ccd \u0c87\u0ca8\u0ccd \u0cb0\u0cc6\u0c9c\u0cc6\u0ca8\u0ccd\u0cb8\u0cbf"
        }
      },
      {
        "type": "node",
        "id": 3497378221,
        "lat": 12.9579315,
        "lon": 77.6415049,
        "tags": {
          "amenity": "fast_food",
          "cuisine": "indian;regional",
          "internet_access": "no",
          "internet_access:fee": "no",
          "name": "Kolkatta Kati Roll",
          "name:kn": "\u0c95\u0cca\u0cb2\u0ccd\u0c95\u0ca4\u0ccd\u0ca4 \u0c95\u0c9f\u0cbf \u0cb0\u0ccb\u0cb2\u0ccd",
          "smoking": "yes"
        }
      },
      {
        "type": "node",
        "id": 3497378222,
        "lat": 12.9580508,
        "lon": 77.641507,
        "tags": {
          "amenity": "cafe",
          "internet_access": "no",
          "internet_access:fee": "no",
          "name": "Shabari Tea Stall",
          "name:kn": "\u0cb6\u0cac\u0cb0\u0cbf \u0c9f\u0cc0 \u0cb8\u0ccd\u0c9f\u0cbe\u0cb2\u0ccd",
          "smoking": "yes"
        }
      },
      {
        "type": "node",
        "id": 3542140648,
        "lat": 12.9637285,
        "lon": 77.6432716,
        "tags": {
          "leisure": "playground",
          "opening_hours": "06:00-09:30,17:30-20:00",
          "wheelchair": "yes"
        }
      },
      {
        "type": "node",
        "id": 3725710394,
        "lat": 12.9647407,
        "lon": 77.641787,
        "tags": {
          "amenity": "atm",
          "brand": "Citibank",
          "brand:wikidata": "Q857063",
          "name": "Citibank",
          "name:kn": "\u0cb8\u0cbf\u0c9f\u0cbf\u0cac\u0ccd\u0caf\u0cbe\u0c82\u0c95\u0ccd",
          "opening_hours": "24/7",
          "operator": "Citibank",
          "operator:wikidata": "Q857063",
          "short_name": "Citi"
        }
      },
      {
        "type": "node",
        "id": 3725710398,
        "lat": 12.9646378,
        "lon": 77.6417391,
        "tags": {
          "amenity": "fast_food",
          "brand": "Five Star Chicken",
          "cuisine": "chicken",
          "delivery": "yes",
          "name": "Five Star Chicken",
          "takeaway": "yes"
        }
      },
      {
        "type": "node",
        "id": 3725710400,
        "lat": 12.962951,
        "lon": 77.6418711,
        "tags": {
          "amenity": "hospital",
          "name": "Gift IVF center"
        }
      },
      {
        "type": "node",
        "id": 3725719374,
        "lat": 12.9654532,
        "lon": 77.6417318,
        "tags": {
          "addr:street": "100 Feet Road(S K Karim Khan Road)",
          "amenity": "pharmacy",
          "healthcare": "pharmacy",
          "name": "Apollo Clinic",
          "roof:shape": "flat"
        }
      },
      {
        "type": "node",
        "id": 3725719377,
        "lat": 12.9663337,
        "lon": 77.6416686,
        "tags": {
          "addr:street": "100 Feet Road(S K Karim Khan Road)",
          "alt_name": "Wine and Dine",
          "amenity": "restaurant",
          "check_date": "2023-10-08",
          "name": "Little Italy",
          "name:kn": "\u0cb2\u0cbf\u0c9f\u0cb2\u0ccd \u0c87\u0c9f\u0cb2\u0cbf"
        }
      },
      {
        "type": "node",
        "id": 3725752594,
        "lat": 12.963873,
        "lon": 77.6418506,
        "tags": {
          "addr:street": "100 Feet Road(S K Karim Khan Road)",
          "amenity": "restaurant",
          "name": "Rajdhani",
          "name:kn": "\u0cb0\u0cbe\u0c9c\u0ca7\u0cbe\u0ca8\u0cbf"
        }
      },
      {
        "type": "node",
        "id": 3725752595,
        "lat": 12.963753,
        "lon": 77.6419024,
        "tags": {
          "addr:street": "100 Feet Road(S K Karim Khan Road)",
          "amenity": "restaurant",
          "name": "The Rock"
        }
      },
      {
        "type": "node",
        "id": 3727147613,
        "lat": 12.9641752,
        "lon": 77.6413104,
        "tags": {
          "amenity": "restaurant",
          "name": "Barbeque Factory"
        }
      },
      {
        "type": "node",
        "id": 3727148131,
        "lat": 12.9656588,
        "lon": 77.6412508,
        "tags": {
          "addr:city": "Bangalore",
          "amenity": "restaurant",
          "cuisine": "italian;burger",
          "name": "Smoke House Deli",
          "name:kn": "\u0cb8\u0ccd\u0cae\u0ccb\u0c95\u0ccd \u0cb9\u0ccc\u0cb8\u0ccd \u0ca1\u0cc7\u0cb2\u0cbf",
          "takeaway": "yes"
        }
      },
      {
        "type": "node",
        "id": 3761239273,
        "lat": 12.9597633,
        "lon": 77.6470458,
        "tags": {
          "addr:street": "Old Airport Road",
          "amenity": "restaurant",
          "level": "0",
          "name": "Zaitoon"
        }
      },
      {
        "type": "node",
        "id": 3761373128,
        "lat": 12.9600073,
        "lon": 77.6454571,
        "tags": {
          "amenity": "fast_food",
          "level": "0",
          "name": "Mac Fast Food"
        }
      },
      {
        "type": "node",
        "id": 3761373131,
        "lat": 12.9600501,
        "lon": 77.6451721,
        "tags": {
          "amenity": "fast_food",
          "level": "0",
          "name": "Anand"
        }
      },
      {
        "type": "node",
        "id": 3761373132,
        "lat": 12.9600581,
        "lon": 77.6451404,
        "tags": {
          "addr:street": "Old Airport Road",
          "amenity": "restaurant",
          "level": "0",
          "name": "Cheeni Kum"
        }
      },
      {
        "type": "node",
        "id": 3761385392,
        "lat": 12.9600493,
        "lon": 77.6449336,
        "tags": {
          "addr:street": "Old Airport Road",
          "amenity": "restaurant",
          "level": "1",
          "name": "Mast Kalandar",
          "name:kn": "\u0cae\u0cb8\u0ccd\u0ca4\u0ccd \u0c95\u0cb2\u0c82\u0ca6\u0cb0\u0ccd"
        }
      },
      {
        "type": "node",
        "id": 3761385393,
        "lat": 12.9600755,
        "lon": 77.6448826,
        "tags": {
          "amenity": "cafe",
          "brand": "Chai Point",
          "brand:wikidata": "Q28173415",
          "cuisine": "coffee_shop",
          "indoor_seating": "yes",
          "level": "0",
          "name": "Chai Point",
          "outdoor_seating": "no",
          "takeaway": "yes"
        }
      },
      {
        "type": "node",
        "id": 3761392714,
        "lat": 12.9600127,
        "lon": 77.6451616,
        "tags": {
          "amenity": "bank",
          "level": "1",
          "name": "ICICI Direct",
          "note": "Note: Actually this is a stockbroker, but I cannot find the proper tag. Please help me tag this!"
        }
      },
      {
        "type": "node",
        "id": 3761395482,
        "lat": 12.9600676,
        "lon": 77.6447244,
        "tags": {
          "amenity": "bank",
          "atm": "yes",
          "brand:wikidata": "Q3595747",
          "brand:wikipedia": "en:Dena Bank",
          "level": "0",
          "name": "Dena Bank",
          "name:en": "Dena Bank",
          "name:kn": "\u0ca6\u0cc7\u0ca8 \u0cac\u0ccd\u0caf\u0cbe\u0c82\u0c95\u0ccd",
          "website": "http://www.denabank.com"
        }
      },
      {
        "type": "node",
        "id": 3761406785,
        "lat": 12.9601577,
        "lon": 77.6443247,
        "tags": {
          "addr:street": "Old Airport Road",
          "amenity": "restaurant",
          "level": "0",
          "name": "Desi Bytes"
        }
      },
      {
        "type": "node",
        "id": 3761415287,
        "lat": 12.9594965,
        "lon": 77.6569671,
        "tags": {
          "amenity": "atm",
          "brand": "HDFC Bank",
          "brand:wikidata": "Q631047",
          "name": "HDFC Bank",
          "name:kn": "\u0c8e\u0c9a\u0ccd \u0ca1\u0cbf \u0c8e\u0cab\u0ccd \u0cb8\u0cbf",
          "operator": "HDFC Bank",
          "operator:wikidata": "Q631047",
          "short_name": "HDFC"
        }
      },
      {
        "type": "node",
        "id": 3761418961,
        "lat": 12.9600667,
        "lon": 77.6450929,
        "tags": {
          "amenity": "atm",
          "brand": "HDFC Bank",
          "brand:wikidata": "Q631047",
          "level": "-1",
          "name": "HDFC Bank",
          "name:kn": "\u0c8e\u0c9a\u0ccd. \u0ca1\u0cbf. \u0c8e\u0cab\u0ccd. \u0cb8\u0cbf. \u0cac\u0ccd\u0caf\u0cbe\u0c82\u0c95\u0ccd",
          "operator": "HDFC Bank",
          "operator:wikidata": "Q631047",
          "short_name": "HDFC"
        }
      },
      {
        "type": "node",
        "id": 3761429336,
        "lat": 12.9592065,
        "lon": 77.6530201,
        "tags": {
          "amenity": "restaurant",
          "level": "0",
          "name": "Golden Plate Restaurant"
        }
      },
      {
        "type": "node",
        "id": 3761456052,
        "lat": 12.959217,
        "lon": 77.6529531,
        "tags": {
          "amenity": "cafe",
          "brand": "Cafe Coffee Day",
          "brand:wikidata": "Q5017235",
          "cuisine": "coffee_shop",
          "level": "0",
          "name": "Cafe Coffee Day",
          "name:kn": "\u0c95\u0cab\u0cc6 \u0c95\u0cbe\u0cab\u0cbf \u0ca1\u0cc7",
          "takeaway": "yes"
        }
      },
      {
        "type": "node",
        "id": 3761459658,
        "lat": 12.9593103,
        "lon": 77.6524844,
        "tags": {
          "amenity": "bank",
          "atm": "yes",
          "brand": "HDFC Bank",
          "brand:wikidata": "Q631047",
          "brand:wikipedia": "en:HDFC Bank",
          "level": "0",
          "name": "HDFC Bank",
          "name:kn": "\u0c8e\u0c9a\u0ccd \u0ca1\u0cbf \u0c8e\u0cab\u0ccd \u0cb8\u0cbf",
          "short_name": "HDFC",
          "website": "https://www.hdfcbank.com",
          "wheelchair": "no"
        }
      },
      {
        "type": "node",
        "id": 3761461918,
        "lat": 12.958969,
        "lon": 77.6521143,
        "tags": {
          "brand": "Nilgiri's",
          "brand:wikidata": "Q17079567",
          "name": "Nilgiri's",
          "name:kn": "\u0ca8\u0cc0\u0cb2\u0ccd\u0c97\u0cbf\u0cb0\u0cc0\u0cb8\u0ccd",
          "shop": "supermarket"
        }
      },
      {
        "type": "node",
        "id": 3761463624,
        "lat": 12.9592189,
        "lon": 77.6550673,
        "tags": {
          "amenity": "atm",
          "brand": "Kotak Mahindra Bank",
          "brand:wikidata": "Q2040404",
          "check_date": "2022-07-02",
          "name": "Kotak Mahindra Bank",
          "operator": "Kotak Mahindra Bank",
          "operator:wikidata": "Q2040404"
        }
      },
      {
        "type": "node",
        "id": 3761463625,
        "lat": 12.9592324,
        "lon": 77.6549762,
        "tags": {
          "amenity": "atm",
          "brand": "ICICI Bank",
          "brand:wikidata": "Q1653258",
          "name": "ICICI Bank",
          "name:kn": "\u0c90\u0cb8\u0cbf\u0c90\u0cb8\u0cbf\u0c90 \u0cac\u0ccd\u0caf\u0cbe\u0c82\u0c95\u0cc1",
          "operator": "ICICI Bank",
          "operator:wikidata": "Q1653258",
          "short_name": "ICICI"
        }
      },
      {
        "type": "node",
        "id": 3761463626,
        "lat": 12.9592219,
        "lon": 77.6550084,
        "tags": {
          "amenity": "cafe",
          "brand": "Cafe Coffee Day",
          "brand:wikidata": "Q5017235",
          "cuisine": "coffee_shop",
          "level": "0",
          "name": "Cafe Coffee Day",
          "name:kn": "\u0c95\u0cab\u0cc6 \u0c95\u0cbe\u0cab\u0cbf \u0ca1\u0cc7",
          "takeaway": "yes"
        }
      },
      {
        "type": "node",
        "id": 3761466913,
        "lat": 12.9592402,
        "lon": 77.6547402,
        "tags": {
          "amenity": "restaurant",
          "cuisine": "Andhra",
          "level": "0",
          "name": "Samruddhi",
          "name:kn": "\u0cb8\u0cae\u0cc3\u0ca6\u0ccd\u0ca7\u0cbf"
        }
      },
      {
        "type": "node",
        "id": 3761482431,
        "lat": 12.9589664,
        "lon": 77.6569874,
        "tags": {
          "addr:floor": "G",
          "air_conditioning": "yes",
          "alt_name": "Kentucky Fried Chicken",
          "alt_name:en": "Kentucky Fried Chicken",
          "alt_name:hi": "\u0915\u0947\u0902\u091f\u0941\u0915\u0940 \u092b\u094d\u0930\u093e\u0907\u0921 \u091a\u093f\u0915\u0928",
          "alt_name:pa": "\u0a15\u0a48\u0a02\u0a1f\u0a41\u0a15\u0a40 \u0a2b\u0a4d\u0a30\u0a3e\u0a08\u0a21 \u0a1a\u0a3f\u0a15\u0a28",
          "alt_name:pnb": "\u06a9\u06cc\u0646\u0679\u06a9\u06cc \u0641\u0631\u0627\u0626\u06cc\u0688 \u0686\u06a9\u0646",
          "alt_name:ur": "\u06a9\u06cc\u0646\u0679\u06a9\u06cc \u0641\u0631\u0627\u0626\u06cc\u0688 \u0686\u06a9\u0646",
          "amenity": "fast_food",
          "brand": "KFC",
          "brand:en": "KFC",
          "brand:hi": "\u0915\u0947\u090f\u092b\u0938\u0940",
          "brand:pa": "\u0a15\u0a47\u0a10\u0a2b\u0a38\u0a40",
          "brand:pnb": "\u06a9\u06d2 \u0627\u06cc\u0641 \u0633\u06cc",
          "brand:ur": "\u06a9\u06d2 \u0627\u06cc\u0641 \u0633\u06cc",
          "brand:wikidata": "Q524757",
          "brand:wikipedia": "en:KFC",
          "brand:wikipedia:pa": "\u0a15\u0a47\u0a10\u0a2b\u0a38\u0a40",
          "brand:wikipedia:ur": "\u06a9\u06cc\u0646\u0679\u06a9\u06cc \u0641\u0631\u0627\u0626\u06cc\u0688 \u0686\u06a9\u0646",
          "check_date": "2024-10-19",
          "cuisine": "chicken",
          "delivery": "yes",
          "drive_through": "no",
          "indoor_seating": "yes",
          "level": "0",
          "name": "KFC",
          "name:en": "KFC",
          "name:hi": "\u0915\u0947\u090f\u092b\u0938\u0940",
          "name:pa": "\u0a15\u0a47\u0a10\u0a2b\u0a38\u0a40",
          "name:pnb": "\u06a9\u06d2 \u0627\u06cc\u0641 \u0633\u06cc",
          "name:ur": "\u06a9\u06d2 \u0627\u06cc\u0641 \u0633\u06cc",
          "operator": "KFC India",
          "outdoor_seating": "no",
          "smoking": "no",
          "takeaway": "yes"
        }
      },
      {
        "type": "node",
        "id": 3761482432,
        "lat": 12.9590285,
        "lon": 77.6566733,
        "tags": {
          "addr:city": "Bangalore",
          "addr:housenumber": "GF-01",
          "addr:postcode": "560017",
          "addr:street": "Kemp Fort Mall",
          "amenity": "fast_food",
          "brand": "McDonald's",
          "brand:pa": "\u0a2e\u0a48\u0a15\u0a21\u0a4b\u0a28\u0a32\u0a21\u2019\u0a1c\u0a3c",
          "brand:ur": "\u0645\u06a9\u0688\u0648\u0646\u0644\u0688\u0632",
          "brand:wikidata": "Q38076",
          "brand:wikipedia": "en:McDonald's",
          "brand:wikipedia:pa": "\u0a2e\u0a48\u0a15\u0a21\u0a4b\u0a28\u0a32\u0a21\u2019\u0a1c\u0a3c",
          "brand:wikipedia:ur": "\u0645\u06a9\u0688\u0648\u0646\u0644\u0688\u0632",
          "cuisine": "burger",
          "delivery": "yes",
          "drive_through": "no",
          "name": "McDonald's",
          "name:kn": "\u0cae\u0ccd\u0caf\u0cbe\u0c95\u0ccd\u200c\u0ca1\u0cca\u0ca8\u0cbe\u0cb2\u0ccd\u0ca1\u0ccd\u0cb8\u0ccd",
          "name:pa": "\u0a2e\u0a48\u0a15\u0a21\u0a4b\u0a28\u0a32\u0a21\u2019\u0a1c\u0a3c",
          "name:ur": "\u0645\u06a9\u0688\u0648\u0646\u0644\u0688\u0632",
          "opening_hours": "10:00-22:00",
          "operator": "McDonald's India",
          "smoking": "no",
          "takeaway": "yes"
        }
      },
      {
        "type": "node",
        "id": 3780780965,
        "lat": 12.9545514,
        "lon": 77.6526553,
        "tags": {
          "amenity": "atm",
          "brand": "ICICI Bank",
          "brand:wikidata": "Q1653258",
          "name": "ICICI Bank",
          "operator": "ICICI Bank",
          "operator:wikidata": "Q1653258",
          "short_name": "ICICI"
        }
      },
      {
        "type": "node",
        "id": 3780780966,
        "lat": 12.954539,
        "lon": 77.6526273,
        "tags": {
          "amenity": "restaurant",
          "name": "Punjabi Bites"
        }
      },
      {
        "type": "node",
        "id": 3783556814,
        "lat": 12.9594395,
        "lon": 77.6436156,
        "tags": {
          "amenity": "restaurant",
          "delivery": "no",
          "level": "-1",
          "name": "Clubhouse"
        }
      },
      {
        "type": "node",
        "id": 3804507829,
        "lat": 12.9595599,
        "lon": 77.6559904,
        "tags": {
          "amenity": "restaurant",
          "level": "1",
          "name": "Raju's Royal"
        }
      },
      {
        "type": "node",
        "id": 3804507964,
        "lat": 12.9595468,
        "lon": 77.6560186,
        "tags": {
          "amenity": "bank",
          "atm": "yes",
          "brand": "Corporation Bank",
          "brand:wikidata": "Q2003387",
          "brand:wikipedia": "en:Corporation Bank",
          "level": "0",
          "name": "Corporation Bank",
          "name:en": "Corporation Bank",
          "name:kn": "\u0c95\u0cbe\u0cb0\u0ccd\u0caa\u0cb0\u0cc7\u0cb7\u0ca8\u0ccd \u0cac\u0ccd\u0caf\u0cbe\u0c82\u0c95\u0ccd",
          "website": "https://corpbank.com/"
        }
      },
      {
        "type": "node",
        "id": 3837270531,
        "lat": 12.9656704,
        "lon": 77.6492943,
        "tags": {
          "amenity": "restaurant",
          "cuisine": "korean",
          "delivery": "no",
          "name": "Soo Ra Sang Korean Cuisine",
          "opening_hours": "Mo-Su 12:00-23:00"
        }
      },
      {
        "type": "node",
        "id": 3841346586,
        "lat": 12.9688091,
        "lon": 77.6489013,
        "tags": {
          "addr:housenumber": "1650",
          "addr:street": "Jeevan Bhima Nagar 10th Main Road",
          "amenity": "restaurant",
          "cuisine": "kerala",
          "diet:vegetarian": "yes",
          "level": "1",
          "name": "Green Pepper",
          "wheelchair": "no"
        }
      },
      {
        "type": "node",
        "id": 3841436213,
        "lat": 12.9691095,
        "lon": 77.6489071,
        "tags": {
          "addr:housenumber": "1671",
          "amenity": "fast_food",
          "diet:vegetarian": "no",
          "level": "0",
          "name": "Leon Grill",
          "opening_hours": "Mo-Su 12:30-23:00",
          "smoking": "no",
          "website": "https://www.leongrill.com/",
          "wheelchair": "no"
        }
      },
      {
        "type": "node",
        "id": 3852010271,
        "lat": 12.9591346,
        "lon": 77.6565349,
        "tags": {
          "amenity": "fast_food",
          "brand": "Domino's",
          "brand:ks": "\u0688\u0648\u0645\u06cc\u0646\u0648\u0632",
          "brand:pa": "\u0a21\u0a4b\u0a2e\u0a40\u0a28\u0a4b\u0a1c\u0a3c",
          "brand:ur": "\u0688\u0648\u0645\u06cc\u0646\u0648\u0632",
          "brand:wikidata": "Q839466",
          "brand:wikipedia": "en:Domino's Pizza",
          "cuisine": "pizza",
          "level": "0",
          "name": "Domino's",
          "name:ks": "\u0688\u0648\u0645\u06cc\u0646\u0648\u0632",
          "name:pa": "\u0a21\u0a4b\u0a2e\u0a40\u0a28\u0a4b\u0a1c\u0a3c",
          "name:ur": "\u0688\u0648\u0645\u06cc\u0646\u0648\u0632",
          "takeaway": "yes"
        }
      },
      {
        "type": "node",
        "id": 3854021544,
        "lat": 12.9591707,
        "lon": 77.6529125,
        "tags": {
          "amenity": "clinic",
          "healthcare:speciality": "ayurveda; homeopathy",
          "level": "1",
          "name": "Miracle Homeopathy And Ayurveda"
        }
      },
      {
        "type": "node",
        "id": 3993262523,
        "lat": 12.9572235,
        "lon": 77.655082,
        "tags": {
          "amenity": "fast_food",
          "name": "Ambur Hot Dum Biryani"
        }
      },
      {
        "type": "node",
        "id": 3993262532,
        "lat": 12.9571574,
        "lon": 77.6550531,
        "tags": {
          "amenity": "fast_food",
          "name": "Santosh Fast Food"
        }
      },
      {
        "type": "node",
        "id": 3993281427,
        "lat": 12.9575611,
        "lon": 77.6550565,
        "tags": {
          "amenity": "pharmacy",
          "name": "Aashuhadi Chemists and Druggists"
        }
      },
      {
        "type": "node",
        "id": 3993281428,
        "lat": 12.9578247,
        "lon": 77.6551191,
        "tags": {
          "amenity": "restaurant",
          "cuisine": "meals",
          "name": "Annapoorneshwari Restaurant",
          "name:kn": "\u0c85\u0ca8\u0ccd\u0ca8\u0caa\u0cc2\u0cb0\u0ccd\u0ca3\u0cc7\u0cb6\u0ccd\u0cb5\u0cb0\u0cbf"
        }
      },
      {
        "type": "node",
        "id": 3993281432,
        "lat": 12.9575422,
        "lon": 77.6550504,
        "tags": {
          "amenity": "clinic",
          "name": "Sshiradi Sai Family Care Clinic"
        }
      },
      {
        "type": "node",
        "id": 4005181106,
        "lat": 12.9622425,
        "lon": 77.6448007,
        "tags": {
          "amenity": "restaurant",
          "name": "Little Orissa"
        }
      },
      {
        "type": "node",
        "id": 4043095770,
        "lat": 12.958648,
        "lon": 77.6567863,
        "tags": {
          "addr:city": "Bangalore",
          "addr:housenumber": "97",
          "addr:postcode": "560017",
          "addr:street": "Old Airport Road",
          "level": "2;3",
          "name": "Total",
          "opening_hours": "10:00-20:00",
          "operator": "Total",
          "shop": "supermarket",
          "website": "http://morestore.com/"
        }
      },
      {
        "type": "node",
        "id": 4127160596,
        "lat": 12.9550419,
        "lon": 77.6533125,
        "tags": {
          "addr:housenumber": "22",
          "addr:street": "Wind Tunnel Road",
          "amenity": "pharmacy",
          "name": "Murugeshpalaya Medicals"
        }
      },
      {
        "type": "node",
        "id": 4127160896,
        "lat": 12.9554817,
        "lon": 77.6534635,
        "tags": {
          "addr:housenumber": "5",
          "addr:street": "Wind Tunnel Road",
          "amenity": "pharmacy",
          "healthcare": "pharmacy",
          "name": "Srinivasa Medicals"
        }
      },
      {
        "type": "node",
        "id": 4144224389,
        "lat": 12.9566762,
        "lon": 77.6550445,
        "tags": {
          "addr:housenumber": "435",
          "addr:street": "1st Cross Road",
          "amenity": "pharmacy",
          "name": "Srivaari Drug House"
        }
      },
      {
        "type": "node",
        "id": 4204002589,
        "lat": 12.9589543,
        "lon": 77.6521562,
        "tags": {
          "amenity": "restaurant",
          "cuisine": "chinese",
          "name": "Green Onion"
        }
      },
      {
        "type": "node",
        "id": 4307393648,
        "lat": 12.9592405,
        "lon": 77.6528797,
        "tags": {
          "amenity": "pharmacy",
          "healthcare": "pharmacy",
          "name": "Fortis HealthWorld"
        }
      },
      {
        "type": "node",
        "id": 4307399141,
        "lat": 12.9589507,
        "lon": 77.6569142,
        "tags": {
          "branch": "Megastore",
          "brand": "More",
          "brand:wikidata": "Q6910891",
          "check_date": "2024-10-19",
          "level": "2",
          "name": "More",
          "payment:cash": "yes",
          "payment:credit_cards": "yes",
          "payment:debit_cards": "yes",
          "payment:upi": "yes",
          "shop": "supermarket"
        }
      },
      {
        "type": "node",
        "id": 4310563609,
        "lat": 12.9598531,
        "lon": 77.6429762,
        "tags": {
          "amenity": "bank",
          "atm": "yes",
          "brand": "Corporation Bank",
          "brand:wikidata": "Q2003387",
          "brand:wikipedia": "en:Corporation Bank",
          "name": "Corporation Bank",
          "name:en": "Corporation Bank",
          "name:kn": "\u0c95\u0cbe\u0cb0\u0ccd\u0caa\u0cb0\u0cc7\u0cb7\u0ca8\u0ccd \u0cac\u0ccd\u0caf\u0cbe\u0c82\u0c95\u0ccd",
          "website": "https://corpbank.com/"
        }
      },
      {
        "type": "node",
        "id": 4322754690,
        "lat": 12.9605285,
        "lon": 77.640123,
        "tags": {
          "addr:district": "Bengaluru Urban",
          "addr:full": "CGHS Dispensary No.8, Domlur, CPWD Quarters, Domlur",
          "addr:postcode": "560038",
          "addr:state": "Karnataka",
          "amenity": "clinic",
          "health_facility:type": "dispensary",
          "healthcare": "centre",
          "name": "CGHS Dispensary",
          "operator:type": "government",
          "source": "OpenGovernmentData",
          "website": "http://nb.bsf.gov.in/CGHS%20DIspenseries.pdf"
        }
      },
      {
        "type": "node",
        "id": 4323525290,
        "lat": 12.9573491,
        "lon": 77.6551061,
        "tags": {
          "amenity": "fast_food",
          "name": "Beri-to"
        }
      },
      {
        "type": "node",
        "id": 4405318789,
        "lat": 12.9578101,
        "lon": 77.6550929,
        "tags": {
          "amenity": "fast_food",
          "name": "New Kolkata Food",
          "name:en": "New Kolkata Food"
        }
      },
      {
        "type": "node",
        "id": 4445603184,
        "lat": 12.9627947,
        "lon": 77.6419191,
        "tags": {
          "addr:city": "Bengaluru",
          "addr:housenumber": "124",
          "addr:postcode": "570008",
          "addr:street": "HAL II Stage, 18th Main Road, Indira Nagar, Kodihalli,",
          "amenity": "pharmacy",
          "drive_through": "no",
          "name": "Deseeya Ayurvedic Pharmacy",
          "phone": "080 2520 1188",
          "website": "deseeya.com"
        }
      },
      {
        "type": "node",
        "id": 4446329807,
        "lat": 12.9552696,
        "lon": 77.6428508,
        "tags": {
          "addr:city": "Bengaluru",
          "addr:district": "Bengaluru Urban",
          "addr:full": "230, Amarjyothi Layout, Off.Intermediate Ring Road, Domlur Extension",
          "addr:housenumber": "230",
          "addr:postcode": "560071",
          "addr:state": "Karnataka",
          "addr:street": "Amarjyothi Layout, Off Intermediate Ring Road, Near Dell India/Millennium Motors, Domlur Extension, Amarjyoti Layout, Domlur, Karnataka",
          "amenity": "hospital",
          "email": "info@ayurvaid.com",
          "name": "Ayurvaid Hospital",
          "operator:type": "private",
          "phone": "080 4092 5555",
          "source": "OpenGovernmentData",
          "website": "https://ayurvaid.com/"
        }
      },
      {
        "type": "node",
        "id": 4446475362,
        "lat": 12.9679122,
        "lon": 77.6517504,
        "tags": {
          "addr:city": "Bangalore",
          "addr:housenumber": "17",
          "addr:postcode": "560075",
          "addr:street": "10th Main, HAL 3rd Stage, Jeevan Bima Nagar Main Rd, DOS Colony, Jeevanbheemanagar",
          "amenity": "pharmacy",
          "healthcare": "pharmacy",
          "name": "Sri Vidhya Medicals General Store",
          "phone": "+91 94481 67969"
        }
      },
      {
        "type": "node",
        "id": 4446479133,
        "lat": 12.9633821,
        "lon": 77.6568672,
        "tags": {
          "addr:city": "bangalore",
          "addr:housenumber": "114/B",
          "addr:postcode": "560075",
          "addr:street": "Shivanna Colony,Hal 3rd Stage,BDA Main Road,Opposite Kemp Fort,Murugesh Palya, Hal Road, Kodihalli, Ananda Puram, Jeevanbheemanagar,",
          "amenity": "pharmacy",
          "phone": "+9199642 32476"
        }
      },
      {
        "type": "node",
        "id": 4457286917,
        "lat": 12.9690401,
        "lon": 77.6480024,
        "tags": {
          "amenity": "fast_food",
          "indoor_seating": "yes",
          "name": "Lassi Shop",
          "outdoor_seating": "no"
        }
      },
      {
        "type": "node",
        "id": 4472344002,
        "lat": 12.9544918,
        "lon": 77.6490249,
        "tags": {
          "addr:housenumber": "9",
          "addr:street": "3rd Cross Road",
          "amenity": "restaurant",
          "name": "Hitel Tadka",
          "name:en": "Hitel Tadka"
        }
      },
      {
        "type": "node",
        "id": 4512283089,
        "lat": 12.9682582,
        "lon": 77.6517189,
        "tags": {
          "amenity": "restaurant",
          "cuisine": "regional",
          "name": "Bengaluru House",
          "name:en": "Bengaluru House"
        }
      },
      {
        "type": "node",
        "id": 4512358072,
        "lat": 12.9621711,
        "lon": 77.6492415,
        "tags": {
          "amenity": "restaurant",
          "name": "UdipiPark"
        }
      },
      {
        "type": "node",
        "id": 4554874890,
        "lat": 12.9690172,
        "lon": 77.6483749,
        "tags": {
          "amenity": "clinic",
          "healthcare": "clinic",
          "name": "Anand Diagnostic",
          "name:en": "Anand Diagnostic"
        }
      },
      {
        "type": "node",
        "id": 4558661992,
        "lat": 12.9596296,
        "lon": 77.6462357,
        "tags": {
          "amenity": "bank",
          "brand": "State Bank of India",
          "brand:wikidata": "Q1340361",
          "brand:wikipedia": "en:State Bank of India",
          "name": "State Bank of India",
          "name:kn": "\u0cad\u0cbe\u0cb0\u0ca4\u0cc0\u0caf \u0cb8\u0ccd\u0c9f\u0cc7\u0c9f\u0ccd \u0cac\u0ccd\u0caf\u0cbe\u0c82\u0c95\u0ccd",
          "short_name": "SBI",
          "website": "https://www.sbi.co.in"
        }
      },
      {
        "type": "node",
        "id": 4558683789,
        "lat": 12.9596889,
        "lon": 77.6461552,
        "tags": {
          "amenity": "atm",
          "operator": "SBH"
        }
      },
      {
        "type": "node",
        "id": 4595659590,
        "lat": 12.9563554,
        "lon": 77.65491,
        "tags": {
          "amenity": "doctors",
          "name": "Bhadra Homeopathic Forum",
          "name:en": "Bhadra Homeopathic Forum",
          "website": "https://www.bhadrahomeo.com/"
        }
      },
      {
        "type": "node",
        "id": 4621845493,
        "lat": 12.958119,
        "lon": 77.6442446,
        "tags": {
          "amenity": "restaurant",
          "cuisine": "indian;burger",
          "name": "Java",
          "name:en": "Java",
          "name:kn": "\u0c9c\u0cbe\u0cb5"
        }
      },
      {
        "type": "node",
        "id": 4691599026,
        "lat": 12.9682627,
        "lon": 77.6515319,
        "tags": {
          "leisure": "playground"
        }
      },
      {
        "type": "node",
        "id": 4694045563,
        "lat": 12.9591965,
        "lon": 77.6549169,
        "tags": {
          "amenity": "restaurant",
          "cuisine": "regional",
          "delivery": "yes",
          "name": "Box8",
          "outdoor_seating": "no"
        }
      },
      {
        "type": "node",
        "id": 4694045569,
        "lat": 12.9589566,
        "lon": 77.6553832,
        "tags": {
          "amenity": "fast_food",
          "cuisine": "juice",
          "name": "Juicy",
          "outdoor_seating": "yes",
          "takeaway": "no"
        }
      },
      {
        "type": "node",
        "id": 4694045570,
        "lat": 12.9589828,
        "lon": 77.6552673,
        "tags": {
          "amenity": "fast_food",
          "cuisine": "fried_chicken",
          "delivery": "yes",
          "drive_through": "no",
          "name": "Meat And Eat",
          "outdoor_seating": "yes",
          "takeaway": "yes"
        }
      },
      {
        "type": "node",
        "id": 4694045571,
        "lat": 12.9588377,
        "lon": 77.6551114,
        "tags": {
          "amenity": "restaurant",
          "cuisine": "coastal",
          "name": "Shree Durga Restaurant"
        }
      },
      {
        "type": "node",
        "id": 4706665990,
        "lat": 12.9546275,
        "lon": 77.6529945,
        "tags": {
          "amenity": "fast_food",
          "name": "New Tasty Magic",
          "name:en": "New Tasty Magic"
        }
      },
      {
        "type": "node",
        "id": 4791785145,
        "lat": 12.9684067,
        "lon": 77.6510466,
        "tags": {
          "amenity": "atm",
          "brand": "Canara Bank",
          "brand:en": "Canara Bank",
          "brand:hi": "\u0915\u0947\u0928\u0930\u093e \u092c\u0948\u0902\u0915",
          "brand:kn": "\u0c95\u0cc6\u0ca8\u0cb0\u0cbe \u0cac\u0ccd\u0caf\u0cbe\u0c82\u0c95\u0ccd",
          "brand:pa": "\u0a15\u0a47\u0a28\u0a30\u0a3e \u0a2c\u0a48\u0a02\u0a15",
          "brand:pnb": "\u06a9\u06cc\u0646\u0631\u0627 \u0628\u06cc\u0646\u06a9",
          "brand:ur": "\u06a9\u06cc\u0646\u0631\u0627 \u0628\u06cc\u0646\u06a9",
          "brand:wikidata": "Q2003777",
          "name": "Canara Bank",
          "name:en": "Canara Bank",
          "name:hi": "\u0915\u0947\u0928\u0930\u093e \u092c\u0948\u0902\u0915",
          "name:kn": "\u0c95\u0cc6\u0ca8\u0cb0\u0cbe \u0cac\u0ccd\u0caf\u0cbe\u0c82\u0c95\u0ccd",
          "name:pa": "\u0a15\u0a47\u0a28\u0a30\u0a3e \u0a2c\u0a48\u0a02\u0a15",
          "name:pnb": "\u06a9\u06cc\u0646\u0631\u0627 \u0628\u06cc\u0646\u06a9",
          "name:ur": "\u06a9\u06cc\u0646\u0631\u0627 \u0628\u06cc\u0646\u06a9",
          "operator": "Canara Bank",
          "operator:wikidata": "Q2003777"
        }
      },
      {
        "type": "node",
        "id": 4791787148,
        "lat": 12.9678541,
        "lon": 77.6527869,
        "tags": {
          "amenity": "restaurant",
          "name": "Taza Tawa",
          "name:en": "Taza Tawa"
        }
      },
      {
        "type": "node",
        "id": 5003288807,
        "lat": 12.9686524,
        "lon": 77.6499541,
        "tags": {
          "amenity": "bank",
          "brand": "ICICI Bank",
          "brand:wikidata": "Q1653258",
          "name": "ICICI Bank",
          "short_name": "ICICI"
        }
      },
      {
        "type": "node",
        "id": 5003290033,
        "lat": 12.9685563,
        "lon": 77.6495171,
        "tags": {
          "amenity": "restaurant",
          "name": "Banarasi Tadka"
        }
      },
      {
        "type": "node",
        "id": 5104461623,
        "lat": 12.9625369,
        "lon": 77.6422561,
        "tags": {
          "amenity": "pharmacy",
          "name": "Homeoplus pharmecy",
          "name:en": "Homeoplus pharmecy"
        }
      },
      {
        "type": "node",
        "id": 5106809421,
        "lat": 12.9597752,
        "lon": 77.6569127,
        "tags": {
          "addr:district": "Bengaluru Urban",
          "addr:full": "#115,Kodihalli,Old Airport Road",
          "addr:postcode": "560001",
          "addr:state": "Karnataka",
          "amenity": "hospital",
          "healthcare": "hospital",
          "name": "Cloudnine Hospital Pvt. Ltd.",
          "name:en": "cloud nine",
          "source": "OpenGovernmentData"
        }
      },
      {
        "type": "node",
        "id": 5300706223,
        "lat": 12.9588087,
        "lon": 77.6553625,
        "tags": {
          "amenity": "fast_food",
          "name": "Nukkad Point",
          "phone": "9653057371"
        }
      },
      {
        "type": "node",
        "id": 5343197021,
        "lat": 12.9534102,
        "lon": 77.6528653,
        "tags": {
          "amenity": "atm",
          "brand": "HDFC Bank",
          "brand:wikidata": "Q631047",
          "name": "HDFC Bank",
          "operator": "HDFC Bank",
          "operator:wikidata": "Q631047",
          "short_name": "HDFC"
        }
      },
      {
        "type": "node",
        "id": 5524163945,
        "lat": 12.9657658,
        "lon": 77.6495401,
        "tags": {
          "amenity": "fast_food",
          "name": "Fast food joint",
          "opening_hours": "Mo-Su 11:00-23:00"
        }
      },
      {
        "type": "node",
        "id": 5863637590,
        "lat": 12.9678992,
        "lon": 77.6504368,
        "tags": {
          "amenity": "atm",
          "operator": "State Bank of India (SBI)"
        }
      },
      {
        "type": "node",
        "id": 6497017194,
        "lat": 12.9686909,
        "lon": 77.6486916,
        "tags": {
          "amenity": "restaurant",
          "name": "Savoury Express"
        }
      },
      {
        "type": "node",
        "id": 6497020524,
        "lat": 12.9685789,
        "lon": 77.6457822,
        "tags": {
          "amenity": "clinic",
          "healthcare": "clinic",
          "name": "Arth Ayurvedic Health Centre"
        }
      },
      {
        "type": "node",
        "id": 6815320086,
        "lat": 12.967764,
        "lon": 77.64809,
        "tags": {
          "addr:housenumber": "2212",
          "addr:postcode": "560008",
          "addr:street": "80 Feet Road",
          "amenity": "restaurant",
          "amenity_1": "ice_cream",
          "name": "Flax - Healthy Living",
          "opening_hours": "Mo-Su 11:00-23:00",
          "organic": "yes",
          "website": "https://www.flaxitup.com/home"
        }
      },
      {
        "type": "node",
        "id": 6834046687,
        "lat": 12.9687494,
        "lon": 77.6492656,
        "tags": {
          "addr:street": "Jeevan Bheema Nagar Main Road",
          "amenity": "restaurant",
          "indoor_seating": "yes",
          "name": "Ayodhya vihar",
          "opening_hours": "Mo-Su 08:00-22:00",
          "outdoor_seating": "yes"
        }
      },
      {
        "type": "node",
        "id": 6834046688,
        "lat": 12.9686665,
        "lon": 77.6492611,
        "tags": {
          "addr:street": "Jeevan Bheema Nagar Main Road",
          "amenity": "fast_food",
          "name": "Samosa Party"
        }
      },
      {
        "type": "node",
        "id": 6834054685,
        "lat": 12.9686318,
        "lon": 77.6490776,
        "tags": {
          "addr:street": "Jeevan Bheema Nagar Main Road",
          "amenity": "restaurant",
          "cuisine": "indian",
          "name": "C2B - Chandni Chowk 2 Bangalore"
        }
      },
      {
        "type": "node",
        "id": 7572526689,
        "lat": 12.955763,
        "lon": 77.654655,
        "tags": {
          "addr:district": "Bengaluru Urban",
          "addr:full": "K R Garden, Murgesh Pallya, Bengaluru",
          "addr:postcode": "560017",
          "addr:state": "Karnataka",
          "amenity": "clinic",
          "name": "Bhadrahomeo",
          "source": "Local Knowledge"
        }
      },
      {
        "type": "node",
        "id": 7572526690,
        "lat": 12.957269,
        "lon": 77.653945,
        "tags": {
          "addr:district": "Bengaluru Urban",
          "addr:full": "Kaveri Nagar, Murgesh Pallya, Bengaluru",
          "addr:postcode": "560017",
          "addr:state": "Karnataka",
          "amenity": "hospital",
          "name": "OJUS Multi Speciality Hospital",
          "source": "Local Knowledge"
        }
      },
      {
        "type": "node",
        "id": 7572526712,
        "lat": 12.9548249,
        "lon": 77.6493844,
        "tags": {
          "addr:district": "Bengaluru Urban",
          "addr:full": "Bellandur, Bengaluru",
          "addr:postcode": "560017",
          "addr:state": "Karnataka",
          "amenity": "clinic",
          "name": "Medivision Clinic",
          "source": "Local Knowledge"
        }
      },
      {
        "type": "node",
        "id": 7572526717,
        "lat": 12.9555948,
        "lon": 77.6418006,
        "tags": {
          "addr:district": "Bengaluru Urban",
          "addr:full": "Amarjyoti Layout, Domlur, Bengaluru",
          "addr:postcode": "560071",
          "addr:state": "Karnataka",
          "amenity": "hospital",
          "name": "Shree Sai Speciality Hospital",
          "source": "Local Knowledge"
        }
      },
      {
        "type": "node",
        "id": 7572526719,
        "lat": 12.9649324,
        "lon": 77.6442492,
        "tags": {
          "addr:district": "Bengaluru Urban",
          "addr:full": "Indiranagar, Bengaluru",
          "addr:postcode": "560008",
          "addr:state": "Karnataka",
          "amenity": "clinic",
          "name": "Orthopaedic & Skin Clinic",
          "source": "Local Knowledge"
        }
      },
      {
        "type": "node",
        "id": 7572526758,
        "lat": 12.9566333,
        "lon": 77.653738,
        "tags": {
          "addr:district": "Bengaluru Urban",
          "addr:full": "K R Garden, Murgesh Pallya, Bengaluru",
          "addr:postcode": "560017",
          "addr:state": "Karnataka",
          "amenity": "clinic",
          "name": "AR Diagnostic Healthcare and Polyclinic",
          "source": "Local Knowledge"
        }
      },
      {
        "type": "node",
        "id": 7572526768,
        "lat": 12.9685528,
        "lon": 77.6453841,
        "tags": {
          "addr:district": "Bengaluru Urban",
          "addr:full": "Indiranagar, Bengaluru",
          "addr:postcode": "560008",
          "addr:state": "Karnataka",
          "amenity": "clinic",
          "healthcare": "clinic",
          "name": "Shivjyoti Clinic",
          "source": "Local Knowledge"
        }
      },
      {
        "type": "node",
        "id": 7572526782,
        "lat": 12.963951,
        "lon": 77.64308,
        "tags": {
          "addr:district": "Bengaluru Urban",
          "addr:full": "Kodihalli, Bengaluru",
          "addr:postcode": "560008",
          "addr:state": "Karnataka",
          "amenity": "hospital",
          "name": "Lohitha Hospital",
          "source": "Local Knowledge"
        }
      },
      {
        "type": "node",
        "id": 7572526802,
        "lat": 12.958861,
        "lon": 77.654322,
        "tags": {
          "addr:district": "Bengaluru Urban",
          "addr:full": "Kaveri Nagar, Murgesh Pallya, Bengaluru",
          "addr:postcode": "560017",
          "addr:state": "Karnataka",
          "amenity": "hospital",
          "name": "Miracle Hopital",
          "source": "Local Knowledge"
        }
      },
      {
        "type": "node",
        "id": 8277238199,
        "lat": 12.9579281,
        "lon": 77.6485471,
        "tags": {
          "addr:city": "Bengaluru",
          "addr:postcode": "560022",
          "addr:street": "People Tree Hospitals, Metro Stop, 2, Tumkur Rd, Next to, Goraguntepalya, Yeswanthpur",
          "amenity": "clinic",
          "healthcare": "clinic",
          "healthcare:speciality": "Arthroscopy_and_Orthopedics",
          "name": "Dr. Srikanth KP",
          "website": "https://www.orthodrsrikanthkp.in/"
        }
      },
      {
        "type": "node",
        "id": 9545465495,
        "lat": 12.9637891,
        "lon": 77.6403908,
        "tags": {
          "addr:floor": "G",
          "amenity": "cafe",
          "check_date": "2024-11-09",
          "contact:facebook": "plume.delicacies",
          "contact:instagram": "plume.delicacies",
          "delivery": "yes",
          "level": "0",
          "name": "Caf\u00e9 Plume",
          "outdoor_seating": "yes",
          "takeaway": "yes"
        }
      },
      {
        "type": "node",
        "id": 9689539840,
        "lat": 12.9653338,
        "lon": 77.6417575,
        "tags": {
          "amenity": "restaurant",
          "name": "Mahesh Lunch Home"
        }
      },
      {
        "type": "node",
        "id": 9689539842,
        "lat": 12.9664617,
        "lon": 77.6417179,
        "tags": {
          "amenity": "cafe",
          "bar": "no",
          "check_date": "2024-09-18",
          "name": "Chai Days",
          "outdoor_seating": "yes",
          "payment:cash": "yes",
          "payment:credit_cards": "yes",
          "payment:debit_cards": "yes"
        }
      },
      {
        "type": "node",
        "id": 9950452463,
        "lat": 12.953323,
        "lon": 77.6498665,
        "tags": {
          "amenity": "food_court",
          "name": "Canteen",
          "operator": "IndiQube"
        }
      },
      {
        "type": "node",
        "id": 10015389086,
        "lat": 12.9692297,
        "lon": 77.6478401,
        "tags": {
          "amenity": "restaurant",
          "cuisine": "asian",
          "delivery": "yes",
          "name": "Bao Bangalore",
          "outdoor_seating": "yes",
          "takeaway": "yes"
        }
      },
      {
        "type": "node",
        "id": 10606688619,
        "lat": 12.9591479,
        "lon": 77.6568349,
        "tags": {
          "amenity": "cafe",
          "indoor_seating": "no",
          "internet_access": "no",
          "name": "Frozen bottle",
          "outdoor_seating": "no",
          "takeaway": "only"
        }
      },
      {
        "type": "node",
        "id": 10606721485,
        "lat": 12.9545096,
        "lon": 77.6527942,
        "tags": {
          "amenity": "cafe",
          "cuisine": "tea",
          "name": "Sharon Tea Stall",
          "outdoor_seating": "yes"
        }
      },
      {
        "type": "node",
        "id": 10606721486,
        "lat": 12.9577341,
        "lon": 77.6551766,
        "tags": {
          "amenity": "cafe",
          "cuisine": "tea",
          "name": "Sharon Tea stall",
          "outdoor_seating": "yes"
        }
      },
      {
        "type": "node",
        "id": 10606721487,
        "lat": 12.9567399,
        "lon": 77.6536857,
        "tags": {
          "amenity": "restaurant",
          "cuisine": "indian",
          "diet:vegetarian": "yes",
          "name": "New Udipi Garden"
        }
      },
      {
        "type": "node",
        "id": 10607547214,
        "lat": 12.9595272,
        "lon": 77.6564161,
        "tags": {
          "amenity": "atm",
          "bank": "yes bank",
          "brand": "Yes Bank",
          "brand:wikidata": "Q2040394",
          "cash_in": "no",
          "name": "Yes Bank",
          "operator": "Yes Bank",
          "operator:wikidata": "Q2040394"
        }
      },
      {
        "type": "node",
        "id": 10651879010,
        "lat": 12.9553102,
        "lon": 77.6486592,
        "tags": {
          "amenity": "cafe",
          "name": "Madouk Cafe"
        }
      },
      {
        "type": "node",
        "id": 10651895593,
        "lat": 12.9578892,
        "lon": 77.6492318,
        "tags": {
          "amenity": "atm",
          "brand": "Canara Bank",
          "brand:en": "Canara Bank",
          "brand:hi": "\u0915\u0947\u0928\u0930\u093e \u092c\u0948\u0902\u0915",
          "brand:kn": "\u0c95\u0cc6\u0ca8\u0cb0\u0cbe \u0cac\u0ccd\u0caf\u0cbe\u0c82\u0c95\u0ccd",
          "brand:pa": "\u0a15\u0a47\u0a28\u0a30\u0a3e \u0a2c\u0a48\u0a02\u0a15",
          "brand:pnb": "\u06a9\u06cc\u0646\u0631\u0627 \u0628\u06cc\u0646\u06a9",
          "brand:ur": "\u06a9\u06cc\u0646\u0631\u0627 \u0628\u06cc\u0646\u06a9",
          "brand:wikidata": "Q2003777",
          "name": "Canara Bank",
          "name:en": "Canara Bank",
          "name:hi": "\u0915\u0947\u0928\u0930\u093e \u092c\u0948\u0902\u0915",
          "name:kn": "\u0c95\u0cc6\u0ca8\u0cb0\u0cbe \u0cac\u0ccd\u0caf\u0cbe\u0c82\u0c95\u0ccd",
          "name:pa": "\u0a15\u0a47\u0a28\u0a30\u0a3e \u0a2c\u0a48\u0a02\u0a15",
          "name:pnb": "\u06a9\u06cc\u0646\u0631\u0627 \u0628\u06cc\u0646\u06a9",
          "name:ur": "\u06a9\u06cc\u0646\u0631\u0627 \u0628\u06cc\u0646\u06a9",
          "operator": "Canara Bank",
          "operator:wikidata": "Q2003777"
        }
      },
      {
        "type": "node",
        "id": 10651903499,
        "lat": 12.9598179,
        "lon": 77.6502474,
        "tags": {
          "amenity": "atm",
          "brand": "State Bank of India",
          "brand:wikidata": "Q1340361",
          "name": "SBI ATM",
          "name:kn": "\u0c8e\u0cb8\u0ccd \u0cac\u0cbf \u0c90",
          "operator": "State Bank of India",
          "operator:wikidata": "Q1340361",
          "short_name": "SBI"
        }
      },
      {
        "type": "node",
        "id": 10727955502,
        "lat": 12.9683018,
        "lon": 77.651787,
        "tags": {
          "amenity": "cafe",
          "contact:facebook": "lefromageboulangerie",
          "contact:instagram": "le_fromage_boulangerie",
          "delivery": "yes",
          "name": "Dunk'd",
          "old_name": "Le Fromage",
          "shop": "pastry",
          "takeaway": "yes",
          "website": "https://www.lefromage.shop"
        }
      },
      {
        "type": "node",
        "id": 10913665921,
        "lat": 12.96343,
        "lon": 77.6410807,
        "tags": {
          "alt_name": "Nerlu Cafe",
          "amenity": "cafe",
          "name": "ner.lu",
          "start_date": "2023-05-20"
        }
      },
      {
        "type": "node",
        "id": 10964514741,
        "lat": 12.9535497,
        "lon": 77.652907,
        "tags": {
          "amenity": "restaurant",
          "cuisine": "chinese;japanese;asian",
          "diet:non-vegetarian": "yes",
          "diet:vegetarian": "yes",
          "name": "Retro chinese cuisine"
        }
      },
      {
        "type": "node",
        "id": 10967712205,
        "lat": 12.9606019,
        "lon": 77.6493201,
        "tags": {
          "amenity": "bank",
          "brand": "Axis Bank",
          "brand:wikidata": "Q2003549",
          "brand:wikipedia": "en:Axis Bank",
          "name": "Axis Bank",
          "name:kn": "\u0c86\u0c95\u0ccd\u0cb8\u0cbf\u0cb8\u0ccd \u0cac\u0ccd\u0caf\u0cbe\u0c82\u0c95\u0ccd",
          "survey:date": "2023-06-10"
        }
      },
      {
        "type": "node",
        "id": 11131430545,
        "lat": 12.96331,
        "lon": 77.6418665,
        "tags": {
          "amenity": "bank",
          "brand": "ICICI Bank",
          "brand:wikidata": "Q1653258",
          "name": "ICICI Bank",
          "short_name": "ICICI"
        }
      },
      {
        "type": "node",
        "id": 11534808272,
        "lat": 12.9603913,
        "lon": 77.6479068,
        "tags": {
          "amenity": "restaurant",
          "check_date": "2024-01-21",
          "contact:instagram": "https://www.instagram.com/kokorestaurants",
          "cuisine": "asian",
          "name": "KOKO",
          "phone": "+91 98441 94747",
          "website": "https://www.kokorestaurants.com/"
        }
      },
      {
        "type": "node",
        "id": 11581391769,
        "lat": 12.9547046,
        "lon": 77.6486408,
        "tags": {
          "check_date": "2024-02-03",
          "name": "Citi Food Centre",
          "shop": "supermarket"
        }
      },
      {
        "type": "node",
        "id": 12102958394,
        "lat": 12.966625,
        "lon": 77.6483403,
        "tags": {
          "amenity": "cafe",
          "contact:instagram": "delcakes.in",
          "name": "Deliciae",
          "website": "https://orders.delcakes.in/blr_catalog"
        }
      },
      {
        "type": "node",
        "id": 12145301178,
        "lat": 12.9576909,
        "lon": 77.6415798,
        "tags": {
          "amenity": "restaurant",
          "name": "CR Tavern Bar & Kitchen"
        }
      },
      {
        "type": "node",
        "id": 12325681709,
        "lat": 12.96905,
        "lon": 77.6483249,
        "tags": {
          "amenity": "fast_food",
          "check_date": "2024-11-09",
          "name": "Sabari Cafe"
        }
      },
      {
        "type": "node",
        "id": 12366562183,
        "lat": 12.96868,
        "lon": 77.6498334,
        "tags": {
          "amenity": "bank",
          "atm": "yes",
          "brand": "Ujjivan Small Finance Bank",
          "brand:wikidata": "Q42529272",
          "check_date": "2024-11-23",
          "drive_through": "no",
          "name": "Ujjivan Small Finance Bank"
        }
      },
      {
        "type": "node",
        "id": 12366562184,
        "lat": 12.9684107,
        "lon": 77.6501156,
        "tags": {
          "amenity": "restaurant",
          "check_date": "2024-11-23",
          "name": "Biryani Bhojana"
        }
      },
      {
        "type": "node",
        "id": 12366562185,
        "lat": 12.9683648,
        "lon": 77.6500847,
        "tags": {
          "amenity": "cafe",
          "check_date": "2024-11-23",
          "name": "Cafe Amudham"
        }
      },
      {
        "type": "node",
        "id": 12366563180,
        "lat": 12.9681876,
        "lon": 77.6519359,
        "tags": {
          "amenity": "fast_food",
          "check_date": "2024-11-23",
          "name": "Chickpete Donne Biryani Mane"
        }
      },
      {
        "type": "node",
        "id": 12366563182,
        "lat": 12.9681088,
        "lon": 77.6524272,
        "tags": {
          "amenity": "fast_food",
          "check_date": "2024-11-23",
          "name": "New Udupi Grand"
        }
      },
      {
        "type": "node",
        "id": 12512224859,
        "lat": 12.9670968,
        "lon": 77.6481231,
        "tags": {
          "amenity": "cafe",
          "name": "Ethic Attic Cafe"
        }
      },
      {
        "type": "node",
        "id": 12611770958,
        "lat": 12.9636433,
        "lon": 77.6412982,
        "tags": {
          "addr:city": "Bengaluru",
          "addr:hamlet": "HAL 2nd Stage",
          "addr:housenumber": "4000",
          "addr:postcode": "560038",
          "addr:street": "100 Feet Road",
          "addr:suburb": "Indiranagar",
          "amenity": "fast_food",
          "contact:instagram": "thealienkind",
          "name": "Alienkind"
        }
      },
      {
        "type": "node",
        "id": 12809397078,
        "lat": 12.967796,
        "lon": 77.6528464,
        "tags": {
          "amenity": "cafe",
          "name": "Chelvies Coffee Roastery",
          "website": "https://chelviescoffee.com"
        }
      },
      {
        "type": "node",
        "id": 13060047832,
        "lat": 12.9690741,
        "lon": 77.6481302,
        "tags": {
          "amenity": "restaurant",
          "check_date": "2025-08-09",
          "name": "Bathinda Junction"
        }
      }
    ]
  },
  "pois_2_5km": {
    "version": 0.6,
    "generator": "Overpass API 0.7.62.8 e802775f",
    "osm3s": {
      "timestamp_osm_base": "2025-09-06T08:02:01Z",
      "copyright": "The data included in this document is from www.openstreetmap.org. The data is made available under ODbL."
    },
    "elements": [
      {
        "type": "node",
        "id": 298815411,
        "lat": 12.9604628,
        "lon": 77.6435762,
        "tags": {
          "bus": "yes",
          "name": "Domlur Flyover",
          "name:en": "Domlur Flyover",
          "name:kn": "\u0ca6\u0cca\u0cae\u0ccd\u0cae\u0cb2\u0cc2\u0cb0\u0cc1 \u0cae\u0cc7\u0cb2\u0ccd\u0cb8\u0cc7\u0ca4\u0cc1\u0cb5\u0cc6",
          "network": "BMTC",
          "operator": "BMTC",
          "public_transport": "stop_position"
        }
      },
      {
        "type": "node",
        "id": 850782880,
        "lat": 12.9783079,
        "lon": 77.6386592,
        "tags": {
          "alt_name": "CMH Road",
          "code": "IDN",
          "name": "Indiranagar",
          "name:hi": "\u0907\u0902\u0926\u093f\u0930\u093e\u0928\u0917\u0930",
          "name:kn": "\u0c87\u0c82\u0ca6\u0cbf\u0cb0\u0cbe\u0ca8\u0c97\u0cb0",
          "network": "Namma Metro",
          "note": "Contributors are requested to not edit the \"network\" and the \"operator\" tags. (2023/11/08)",
          "operator": "Bangalore Metro Rail Corporation Limited",
          "platforms": "2",
          "public_transport": "stop_position",
          "public_transport:version": "2",
          "railway": "stop",
          "source": "http://www.bmrc.co.in/English/Network.htm",
          "subway": "yes",
          "wheelchair": "yes"
        }
      },
      {
        "type": "node",
        "id": 3370028601,
        "lat": 12.978257,
        "lon": 77.6443355,
        "tags": {
          "addr:street": "Chinmaya Mission Hospital Road",
          "amenity": "theatre",
          "name": "Max Muller Bhavan",
          "name:kn": "\u0cae\u0cbe\u0c95\u0ccd\u0cb8\u0ccd \u0cae\u0cc1\u0cb2\u0ccd\u0cb2\u0cb0\u0ccd \u0cad\u0cb5\u0ca8"
        }
      },
      {
        "type": "node",
        "id": 4559461283,
        "lat": 12.9637741,
        "lon": 77.6377518,
        "tags": {
          "amenity": "theatre",
          "name": "TERI Auditorium"
        }
      },
      {
        "type": "node",
        "id": 5760197792,
        "lat": 12.9783526,
        "lon": 77.638658,
        "tags": {
          "alt_name": "CMH Road",
          "code": "IDN",
          "name": "Indiranagar",
          "name:hi": "\u0907\u0902\u0926\u093f\u0930\u093e\u0928\u0917\u0930",
          "name:kn": "\u0c87\u0c82\u0ca6\u0cbf\u0cb0\u0cbe\u0ca8\u0c97\u0cb0",
          "network": "Namma Metro",
          "note": "Contributors are requested to not edit the \"network\" and the \"operator\" tags. (2023/11/08)",
          "operator": "Bangalore Metro Rail Corporation Limited",
          "platforms": "2",
          "public_transport": "stop_position",
          "public_transport:version": "2",
          "railway": "stop",
          "source": "http://www.bmrc.co.in/English/Network.htm",
          "subway": "yes",
          "wheelchair": "yes"
        }
      },
      {
        "type": "node",
        "id": 6182576273,
        "lat": 12.9783131,
        "lon": 77.6402096,
        "tags": {
          "bus": "yes",
          "name": "Police Station Indiranagara",
          "name:en": "Police Station Indiranagara",
          "name:kn": "\u0c87\u0c82\u0ca6\u0cbf\u0cb0\u0ca8\u0c97\u0cb0",
          "network": "BMTC",
          "operator": "BMTC",
          "public_transport": "stop_position"
        }
      },
      {
        "type": "node",
        "id": 6400857551,
        "lat": 12.9783325,
        "lon": 77.6386612,
        "tags": {
          "code": "IDN",
          "layer": "1",
          "lit": "yes",
          "name": "Indiranagar",
          "name:hi": "\u0907\u0902\u0926\u093f\u0930\u093e\u0928\u0917\u0930",
          "name:kn": "\u0c87\u0c82\u0ca6\u0cbf\u0cb0\u0cbe\u0ca8\u0c97\u0cb0",
          "name:ml": "\u0d07\u0d28\u0d4d\u0d26\u0d3f\u0d30\u0d3e\u0d28\u0d17\u0d7c",
          "network": "Namma Metro",
          "note": "Contributors are requested to not edit the \"network\" and the \"operator\" tags. (2023/11/08)",
          "operator": "Bangalore Metro Rail Corporation Limited",
          "platforms": "2",
          "public_transport": "station",
          "public_transport:version": "2",
          "railway": "station",
          "shelter": "yes",
          "station": "subway",
          "subway": "yes",
          "website": "https://english.brmc.co.in",
          "wheelchair": "yes"
        }
      },
      {
        "type": "node",
        "id": 6545576539,
        "lat": 12.9670947,
        "lon": 77.6351897,
        "tags": {
          "alt_name": "BIC Auditorium",
          "amenity": "theatre",
          "check_date": "2025-03-14",
          "level": "0;1",
          "name": "Sarah Kailath Auditorium"
        }
      },
      {
        "type": "node",
        "id": 6631824071,
        "lat": 12.9569623,
        "lon": 77.641363,
        "tags": {
          "bus": "yes",
          "name": "Domlur Flyover",
          "network": "BMTC",
          "operator": "BMTC",
          "public_transport": "stop_position"
        }
      },
      {
        "type": "node",
        "id": 6645712421,
        "lat": 12.9611004,
        "lon": 77.6379709,
        "tags": {
          "bus": "yes",
          "name": "Domlur (Towards HAL)",
          "name:en": "Domlur (Towards HAL)",
          "network": "BMTC",
          "operator": "BMTC",
          "public_transport": "stop_position"
        }
      },
      {
        "type": "node",
        "id": 7133498146,
        "lat": 12.9584418,
        "lon": 77.6664832,
        "tags": {
          "bus": "yes",
          "name": "HAL Main Gate",
          "name:en": "HAL Main Gate",
          "network": "BMTC",
          "operator": "BMTC",
          "public_transport": "stop_position"
        }
      },
      {
        "type": "node",
        "id": 7133498147,
        "lat": 12.9592332,
        "lon": 77.6603143,
        "tags": {
          "bus": "yes",
          "name": "Konena Agrahara",
          "name:en": "Konena Agrahara",
          "name:kn": "\u0c95\u0cca\u0ca8\u0cc6\u0ca8 \u0c85\u0c97\u0ccd\u0cb0\u0cb9\u0cbe\u0cb0",
          "network": "BMTC",
          "operator": "BMTC",
          "public_transport": "stop_position"
        }
      },
      {
        "type": "node",
        "id": 7133498148,
        "lat": 12.9592169,
        "lon": 77.6580593,
        "tags": {
          "bus": "yes",
          "name": "Murugeshpalaya",
          "name:en": "Murugeshpalaya",
          "name:kn": "\u0cae\u0cc1\u0cb0\u0cc1\u0c97\u0cc7\u0cb6\u0caa\u0cbe\u0cb3\u0ccd\u0caf",
          "network": "BMTC",
          "operator": "BMTC",
          "public_transport": "stop_position"
        }
      },
      {
        "type": "node",
        "id": 7133498149,
        "lat": 12.95966,
        "lon": 77.6505169,
        "tags": {
          "bus": "yes",
          "name": "NAL Manipal Hospital",
          "name:en": "NAL Manipal Hospital",
          "network": "BMTC",
          "operator": "BMTC",
          "public_transport": "stop_position"
        }
      },
      {
        "type": "node",
        "id": 7133498150,
        "lat": 12.9600451,
        "lon": 77.6472248,
        "tags": {
          "bus": "yes",
          "name": "Kodihalli",
          "name:en": "Kodihalli",
          "name:kn": "\u0c95\u0ccb\u0ca1\u0cbf\u0cb9\u0cb3\u0ccd\u0cb3\u0cbf",
          "network": "BMTC",
          "operator": "BMTC",
          "public_transport": "stop_position"
        }
      },
      {
        "type": "node",
        "id": 7133498156,
        "lat": 12.9641253,
        "lon": 77.6261607,
        "tags": {
          "bus": "yes",
          "name": "Command Hospital",
          "name:en": "Command Hospital",
          "network": "BMTC",
          "operator": "BMTC",
          "public_transport": "stop_position"
        }
      },
      {
        "type": "node",
        "id": 7156942409,
        "lat": 12.9782082,
        "lon": 77.6362627,
        "tags": {
          "bus": "yes",
          "name": "Double Road Indiranagara",
          "name:en": "Double Road Indiranagara",
          "network": "BMTC",
          "operator": "BMTC",
          "public_transport": "stop_position"
        }
      },
      {
        "type": "node",
        "id": 7156942411,
        "lat": 12.9777293,
        "lon": 77.6466319,
        "tags": {
          "bus": "yes",
          "name": "CMH Hospital",
          "name:en": "CMH Hospital",
          "network": "BMTC",
          "operator": "BMTC",
          "public_transport": "stop_position"
        }
      },
      {
        "type": "node",
        "id": 7156942412,
        "lat": 12.9742017,
        "lon": 77.646845,
        "tags": {
          "bus": "yes",
          "name": "Thippasandra",
          "name:en": "Thippasandra",
          "name:kn": "\u0ca4\u0cbf\u0caa\u0ccd\u0caa\u0cb8\u0c82\u0ca6\u0ccd\u0cb0",
          "network": "BMTC",
          "operator": "BMTC",
          "public_transport": "stop_position"
        }
      },
      {
        "type": "node",
        "id": 7156942413,
        "lat": 12.9686142,
        "lon": 77.6495815,
        "tags": {
          "bus": "yes",
          "name": "Kodihalli",
          "name:en": "Kodihalli",
          "name:kn": "\u0c95\u0ccb\u0ca1\u0cbf\u0cb9\u0cb3\u0ccd\u0cb3\u0cbf",
          "network": "BMTC",
          "operator": "BMTC",
          "public_transport": "stop_position"
        }
      },
      {
        "type": "node",
        "id": 7156942414,
        "lat": 12.9674869,
        "lon": 77.6559992,
        "tags": {
          "bus": "yes",
          "name": "Petrol Bunk",
          "name:en": "Petrol Bunk",
          "network": "BMTC",
          "operator": "BMTC",
          "public_transport": "stop_position"
        }
      },
      {
        "type": "node",
        "id": 7156942416,
        "lat": 12.9658273,
        "lon": 77.6575968,
        "tags": {
          "bus": "yes",
          "name": "Jeevanbheema Nagara",
          "name:en": "Jeevanbheema Nagara",
          "name:kn": "\u0c9c\u0cc0\u0cb5\u0ca8\u0cad\u0cc0\u0cae \u0ca8\u0c97\u0cb0",
          "network": "BMTC",
          "operator": "BMTC",
          "public_transport": "stop_position"
        }
      },
      {
        "type": "node",
        "id": 7488396058,
        "lat": 12.9806842,
        "lon": 77.6563394,
        "tags": {
          "bus": "yes",
          "name": "Bagmane Tech Park",
          "name:en": "Bagmane Tech Park",
          "network": "BMTC",
          "operator": "BMTC",
          "public_transport": "stop_position"
        }
      },
      {
        "type": "node",
        "id": 9202909866,
        "lat": 12.975668,
        "lon": 77.6413089,
        "tags": {
          "access": "yes",
          "amenity": "charging_station",
          "capacity": "8",
          "name": "Ather Charging Grid",
          "operator": "Ather Energy"
        }
      },
      {
        "type": "node",
        "id": 9811396097,
        "lat": 12.9775829,
        "lon": 77.6389895,
        "tags": {
          "access": "yes",
          "amenity": "charging_station",
          "fixme": "Operator and EV Charger Details"
        }
      },
      {
        "type": "node",
        "id": 9814659992,
        "lat": 12.978183,
        "lon": 77.640926,
        "tags": {
          "bus": "yes",
          "name": "Police Station Indiranagara",
          "name:en": "Police Station Indiranagara",
          "network": "BMTC",
          "operator": "BMTC",
          "public_transport": "stop_position"
        }
      },
      {
        "type": "node",
        "id": 9917415768,
        "lat": 12.9733967,
        "lon": 77.6357561,
        "tags": {
          "amenity": "charging_station",
          "bicycle": "yes",
          "motorcycle": "yes",
          "scooter": "yes"
        }
      },
      {
        "type": "node",
        "id": 9917415769,
        "lat": 12.9733738,
        "lon": 77.6357554,
        "tags": {
          "amenity": "charging_station",
          "bicycle": "yes",
          "motorcycle": "yes",
          "scooter": "yes"
        }
      },
      {
        "type": "node",
        "id": 9927786375,
        "lat": 12.9645072,
        "lon": 77.6258,
        "tags": {
          "bus": "yes",
          "name": "Command Hospital",
          "name:en": "Command Hospital",
          "network": "BMTC",
          "operator": "BMTC",
          "public_transport": "stop_position"
        }
      },
      {
        "type": "node",
        "id": 9930197124,
        "lat": 12.9634978,
        "lon": 77.6416701,
        "tags": {
          "bus": "yes",
          "name": "HAL 2nd Stage",
          "name:en": "HAL 2nd Stage",
          "network": "BMTC",
          "operator": "BMTC",
          "public_transport": "stop_position"
        }
      },
      {
        "type": "node",
        "id": 9930197127,
        "lat": 12.9509894,
        "lon": 77.639535,
        "tags": {
          "alt_name": "Dell",
          "bus": "yes",
          "name": "Embassy Golf Links",
          "network": "BMTC",
          "operator": "BMTC",
          "public_transport": "stop_position"
        }
      },
      {
        "type": "node",
        "id": 10181978911,
        "lat": 12.9807765,
        "lon": 77.6567441,
        "tags": {
          "bus": "yes",
          "name": "Bagmane Tech Park",
          "name:en": "Bagmane Tech Park",
          "network": "BMTC",
          "operator": "BMTC",
          "public_transport": "stop_position"
        }
      },
      {
        "type": "node",
        "id": 10296978073,
        "lat": 12.9664765,
        "lon": 77.6414332,
        "tags": {
          "bus": "yes",
          "name": "New Horizon School",
          "name:en": "New Horizon School",
          "network": "BMTC",
          "operator": "BMTC",
          "public_transport": "stop_position"
        }
      },
      {
        "type": "node",
        "id": 11125567288,
        "lat": 12.9743818,
        "lon": 77.6469076,
        "tags": {
          "alt_name": "Indiranagar 80 Feet Road",
          "bus": "yes",
          "name": "New Tippasandra Main Road",
          "name:en": "New Tippasandra Main Road",
          "network": "BMTC",
          "operator": "BMTC",
          "public_transport": "stop_position"
        }
      },
      {
        "type": "node",
        "id": 12125802596,
        "lat": 12.9781045,
        "lon": 77.6389105,
        "tags": {
          "amenity": "charging_station",
          "charging_station:battery_swapping": "yes",
          "fee": "yes",
          "level": "0",
          "motorcar": "no",
          "motorcycle": "yes",
          "name": "Honda e:swap",
          "operator": "Honda e:swap"
        }
      },
      {
        "type": "node",
        "id": 12328467541,
        "lat": 12.9715575,
        "lon": 77.6579593,
        "tags": {
          "bus": "yes",
          "name": "BEML Gate",
          "name:en": "BEML Gate",
          "network": "BMTC",
          "operator": "BMTC",
          "public_transport": "stop_position"
        }
      },
      {
        "type": "node",
        "id": 12328467543,
        "lat": 12.9720858,
        "lon": 77.654048,
        "tags": {
          "bus": "yes",
          "name": "Thippasandra Ganesha Temple",
          "name:en": "Thippasandra Ganesha Temple",
          "network": "BMTC",
          "operator": "BMTC",
          "public_transport": "stop_position"
        }
      },
      {
        "type": "node",
        "id": 12328467544,
        "lat": 12.9725231,
        "lon": 77.6508338,
        "tags": {
          "bus": "yes",
          "name": "Tippasandra Market",
          "name:en": "Tippasandra Market",
          "network": "BMTC",
          "operator": "BMTC",
          "public_transport": "stop_position"
        }
      },
      {
        "type": "node",
        "id": 12328467545,
        "lat": 12.9775919,
        "lon": 77.6467168,
        "tags": {
          "bus": "yes",
          "name": "CMH Hospital",
          "name:en": "CMH Hospital",
          "network": "BMTC",
          "operator": "BMTC",
          "public_transport": "stop_position"
        }
      },
      {
        "type": "node",
        "id": 12328467547,
        "lat": 12.9784436,
        "lon": 77.6414352,
        "tags": {
          "bus": "yes",
          "name": "Indiranagar Police Station",
          "name:en": "Indiranagar Police Station",
          "network": "BMTC",
          "operator": "BMTC",
          "public_transport": "stop_position"
        }
      },
      {
        "type": "node",
        "id": 12328481701,
        "lat": 12.9673099,
        "lon": 77.6414861,
        "tags": {
          "bus": "yes",
          "name": "New Horizon School Indiranagar",
          "name:en": "New Horizon School Indiranagar",
          "network": "BMTC",
          "operator": "BMTC",
          "public_transport": "stop_position"
        }
      },
      {
        "type": "node",
        "id": 12328481702,
        "lat": 12.9699165,
        "lon": 77.6413516,
        "tags": {
          "bus": "yes",
          "name": "Indiranagar 12th Main",
          "name:en": "Indiranagar 12th Main",
          "network": "BMTC",
          "operator": "BMTC",
          "public_transport": "stop_position"
        }
      },
      {
        "type": "node",
        "id": 12328481703,
        "lat": 12.974051,
        "lon": 77.6411137,
        "tags": {
          "bus": "yes",
          "name": "Indiranagar 6th Main",
          "name:en": "Indiranagar 6th Main",
          "network": "BMTC",
          "operator": "BMTC",
          "public_transport": "stop_position"
        }
      },
      {
        "type": "node",
        "id": 12328481704,
        "lat": 12.9674713,
        "lon": 77.656111,
        "tags": {
          "bus": "yes",
          "name": "Petrol Bunk",
          "name:en": "Petrol Bunk",
          "network": "BMTC",
          "operator": "BMTC",
          "public_transport": "stop_position"
        }
      },
      {
        "type": "node",
        "id": 12328483218,
        "lat": 12.9673018,
        "lon": 77.6575057,
        "tags": {
          "bus": "yes",
          "name": "Jeevan Bheema Nagar",
          "name:en": "Jeevan Bheema Nagar",
          "network": "BMTC",
          "operator": "BMTC",
          "public_transport": "stop_position"
        }
      },
      {
        "type": "node",
        "id": 12328483219,
        "lat": 12.9710289,
        "lon": 77.6589695,
        "tags": {
          "bus": "yes",
          "name": "BEML Gate",
          "name:en": "BEML Gate",
          "network": "BMTC",
          "operator": "BMTC",
          "public_transport": "stop_position"
        }
      },
      {
        "type": "node",
        "id": 12507390901,
        "lat": 12.9617472,
        "lon": 77.6387846,
        "tags": {
          "bus": "yes",
          "name": "Platform 6",
          "operator": "BMTC",
          "public_transport": "stop_position"
        }
      },
      {
        "type": "node",
        "id": 12507390902,
        "lat": 12.9616185,
        "lon": 77.6386457,
        "tags": {
          "bus": "yes",
          "name": "Platform 5",
          "operator": "BMTC",
          "public_transport": "stop_position"
        }
      },
      {
        "type": "node",
        "id": 12507390903,
        "lat": 12.96183,
        "lon": 77.6387312,
        "tags": {
          "bus": "yes",
          "name": "Platform 4",
          "operator": "BMTC",
          "public_transport": "stop_position"
        }
      },
      {
        "type": "node",
        "id": 12507390904,
        "lat": 12.9616995,
        "lon": 77.6385834,
        "tags": {
          "bus": "yes",
          "name": "Platform 3",
          "operator": "BMTC",
          "public_transport": "stop_position"
        }
      },
      {
        "type": "node",
        "id": 12507390905,
        "lat": 12.9618927,
        "lon": 77.638679,
        "tags": {
          "bus": "yes",
          "name": "Platform 2",
          "operator": "BMTC",
          "public_transport": "stop_position"
        }
      },
      {
        "type": "node",
        "id": 12507390906,
        "lat": 12.9617604,
        "lon": 77.6385377,
        "tags": {
          "bus": "yes",
          "name": "Platform 1",
          "operator": "BMTC",
          "public_transport": "stop_position"
        }
      },
      {
        "type": "node",
        "id": 12560755497,
        "lat": 12.9600064,
        "lon": 77.6457581,
        "tags": {
          "addr:city": "Bengaluru, Karnataka",
          "addr:district": "Bangalore",
          "addr:postcode": "560008",
          "addr:street": "HAL Old Airport Road",
          "amenity": "fuel",
          "brand": "Indian Oil",
          "brand:wikidata": "Q1289348",
          "name": "Indian Oil"
        }
      },
      {
        "type": "node",
        "id": 13016547162,
        "lat": 12.9767395,
        "lon": 77.6547796,
        "tags": {
          "bus": "yes",
          "name": "Geetanjali Layout",
          "name:en": "Geetanjali Layout",
          "network": "BMTC",
          "operator": "BMTC",
          "public_transport": "stop_position"
        }
      },
      {
        "type": "node",
        "id": 13016547164,
        "lat": 12.9786144,
        "lon": 77.6463813,
        "tags": {
          "bus": "yes",
          "name": "Chinmaya Mission Hospital",
          "name:en": "Chinmaya Mission Hospital",
          "network": "BMTC",
          "operator": "BMTC",
          "public_transport": "stop_position"
        }
      },