{
  "pois_1km": {
    "version": 0.6,
    "generator": "Overpass API 0.7.62.8 e802775f",
    "osm3s": {
      "timestamp_osm_base": "2025-09-06T08:14:30Z",
      "copyright": "The data included in this document is from www.openstreetmap.org. The data is made available under ODbL."
    },
    "elements": [
      {
        "type": "node",
        "id": 1348265190,
        "lat": 12.9827809,
        "lon": 77.5592036,
        "tags": {
          "addr:city": "Bengaluru",
          "addr:postcode": "560010",
          "addr:street": "1st Main Road",
          "name": "Total Superstore",
          "organic": "yes",
          "shop": "supermarket",
          "website": "http://www.totalsuperstore.com/"
        }
      },
      {
        "type": "node",
        "id": 1813501241,
        "lat": 12.9831416,
        "lon": 77.5593081,
        "tags": {
          "amenity": "fast_food",
          "brand": "Domino's",
          "brand:ks": "\u0688\u0648\u0645\u06cc\u0646\u0648\u0632",
          "brand:pa": "\u0a21\u0a4b\u0a2e\u0a40\u0a28\u0a4b\u0a1c\u0a3c",
          "brand:ur": "\u0688\u0648\u0645\u06cc\u0646\u0648\u0632",
          "brand:wikidata": "Q839466",
          "brand:wikipedia": "en:Domino's Pizza",
          "cuisine": "pizza",
          "name": "Domino's",
          "name:kn": "\u0ca1\u0cbe\u0cae\u0cbf\u0ca8\u0ccb\u0cb8\u0ccd",
          "name:ks": "\u0688\u0648\u0645\u06cc\u0646\u0648\u0632",
          "name:pa": "\u0a21\u0a4b\u0a2e\u0a40\u0a28\u0a4b\u0a1c\u0a3c",
          "name:ur": "\u0688\u0648\u0645\u06cc\u0646\u0648\u0632",
          "takeaway": "yes"
        }
      },
      {
        "type": "node",
        "id": 1813501243,
        "lat": 12.9831807,
        "lon": 77.5597454,
        "tags": {
          "amenity": "fast_food",
          "brand": "McDonald's",
          "brand:pa": "\u0a2e\u0a48\u0a15\u0a21\u0a4b\u0a28\u0a32\u0a21\u2019\u0a1c\u0a3c",
          "brand:ur": "\u0645\u06a9\u0688\u0648\u0646\u0644\u0688\u0632",
          "brand:wikidata": "Q38076",
          "brand:wikipedia": "en:McDonald's",
          "brand:wikipedia:pa": "\u0a2e\u0a48\u0a15\u0a21\u0a4b\u0a28\u0a32\u0a21\u2019\u0a1c\u0a3c",
          "brand:wikipedia:ur": "\u0645\u06a9\u0688\u0648\u0646\u0644\u0688\u0632",
          "cuisine": "burger",
          "name": "McDonald's",
          "name:kn": "\u0cae\u0ccd\u0caf\u0cbe\u0c95\u0ccd\u200c\u0ca1\u0cca\u0ca8\u0cbe\u0cb2\u0ccd\u0ca1\u0ccd\u0cb8\u0ccd",
          "name:pa": "\u0a2e\u0a48\u0a15\u0a21\u0a4b\u0a28\u0a32\u0a21\u2019\u0a1c\u0a3c",
          "name:ur": "\u0645\u06a9\u0688\u0648\u0646\u0644\u0688\u0632",
          "takeaway": "yes"
        }
      },
      {
        "type": "node",
        "id": 2016220393,
        "lat": 12.9779674,
        "lon": 77.5530323,
        "tags": {
          "amenity": "fast_food",
          "name": "Al-Bek chiken",
          "wheelchair": "no"
        }
      },
      {
        "type": "node",
        "id": 2016220426,
        "lat": 12.9799118,
        "lon": 77.5541722,
        "tags": {
          "amenity": "atm",
          "brand": "Canara Bank",
          "brand:en": "Canara Bank",
          "brand:hi": "\u0915\u0947\u0928\u0930\u093e \u092c\u0948\u0902\u0915",
          "brand:kn": "\u0c95\u0cc6\u0ca8\u0cb0\u0cbe \u0cac\u0ccd\u0caf\u0cbe\u0c82\u0c95\u0ccd",
          "brand:pa": "\u0a15\u0a47\u0a28\u0a30\u0a3e \u0a2c\u0a48\u0a02\u0a15",
          "brand:pnb": "\u06a9\u06cc\u0646\u0631\u0627 \u0628\u06cc\u0646\u06a9",
          "brand:ur": "\u06a9\u06cc\u0646\u0631\u0627 \u0628\u06cc\u0646\u06a9",
          "brand:wikidata": "Q2003777",
          "name": "Canara Bank",
          "name:en": "Canara Bank",
          "name:hi": "\u0915\u0947\u0928\u0930\u093e \u092c\u0948\u0902\u0915",
          "name:kn": "\u0c95\u0cc6\u0ca8\u0cb0\u0cbe \u0cac\u0ccd\u0caf\u0cbe\u0c82\u0c95\u0ccd",
          "name:pa": "\u0a15\u0a47\u0a28\u0a30\u0a3e \u0a2c\u0a48\u0a02\u0a15",
          "name:pnb": "\u06a9\u06cc\u0646\u0631\u0627 \u0628\u06cc\u0646\u06a9",
          "name:ur": "\u06a9\u06cc\u0646\u0631\u0627 \u0628\u06cc\u0646\u06a9",
          "operator": "Canara Bank",
          "operator:wikidata": "Q2003777",
          "wheelchair": "no"
        }
      },
      {
        "type": "node",
        "id": 2249048755,
        "lat": 12.9877059,
        "lon": 77.5596356,
        "tags": {
          "amenity": "atm",
          "brand": "Citibank",
          "brand:wikidata": "Q857063",
          "name": "Citibank",
          "name:kn": "\u0cb8\u0cbf\u0c9f\u0cbf\u0cac\u0ccd\u0caf\u0cbe\u0c82\u0c95\u0ccd",
          "operator": "Citibank",
          "operator:wikidata": "Q857063",
          "short_name": "Citi"
        }
      },
      {
        "type": "node",
        "id": 2293249618,
        "lat": 12.9843055,
        "lon": 77.5537764,
        "tags": {
          "addr:city": "Bangalore",
          "addr:postcode": "560079",
          "addr:street": "60th Cross Road",
          "alt_name": "A2B",
          "amenity": "restaurant",
          "brand": "Adyar Ananda Bhavan",
          "brand:wikidata": "Q15178238",
          "cuisine": "regional",
          "diet:vegetarian": "only",
          "name": "Adyar Ananda Bhavan",
          "name:kn": "\u0c86\u0ca6\u0ccd\u0caf\u0cbe\u0cb0\u0ccd \u0c86\u0ca8\u0c82\u0ca6 \u0cad\u0cb5\u0ca8",
          "operator": "Adyar Ananda Bhavan",
          "phone": "+91 80 4212 3599",
          "smoking": "no",
          "website": "https://aabsweets.com",
          "wheelchair": "no"
        }
      },
      {
        "type": "node",
        "id": 2554302439,
        "lat": 12.9855811,
        "lon": 77.5556847,
        "tags": {
          "amenity": "cafe",
          "cuisine": "regional",
          "name": "Crane Crush"
        }
      },
      {
        "type": "node",
        "id": 2554302473,
        "lat": 12.9846268,
        "lon": 77.5558117,
        "tags": {
          "amenity": "bank",
          "atm": "yes",
          "brand": "State Bank of India",
          "brand:wikidata": "Q1340361",
          "brand:wikipedia": "en:State Bank of India",
          "name": "State Bank of India",
          "name:kn": "\u0cad\u0cbe\u0cb0\u0ca4\u0cc0\u0caf \u0cb8\u0ccd\u0c9f\u0cc7\u0c9f\u0ccd \u0cac\u0ccd\u0caf\u0cbe\u0c82\u0c95\u0ccd",
          "short_name": "SBI"
        }
      },
      {
        "type": "node",
        "id": 2554302512,
        "lat": 12.9843701,
        "lon": 77.555666,
        "tags": {
          "amenity": "hospital",
          "name": "Pragathi Ayurvedic Center",
          "wheelchair": "no"
        }
      },
      {
        "type": "node",
        "id": 3391135055,
        "lat": 12.9852058,
        "lon": 77.5564437,
        "tags": {
          "amenity": "bank",
          "brand": "Axis Bank",
          "brand:wikidata": "Q2003549",
          "brand:wikipedia": "en:Axis Bank",
          "name": "Axis Bank",
          "name:en": "Axis Bank",
          "name:kn": "\u0c86\u0c95\u0ccd\u0cb8\u0cbf\u0cb8\u0ccd \u0cac\u0ccd\u0caf\u0cbe\u0c82\u0c95\u0ccd",
          "website": "https://www.axisbank.com"
        }
      },
      {
        "type": "node",
        "id": 3392655602,
        "lat": 12.9874289,
        "lon": 77.5541838,
        "tags": {
          "amenity": "bank",
          "brand": "State Bank of India",
          "brand:wikidata": "Q1340361",
          "name": "State Bank of India",
          "operator": "State Bank Of India",
          "short_name": "SBI"
        }
      },
      {
        "type": "node",
        "id": 3412397362,
        "lat": 12.9898332,
        "lon": 77.5561709,
        "tags": {
          "amenity": "cafe",
          "brand": "Cafe Coffee Day",
          "brand:wikidata": "Q5017235",
          "brand:wikipedia": "en:Caf\u00e9 Coffee Day",
          "cuisine": "coffee_shop",
          "name": "Cafe Coffee Day",
          "name:kn": "\u0c95\u0cab\u0cc6 \u0c95\u0cbe\u0cab\u0cbf \u0ca1\u0cc7",
          "takeaway": "yes",
          "wheelchair": "no"
        }
      },
      {
        "type": "node",
        "id": 3412399842,
        "lat": 12.9895832,
        "lon": 77.5560181,
        "tags": {
          "amenity": "clinic",
          "healthcare": "clinic",
          "name": "CKV Clinic"
        }
      },
      {
        "type": "node",
        "id": 3412401298,
        "lat": 12.9896302,
        "lon": 77.5560208,
        "tags": {
          "amenity": "pharmacy",
          "name": "Standard Medicals",
          "wheelchair": "no"
        }
      },
      {
        "type": "node",
        "id": 3412649472,
        "lat": 12.9891936,
        "lon": 77.5559165,
        "tags": {
          "amenity": "clinic",
          "name": "Santosh Clinic - Family Physician"
        }
      },
      {
        "type": "node",
        "id": 3412651166,
        "lat": 12.9891599,
        "lon": 77.5559116,
        "tags": {
          "amenity": "pharmacy",
          "name": "Sairam Medicals and General Stores"
        }
      },
      {
        "type": "node",
        "id": 3412653430,
        "lat": 12.9890694,
        "lon": 77.5558999,
        "tags": {
          "amenity": "bank",
          "atm": "yes",
          "brand": "Syndicate Bank",
          "brand:wikidata": "Q2004088",
          "building": "bank",
          "name": "Syndicate Bank",
          "name:en": "Syndicate Bank",
          "name:kn": "\u0cb8\u0cbf\u0c82\u0ca1\u0cbf\u0c95\u0cc7\u0c9f\u0ccd \u0cac\u0ccd\u0caf\u0cbe\u0c82\u0c95\u0ccd",
          "website": "https://www.syndicatebank.in"
        }
      },
      {
        "type": "node",
        "id": 3412690280,
        "lat": 12.9904639,
        "lon": 77.5569256,
        "tags": {
          "amenity": "pharmacy",
          "healthcare": "pharmacy",
          "name": "Sri Prasamshi Medical Stores"
        }
      },
      {
        "type": "node",
        "id": 4443484964,
        "lat": 12.9898377,
        "lon": 77.5550568,
        "tags": {
          "addr:city": "bangalore",
          "addr:housenumber": "723/B",
          "addr:postcode": "560010",
          "addr:street": "11th Main Rd, 3rd Block, Rajaji Nagar",
          "amenity": "pharmacy",
          "healthcare": "pharmacy",
          "name": "Dr. Suresh's Dia Care",
          "phone": "080 2338 2867",
          "website": "drsureshdiacare.com"
        }
      },
      {
        "type": "node",
        "id": 4443494165,
        "lat": 12.9861471,
        "lon": 77.5598537,
        "tags": {
          "addr:city": "bangalore",
          "addr:housenumber": "403",
          "addr:postcode": "560010",
          "addr:street": "Dr. Rajkumar Road, 6th Block, 80 Feet Rd, 4th Block, Ramchandrapuram, Rajaji Nagar",
          "amenity": "pharmacy",
          "name": "Amrutha Medicals",
          "name:kn": "\u0c85\u0cae\u0cc3\u0ca4 \u0cae\u0cc6\u0ca1\u0cbf\u0c95\u0cb2\u0ccd\u0cb8\u0ccd",
          "phone": "080 2311 7929"
        }
      },
      {
        "type": "node",
        "id": 4443592306,
        "lat": 12.9882463,
        "lon": 77.5584271,
        "tags": {
          "addr:city": "bangalore",
          "addr:housenumber": "2/835/64/1",
          "addr:postcode": "560010",
          "addr:street": "4th Block, Amulya Corner, 3rd Main, 3rd Main Road, 4th Block, Rajaji Nagar",
          "amenity": "pharmacy",
          "name": "Nandhi Medical And General Stores",
          "phone": "080 2314 5334"
        }
      },
      {
        "type": "node",
        "id": 4446271460,
        "lat": 12.9908258,
        "lon": 77.5578843,
        "tags": {
          "addr:city": "bangalore",
          "addr:housenumber": "1000",
          "addr:postcode": "560010",
          "addr:street": "4th Block, Dr Rajkumar Road,Rajajinagar",
          "amenity": "restaurant",
          "cuisine": "regional",
          "name": "Navarang Kabab Corner",
          "opening_hours": "12:00-15:00,18:30-22:00",
          "phone": "080 41487575",
          "website": "navrangkababkorner.in"
        }
      },
      {
        "type": "node",
        "id": 4446322676,
        "lat": 12.9903931,
        "lon": 77.5584441,
        "tags": {
          "addr:city": "bangalore",
          "addr:housenumber": "73",
          "addr:postcode": "560010",
          "addr:street": "Kantha Complex, Dr. Rajkumar Road, 3rd Stage,\u00a0Rajajinaga",
          "amenity": "restaurant",
          "cuisine": "regional",
          "name": "Kudla beach",
          "opening_hours": "11:30-16:30,18:30-23:00",
          "phone": "080 32409844"
        }
      },
      {
        "type": "node",
        "id": 4446664412,
        "lat": 12.9881648,
        "lon": 77.5548179,
        "tags": {
          "addr:city": "bangalore",
          "addr:housenumber": "111",
          "addr:postcode": "560010",
          "addr:street": "West of Chord Road,, Opp Rajajinagar 1st Block Junction",
          "amenity": "hospital",
          "name": "Fortis Hospital",
          "name:kn": "\u0cab\u0ccb\u0cb0\u0ccd\u0c9f\u0cbf\u0cb8\u0ccd \u0c86\u0cb8\u0ccd\u0caa\u0ca4\u0ccd\u0cb0\u0cc6",
          "phone": "080-2300-4444",
          "website": "fortisbangalore.com"
        }
      },
      {
        "type": "node",
        "id": 4446670981,
        "lat": 12.9883267,
        "lon": 77.5549712,
        "tags": {
          "addr:city": "bangalore",
          "addr:housenumber": "2",
          "addr:postcode": "560010",
          "addr:street": "46th cross, Rajajinagar 4th Block",
          "amenity": "pharmacy",
          "name": "Nandhi Medicals",
          "phone": "+91 80 2314 5334"
        }
      },
      {
        "type": "node",
        "id": 4446692224,
        "lat": 12.9898567,
        "lon": 77.5542305,
        "tags": {
          "addr:city": "Bangalore",
          "addr:housenumber": "955",
          "addr:postcode": "560010,",
          "addr:street": "3rd Block, Rajajinagar",
          "amenity": "pharmacy",
          "healthcare": "pharmacy",
          "name": "Sri Venkateshwara Medical & General Store",
          "phone": "+91 94491 68854"
        }
      },
      {
        "type": "node",
        "id": 4446701038,
        "lat": 12.9862636,
        "lon": 77.5575477,
        "tags": {
          "addr:city": "Bangalore",
          "addr:housenumber": "403",
          "addr:postcode": "560010",
          "addr:street": "Dr Rajkumar Road, Rajajinagar",
          "amenity": "pharmacy",
          "name": "Amrutha Medicals",
          "name:kn": "\u0c85\u0cae\u0cc3\u0ca4 \u0cae\u0cc6\u0ca1\u0cbf\u0c95\u0cb2\u0ccd\u0cb8\u0ccd",
          "phone": "+91 80 2311 7929"
        }
      },
      {
        "type": "node",
        "id": 4446742748,
        "lat": 12.9906244,
        "lon": 77.5633161,
        "tags": {
          "addr:city": "bangalore",
          "addr:housenumber": "529",
          "addr:postcode": "560010",
          "addr:street": "10th Main, 2nd Block, Rajajinagar",
          "amenity": "pharmacy",
          "name": "Prasad Medicals",
          "phone": "+91 80507 82573"
        }
      },
      {
        "type": "node",
        "id": 4446968478,
        "lat": 12.9869612,
        "lon": 77.5602264,
        "tags": {
          "addr:city": "bangalore",
          "addr:housenumber": "2/10",
          "addr:postcode": "560010",
          "addr:street": "Dr Rajkumar Rd, 4N Block",
          "amenity": "pharmacy",
          "name": "Kanva Diagnostics",
          "phone": "+9180 2313 3840",
          "source": "www.yellowpages.co.in",
          "website": "https://kanvadiagnostic.com/"
        }
      },
      {
        "type": "node",
        "id": 4446986158,
        "lat": 12.9877039,
        "lon": 77.5530939,
        "tags": {
          "addr:city": "bangalore",
          "addr:housenumber": "13",
          "addr:postcode": "560003",
          "addr:street": ",2nd Main Rd, Malleshwaram",
          "amenity": "pharmacy",
          "name": "Sridhar Medicals",
          "phone": "080 2336 3765"
        }
      },
      {
        "type": "node",
        "id": 4446999695,
        "lat": 12.9887964,
        "lon": 77.5555474,
        "tags": {
          "addr:city": "Bangalore",
          "addr:housenumber": "2/835/64/1,",
          "addr:postcode": "560010",
          "addr:street": "4th Block, Rajaji Nagar",
          "amenity": "pharmacy",
          "name": "Nandhi Medicals",
          "phone": "+9180 2314 5334",
          "source": "www.justdial.com"
        }
      },
      {
        "type": "node",
        "id": 4447163944,
        "lat": 12.9878305,
        "lon": 77.5558493,
        "tags": {
          "addr:city": "Bangalore",
          "addr:housenumber": "638",
          "addr:postcode": "560010",
          "addr:street": "2nd Main, Near-Navarang Theater, Dr Rajkumar Rd, D-Block, 2nd Stage, Rajaji Nagar,",
          "amenity": "restaurant",
          "cuisine": "regional",
          "name": "Ambika Veg Restaurant",
          "opening_hours": "10:00 - 01:00",
          "phone": "080 4121 4708"
        }
      },
      {
        "type": "node",
        "id": 4488021019,
        "lat": 12.984947,
        "lon": 77.5540532,
        "tags": {
          "addr:city": "Bangalore",
          "addr:housenumber": "179/Y",
          "addr:postcode": "560010",
          "addr:street": "Rajajinagar",
          "name": "Sweet Chariot",
          "phone": "(91)-80-23151481",
          "shop": "supermarket"
        }
      },
      {
        "type": "node",
        "id": 4530356087,
        "lat": 12.9889585,
        "lon": 77.555959,
        "tags": {
          "amenity": "cafe",
          "name": "Priya Tiffin Room"
        }
      },
      {
        "type": "node",
        "id": 4697889490,
        "lat": 12.9835135,
        "lon": 77.554155,
        "tags": {
          "addr:housenumber": "63",
          "addr:postcode": "560010",
          "addr:street": "63rd Cross Road",
          "amenity": "clinic",
          "internet_access": "wlan",
          "name": "Sevabhaya hospital",
          "name:en": "Sevabhaya hospital",
          "opening_hours": "Mo-Su 09:00-22:00"
        }
      },
      {
        "type": "node",
        "id": 5157373807,
        "lat": 12.9849537,
        "lon": 77.5569222,
        "tags": {
          "addr:district": "Bengaluru Urban",
          "addr:full": "6/63, 59Th Cross, 4Th Block, Rajajinagar Entrance, Mei Polytechnic, Rajajinagar",
          "addr:postcode": "560010",
          "addr:state": "Karnataka",
          "alt_name": "Altius Cancer Center",
          "amenity": "hospital",
          "healthcare": "hospital",
          "name": "Altius Hospital",
          "source": "OpenGovernmentData"
        }
      },
      {
        "type": "node",
        "id": 5168560646,
        "lat": 12.9821863,
        "lon": 77.5660957,
        "tags": {
          "amenity": "atm",
          "brand": "Axis Bank",
          "brand:wikidata": "Q2003549",
          "name": "Axis Bank",
          "operator": "Axis Bank",
          "operator:wikidata": "Q2003549"
        }
      },
      {
        "type": "node",
        "id": 5623433261,
        "lat": 12.9864932,
        "lon": 77.5558162,
        "tags": {
          "amenity": "pharmacy",
          "brand": "Apollo Pharmacy",
          "brand:wikidata": "Q62562612",
          "healthcare": "pharmacy",
          "name": "Apollo Pharmacy",
          "name:kn": "\u0c85\u0caa\u0cca\u0cb2\u0ccb \u0cab\u0cbe\u0cb0\u0ccd\u0cae\u0cb8\u0cbf"
        }
      },
      {
        "type": "node",
        "id": 5623433264,
        "lat": 12.986288,
        "lon": 77.5558088,
        "tags": {
          "amenity": "atm",
          "brand": "State Bank of India",
          "brand:wikidata": "Q1340361",
          "name": "State Bank of India",
          "operator": "State Bank of India",
          "operator:wikidata": "Q1340361",
          "short_name": "SBI"
        }
      },
      {
        "type": "node",
        "id": 5623433265,
        "lat": 12.9861567,
        "lon": 77.5557927,
        "tags": {
          "amenity": "fast_food",
          "cuisine": "regional",
          "name": "Sri Venkateshwara Utsav"
        }
      },
      {
        "type": "node",
        "id": 5623433275,
        "lat": 12.985206,
        "lon": 77.5557887,
        "tags": {
          "amenity": "clinic",
          "name": "Shri Kaushika Dental Clinic"
        }
      },
      {
        "type": "node",
        "id": 5623550268,
        "lat": 12.9877078,
        "lon": 77.5558591,
        "tags": {
          "amenity": "bank",
          "atm": "yes",
          "brand": "Canara Bank",
          "brand:en": "Canara Bank",
          "brand:hi": "\u0915\u0947\u0928\u0930\u093e \u092c\u0948\u0902\u0915",
          "brand:kn": "\u0c95\u0cc6\u0ca8\u0cb0\u0cbe \u0cac\u0ccd\u0caf\u0cbe\u0c82\u0c95\u0ccd",
          "brand:pa": "\u0a15\u0a47\u0a28\u0a30\u0a3e \u0a2c\u0a48\u0a02\u0a15",
          "brand:pnb": "\u06a9\u06cc\u0646\u0631\u0627 \u0628\u06cc\u0646\u06a9",
          "brand:ur": "\u06a9\u06cc\u0646\u0631\u0627 \u0628\u06cc\u0646\u06a9",
          "brand:wikidata": "Q2003777",
          "brand:wikipedia": "en:Canara Bank",
          "brand:wikipedia:pa": "\u0a15\u0a47\u0a28\u0a30\u0a3e \u0a2c\u0a48\u0a02\u0a15",
          "name": "Canara Bank",
          "name:en": "Canara Bank",
          "name:hi": "\u0915\u0947\u0928\u0930\u093e \u092c\u0948\u0902\u0915",
          "name:kn": "\u0c95\u0cc6\u0ca8\u0cb0\u0cbe \u0cac\u0ccd\u0caf\u0cbe\u0c82\u0c95\u0ccd",
          "name:pa": "\u0a15\u0a47\u0a28\u0a30\u0a3e \u0a2c\u0a48\u0a02\u0a15",
          "name:pnb": "\u06a9\u06cc\u0646\u0631\u0627 \u0628\u06cc\u0646\u06a9",
          "name:ur": "\u06a9\u06cc\u0646\u0631\u0627 \u0628\u06cc\u0646\u06a9"
        }
      },
      {
        "type": "node",
        "id": 5623550269,
        "lat": 12.9876052,
        "lon": 77.5558577,
        "tags": {
          "amenity": "atm",
          "brand": "Canara Bank",
          "brand:en": "Canara Bank",
          "brand:hi": "\u0915\u0947\u0928\u0930\u093e \u092c\u0948\u0902\u0915",
          "brand:kn": "\u0c95\u0cc6\u0ca8\u0cb0\u0cbe \u0cac\u0ccd\u0caf\u0cbe\u0c82\u0c95\u0ccd",
          "brand:pa": "\u0a15\u0a47\u0a28\u0a30\u0a3e \u0a2c\u0a48\u0a02\u0a15",
          "brand:pnb": "\u06a9\u06cc\u0646\u0631\u0627 \u0628\u06cc\u0646\u06a9",
          "brand:ur": "\u06a9\u06cc\u0646\u0631\u0627 \u0628\u06cc\u0646\u06a9",
          "brand:wikidata": "Q2003777",
          "name": "Canara Bank",
          "name:en": "Canara Bank",
          "name:hi": "\u0915\u0947\u0928\u0930\u093e \u092c\u0948\u0902\u0915",
          "name:kn": "\u0c95\u0cc6\u0ca8\u0cb0\u0cbe \u0cac\u0ccd\u0caf\u0cbe\u0c82\u0c95\u0ccd",
          "name:pa": "\u0a15\u0a47\u0a28\u0a30\u0a3e \u0a2c\u0a48\u0a02\u0a15",
          "name:pnb": "\u06a9\u06cc\u0646\u0631\u0627 \u0628\u06cc\u0646\u06a9",
          "name:ur": "\u06a9\u06cc\u0646\u0631\u0627 \u0628\u06cc\u0646\u06a9",
          "operator": "Canara Bank",
          "operator:wikidata": "Q2003777"
        }
      },
      {
        "type": "node",
        "id": 5624262706,
        "lat": 12.9898621,
        "lon": 77.5546219,
        "tags": {
          "amenity": "atm",
          "brand": "indicash"
        }
      },
      {
        "type": "node",
        "id": 5624262708,
        "lat": 12.9898516,
        "lon": 77.5551738,
        "tags": {
          "amenity": "atm",
          "brand": "HDFC Bank",
          "brand:wikidata": "Q631047",
          "name": "HDFC Bank",
          "operator": "HDFC Bank",
          "operator:wikidata": "Q631047",
          "short_name": "HDFC"
        }
      },
      {
        "type": "node",
        "id": 5624262710,
        "lat": 12.9898418,
        "lon": 77.5553763,
        "tags": {
          "amenity": "atm",
          "brand": "Union Bank"
        }
      },
      {
        "type": "node",
        "id": 5624262715,
        "lat": 12.9898418,
        "lon": 77.555723,
        "tags": {
          "amenity": "clinic",
          "healthcare": "clinic",
          "name": "Deepashri Clinical Laboratory"
        }
      },
      {
        "type": "node",
        "id": 5624262720,
        "lat": 12.9885991,
        "lon": 77.555898,
        "tags": {
          "amenity": "atm",
          "name": "NKGSB Bank"
        }
      },
      {
        "type": "node",
        "id": 5624263021,
        "lat": 12.9887846,
        "lon": 77.555898,
        "tags": {
          "note": "name unknown",
          "shop": "supermarket"
        }
      },
      {
        "type": "node",
        "id": 5624263022,
        "lat": 12.9886337,
        "lon": 77.5558993,
        "tags": {
          "amenity": "bank",
          "atm": "yes",
          "name": "NKGSB Bank"
        }
      },
      {
        "type": "node",
        "id": 5624263031,
        "lat": 12.9880221,
        "lon": 77.5558457,
        "tags": {
          "amenity": "pharmacy",
          "name": "Sree Prabhu Medical Centre"
        }
      },
      {
        "type": "node",
        "id": 6487165550,
        "lat": 12.9826939,
        "lon": 77.5607271,
        "tags": {
          "amenity": "bank",
          "atm": "yes",
          "brand": "Syndicate Bank",
          "brand:wikidata": "Q2004088",
          "name": "Syndicate Bank",
          "name:kn": "\u0cb8\u0cbf\u0c82\u0ca1\u0cbf\u0c95\u0cc7\u0c9f\u0ccd \u0cac\u0ccd\u0caf\u0cbe\u0c82\u0c95\u0ccd"
        }
      },
      {
        "type": "node",
        "id": 6646295302,
        "lat": 12.9860978,
        "lon": 77.5543504,
        "tags": {
          "addr:city": "Bangalore",
          "addr:postcode": "560010",
          "addr:street": "12th Main Road",
          "air_conditioning": "no",
          "amenity": "restaurant",
          "bar": "no",
          "cuisine": "indian;juice;ice_cream",
          "name": "New Shanthi Sagar",
          "opening_hours": "Mo-Su 06:00-22:00"
        }
      },
      {
        "type": "node",
        "id": 6681254112,
        "lat": 12.9869192,
        "lon": 77.5562131,
        "tags": {
          "amenity": "cafe",
          "name": "by 2 coffy"
        }
      },
      {
        "type": "node",
        "id": 6938690600,
        "lat": 12.9822186,
        "lon": 77.5599374,
        "tags": {
          "addr:district": "Bengaluru Urban",
          "addr:full": "1033,4 Th Block Dr Rajdumar Road",
          "addr:postcode": "560010",
          "addr:state": "Karnataka",
          "amenity": "hospital",
          "name": "Sri Dhavantari Ayurveda Hoapital",
          "source": "OpenGovernmentData"
        }
      },
      {
        "type": "node",
        "id": 6938690601,
        "lat": 12.9848505,
        "lon": 77.5581537,
        "tags": {
          "addr:district": "Bengaluru Urban",
          "addr:full": "No. 546/46, 6Th Main, 4Th Block, Rajajinagar",
          "addr:postcode": "560010",
          "addr:state": "Karnataka",
          "amenity": "clinic",
          "name": "Spandana Nursing Home, Bengaluru Urban",
          "source": "OpenGovernmentData"
        }
      },
      {
        "type": "node",
        "id": 6938690602,
        "lat": 12.9845343,
        "lon": 77.5532775,
        "tags": {
          "addr:district": "Bengaluru Urban",
          "addr:full": "25 27 60Th Cross 5Th Block Near Bashyam Circle Rajajinagar",
          "addr:postcode": "560010",
          "addr:state": "Karnataka",
          "amenity": "clinic",
          "name": "Jinka Nursing Home",
          "source": "OpenGovernmentData"
        }
      },
      {
        "type": "node",
        "id": 6938690603,
        "lat": 12.9845512,
        "lon": 77.5528322,
        "tags": {
          "addr:district": "Bengaluru Urban",
          "addr:full": "No. 851/D , 5Th Block , Rajajinagar , 60Th Cross",
          "addr:postcode": "560040",
          "addr:state": "Karnataka",
          "amenity": "hospital",
          "name": "Vaidyam Hospital",
          "source": "OpenGovernmentData"
        }
      },
      {
        "type": "node",
        "id": 6938690604,
        "lat": 12.9897745,
        "lon": 77.5551014,
        "tags": {
          "addr:district": "Bengaluru Urban",
          "addr:full": "723 / B Main E S I Hospital Raod, 3Road Block, Rajajinagar",
          "addr:postcode": "560010",
          "addr:state": "Karnataka",
          "amenity": "hospital",
          "name": "Suresh Hospital - Bangalore",
          "source": "OpenGovernmentData"
        }
      },
      {
        "type": "node",
        "id": 6939061708,
        "lat": 12.9856882,
        "lon": 77.5565229,
        "tags": {
          "addr:district": "Bengaluru Urban",
          "addr:full": "Rajaji Nager",
          "addr:postcode": "560010",
          "addr:state": "Karnataka",
          "amenity": "clinic",
          "name": "Ramamni Nursing And Maternity",
          "source": "OpenGovernmentData"
        }
      },
      {
        "type": "node",
        "id": 6945606655,
        "lat": 12.9907644,
        "lon": 77.5568951,
        "tags": {
          "addr:district": "Bengaluru Urban",
          "addr:full": "No 562, 3Road Main Second Block, Rajajinagar",
          "addr:postcode": "560010",
          "addr:state": "Karnataka",
          "amenity": "clinic",
          "healthcare": "clinic",
          "name": "Kumar Nethralaya",
          "source": "OpenGovernmentData"
        }
      },
      {
        "type": "node",
        "id": 6948438892,
        "lat": 12.9817233,
        "lon": 77.5549364,
        "tags": {
          "addr:district": "Bengaluru Urban",
          "addr:full": "10Th, A Main, 68Th Cross, 5Th Block, Rajajinagar Near Bhasyam Circle",
          "addr:postcode": "560010",
          "addr:state": "Karnataka",
          "amenity": "hospital",
          "name": "Rotary Eye Hospital (A Unit Of Bangalore North Rotary Trust)",
          "source": "OpenGovernmentData"
        }
      },
      {
        "type": "node",
        "id": 6948540414,
        "lat": 12.9880313,
        "lon": 77.5557142,
        "tags": {
          "addr:district": "Bengaluru Urban",
          "addr:full": "No. 652 , 46Th Cross , 'A' , 3Road Block Rajajinagar Near Cananra Bank",
          "addr:postcode": "560010",
          "addr:state": "Karnataka",
          "amenity": "clinic",
          "name": "Sri Sai Clinic and Maternity Home",
          "source": "OpenGovernmentData"
        }
      },
      {
        "type": "node",
        "id": 7043906886,
        "lat": 12.9882933,
        "lon": 77.5561065,
        "tags": {
          "amenity": "pharmacy",
          "brand": "Wellness Forever",
          "healthcare": "pharmacy",
          "name": "Wellness Forever"
        }
      },
      {
        "type": "node",
        "id": 7146770603,
        "lat": 12.988307,
        "lon": 77.5558618,
        "tags": {
          "amenity": "fast_food",
          "cuisine": "regional",
          "name": "Spicy Secret"
        }
      },
      {
        "type": "node",
        "id": 7236205644,
        "lat": 12.9853419,
        "lon": 77.5564646,
        "tags": {
          "amenity": "atm",
          "brand": "ICICI Bank",
          "brand:wikidata": "Q1653258",
          "name": "ICICI Bank",
          "operator": "ICICI Bank",
          "operator:wikidata": "Q1653258",
          "short_name": "ICICI"
        }
      },
      {
        "type": "node",
        "id": 7236205645,
        "lat": 12.9872008,
        "lon": 77.556077,
        "tags": {
          "amenity": "fast_food",
          "name": "Malnad Aroma"
        }
      },
      {
        "type": "node",
        "id": 7236205647,
        "lat": 12.9893831,
        "lon": 77.5561236,
        "tags": {
          "amenity": "fast_food",
          "cuisine": "juice",
          "name": "Lassi Corner"
        }
      },
      {
        "type": "node",
        "id": 7236205648,
        "lat": 12.9900398,
        "lon": 77.5557384,
        "tags": {
          "amenity": "pharmacy",
          "name": "Stay Happi Pharmacy"
        }
      },
      {
        "type": "node",
        "id": 7236205657,
        "lat": 12.9850504,
        "lon": 77.5532533,
        "tags": {
          "amenity": "pharmacy",
          "brand": "Apollo Pharmacy",
          "brand:wikidata": "Q62562612",
          "healthcare": "pharmacy",
          "name": "Apollo Pharmacy",
          "name:kn": "\u0c85\u0caa\u0cca\u0cb2\u0ccb \u0cab\u0cbe\u0cb0\u0ccd\u0cae\u0cb8\u0cbf"
        }
      },
      {
        "type": "node",
        "id": 7236205658,
        "lat": 12.9857287,
        "lon": 77.5524808,
        "tags": {
          "amenity": "bank",
          "atm": "yes",
          "brand": "HDFC Bank",
          "brand:wikidata": "Q631047",
          "name": "HDFC Bank",
          "operator": "HDFC Bank",
          "short_name": "HDFC"
        }
      },
      {
        "type": "node",
        "id": 7236205659,
        "lat": 12.9858058,
        "lon": 77.5513798,
        "tags": {
          "amenity": "bank",
          "atm": "yes",
          "brand": "Karur Vysya Bank",
          "brand:wikidata": "Q6373724",
          "name": "Karur Vysya Bank",
          "name:kn": "\u0c95\u0cb0\u0cc2\u0cb0\u0cc1 \u0cb5\u0cc8\u0cb6\u0ccd\u0caf \u0cac\u0ccd\u0caf\u0cbe\u0c82\u0c95\u0ccd",
          "operator": "Karur Vysya Bank"
        }
      },
      {
        "type": "node",
        "id": 7236205660,
        "lat": 12.9862606,
        "lon": 77.5508527,
        "tags": {
          "name": "Ashirwad Market",
          "shop": "supermarket"
        }
      },
      {
        "type": "node",
        "id": 7236205661,
        "lat": 12.9863873,
        "lon": 77.5508474,
        "tags": {
          "amenity": "bank",
          "atm": "yes",
          "brand": "Bank of Maharashtra",
          "brand:wikidata": "Q2004304",
          "name": "Bank of Maharashtra",
          "operator": "Bank of Maharashtra"
        }
      },
      {
        "type": "node",
        "id": 7292235595,
        "lat": 12.9840076,
        "lon": 77.5581591,
        "tags": {
          "amenity": "fast_food",
          "name": "Gobi Corner"
        }
      },
      {
        "type": "node",
        "id": 7572526752,
        "lat": 12.9802303,
        "lon": 77.5548818,
        "tags": {
          "addr:district": "Bengaluru Urban",
          "addr:full": "Rajajinagar, Bengaluru",
          "addr:postcode": "560010",
          "addr:state": "Karnataka",
          "amenity": "hospital",
          "name": "G.R. Hospital",
          "source": "Local Knowledge"
        }
      },
      {
        "type": "node",
        "id": 7572526755,
        "lat": 12.9801974,
        "lon": 77.5546401,
        "tags": {
          "addr:district": "Bengaluru Urban",
          "addr:full": "Rajaji Nagar, Bengaluru",
          "addr:postcode": "560010",
          "addr:state": "Karnataka",
          "amenity": "clinic",
          "name": "Sri Krishna Clinic",
          "source": "Local Knowledge"
        }
      },
      {
        "type": "node",
        "id": 8187929955,
        "lat": 12.990191,
        "lon": 77.560667,
        "tags": {
          "addr:full": "2, Prakash Nagar, Rajajinagar, Bengaluru, Karnataka",
          "addr:state": "Karnataka",
          "amenity": "atm",
          "brand": "Axis Bank",
          "brand:wikidata": "Q2003549",
          "name": "Axis Bank",
          "name:kn": "\u0c86\u0c95\u0ccd\u0cb8\u0cbf\u0cb8\u0ccd \u0cac\u0ccd\u0caf\u0cbe\u0c82\u0c95\u0ccd \u0c8e\u0c9f\u0cbf\u0c8e\u0c82",
          "operator": "Axis Bank",
          "operator:wikidata": "Q2003549"
        }
      },
      {
        "type": "node",
        "id": 8187930005,
        "lat": 12.975994,
        "lon": 77.558578,
        "tags": {
          "addr:full": "Near, 4, Magadi Main Rd, Bhuvaneshwari Nagar, Lakshminarayanapuram, Binnipete, Bengaluru, Karnataka",
          "addr:state": "Karnataka",
          "amenity": "atm",
          "brand": "Axis Bank",
          "brand:wikidata": "Q2003549",
          "name": "Axis Bank",
          "name:kn": "\u0c86\u0c95\u0ccd\u0cb8\u0cbf\u0cb8\u0ccd \u0cac\u0ccd\u0caf\u0cbe\u0c82\u0c95\u0ccd \u0c8e\u0c9f\u0cbf\u0c8e\u0c82",
          "operator": "Axis Bank",
          "operator:wikidata": "Q2003549"
        }
      },
      {
        "type": "node",
        "id": 8187959329,
        "lat": 12.9900506,
        "lon": 77.5561739,
        "tags": {
          "addr:full": "Shop No.53, 41st Cross, Near Old Police Station, 2nd Block, 4th Block, Rajajinagar, Bengaluru, Karnataka",
          "addr:state": "Karnataka",
          "amenity": "bank",
          "brand": "Vijaya Bank",
          "brand:wikidata": "Q2003171",
          "brand:wikipedia": "en:Vijaya Bank",
          "name": "Vijaya Bank",
          "name:kn": "\u0cb5\u0cbf\u0c9c\u0caf \u0cac\u0ccd\u0caf\u0cbe\u0c82\u0c95\u0ccd"
        }
      },
      {
        "type": "node",
        "id": 8187962500,
        "lat": 12.9910228,
        "lon": 77.5576941,
        "tags": {
          "addr:full": "588, Dr Rajkumar Rd, 2nd Block, Rajajinagar, Bengaluru, Karnataka",
          "addr:state": "Karnataka",
          "amenity": "bank",
          "brand": "Andhra Bank",
          "brand:wikidata": "Q2003476",
          "brand:wikipedia": "en:Andhra Bank",
          "name": "Andhra Bank",
          "name:kn": "\u0c86\u0c82\u0ca7\u0ccd\u0cb0 \u0cac\u0ccd\u0caf\u0cbe\u0c82\u0c95\u0ccd"
        }
      },
      {
        "type": "node",
        "id": 8187962507,
        "lat": 12.9905494,
        "lon": 77.5578922,
        "tags": {
          "addr:full": "Dr Rajkumar Rd, 4th Block, RajajiNagar, 4th Block, Rajajinagar, Bengaluru, Karnataka",
          "addr:state": "Karnataka",
          "amenity": "bank",
          "brand": "Bank of Baroda",
          "brand:wikidata": "Q2003797",
          "brand:wikipedia": "en:Bank of Baroda",
          "name": "Bank of Baroda",
          "name:kn": "\u0cac\u0ccd\u0caf\u0cbe\u0c82\u0c95\u0ccd \u0c86\u0cab\u0ccd \u0cac\u0cb0\u0ccb\u0ca1"
        }
      },
      {
        "type": "node",
        "id": 8187963420,
        "lat": 12.9807621,
        "lon": 77.5585094,
        "tags": {
          "addr:full": "Near-Variar Bakery, 1050 A, SSI Area, 4th M Block, Dr Rajkumar Rd, Rajaji Nagar, 6th Block, Rajajinagar, Bengaluru, Karnataka",
          "addr:state": "Karnataka",
          "amenity": "bank",
          "brand": "Andhra Bank",
          "brand:wikidata": "Q2003476",
          "name": "Andhra Bank",
          "name:kn": "\u0c86\u0c82\u0ca7\u0ccd\u0cb0 \u0cac\u0ccd\u0caf\u0cbe\u0c82\u0c95\u0ccd"
        }
      },
      {
        "type": "node",
        "id": 8188038742,
        "lat": 12.9905045,
        "lon": 77.5566355,
        "tags": {
          "addr:full": "172/A, 8th Main Rd, 2nd Block, Rajajinagar, Bengaluru, Karnataka",
          "addr:state": "Karnataka",
          "amenity": "hospital",
          "healthcare": "hospital",
          "name": "Government Hospital",
          "name:kn": "\u0cb8\u0cb0\u0ccd\u0c95\u0cbe\u0cb0\u0cbf \u0c86\u0cb8\u0ccd\u0caa\u0ca4\u0ccd\u0cb0\u0cc6"
        }
      },
      {
        "type": "node",
        "id": 8188038786,
        "lat": 12.9844963,
        "lon": 77.5551801,
        "tags": {
          "addr:full": "20th Main Rd, 5 Block, 3rd Block, Rajajinagar, Bengaluru, Karnataka",
          "addr:state": "Karnataka",
          "amenity": "hospital",
          "name": "Government Hospital",
          "name:kn": "\u0cb8\u0cb0\u0ccd\u0c95\u0cbe\u0cb0\u0cbf \u0c86\u0cb8\u0ccd\u0caa\u0ca4\u0ccd\u0cb0\u0cc6"
        }
      },
      {
        "type": "node",
        "id": 8188058456,
        "lat": 12.974256,
        "lon": 77.5598391,
        "tags": {
          "addr:full": "50, Magadi Road, Mariyappanapalya, Binnipete, Mariyappanapalya, Binnipete, Bengaluru, Karnataka",
          "addr:state": "Karnataka",
          "amenity": "restaurant",
          "name": "Atithi Family Restaurant"
        }
      },
      {
        "type": "node",
        "id": 8989622941,
        "lat": 12.9883109,
        "lon": 77.556248,
        "tags": {
          "amenity": "fast_food",
          "cuisine": "regional",
          "name": "Prakriti Deluxe"
        }
      },
      {
        "type": "node",
        "id": 9687256219,
        "lat": 12.9844193,
        "lon": 77.5580075,
        "tags": {
          "amenity": "fast_food",
          "name": "HOPCOMS"
        }
      },
      {
        "type": "node",
        "id": 9687256224,
        "lat": 12.9850753,
        "lon": 77.5567442,
        "tags": {
          "amenity": "fast_food",
          "brand": "Domino's",
          "brand:wikidata": "Q839466",
          "cuisine": "pizza",
          "delivery": "yes",
          "name": "Domino's",
          "operator": "Domino's",
          "outdoor_seating": "no",
          "takeaway": "yes"
        }
      },
      {
        "type": "node",
        "id": 9872645098,
        "lat": 12.9852752,
        "lon": 77.5564539,
        "tags": {
          "amenity": "atm",
          "brand": "State Bank of India",
          "brand:wikidata": "Q1340361",
          "name": "State Bank of India",
          "name:kn": "\u0c8e\u0cb8\u0ccd \u0cac\u0cbf \u0c90",
          "operator": "State Bank of India",
          "operator:wikidata": "Q1340361",
          "short_name": "SBI"
        }
      },
      {
        "type": "node",
        "id": 9872645103,
        "lat": 12.9895171,
        "lon": 77.5561675,
        "tags": {
          "amenity": "cafe",
          "name": "Tandoor Chai Point"
        }
      },
      {
        "type": "node",
        "id": 9909999116,
        "lat": 12.9893616,
        "lon": 77.5561199,
        "tags": {
          "amenity": "fast_food",
          "cuisine": "regional",
          "name": "Malnad Cafe"
        }
      },
      {
        "type": "node",
        "id": 10285926888,
        "lat": 12.9894334,
        "lon": 77.5540446,
        "tags": {
          "amenity": "restaurant",
          "cuisine": "regional",
          "name": "Swagat"
        }
      },
      {
        "type": "node",
        "id": 10286250881,
        "lat": 12.9813757,
        "lon": 77.5632861,
        "tags": {
          "amenity": "restaurant",
          "name": "Barbeque Nation",
          "name:kn": "\u0cac\u0cb0\u0ccd\u0cac\u0c95\u0ccd\u0caf\u0cc1 \u0ca8\u0cc7\u0cb6\u0ca8\u0ccd"
        }
      },
      {
        "type": "node",
        "id": 10286250883,
        "lat": 12.981177,
        "lon": 77.563085,
        "tags": {
          "amenity": "cafe",
          "brand": "Starbucks",
          "brand:wikidata": "Q37158",
          "cuisine": "coffee_shop",
          "name": "Starbucks",
          "official_name": "Starbucks Coffee",
          "operator": "Starbucks",
          "takeaway": "yes"
        }
      },
      {
        "type": "node",
        "id": 10875208176,
        "lat": 12.9812257,
        "lon": 77.5633806,
        "tags": {
          "brand": "Lulu Hypermarket",
          "brand:wikidata": "Q6702930",
          "changing_table": "no",
          "check_date": "2023-10-23",
          "name": "Lulu Hypermarket",
          "name:kn": "\u0cb2\u0cc1\u0cb2\u0cc1 \u0cb9\u0cc8\u0caa\u0cb0\u0ccd\u0cae\u0cbe\u0cb0\u0ccd\u0c95\u0cc6\u0c9f\u0ccd",
          "name:ml": "\u0d32\u0d41\u0d32\u0d41 \u0d39\u0d48\u0d2a\u0d4d\u0d2a\u0d7c\u0d2e\u0d3e\u0d7c\u0d15\u0d4d\u0d15\u0d31\u0d4d\u0d31\u0d4d",
          "opening_hours": "Mo-Su 10:00-23:00",
          "payment:cash": "yes",
          "payment:credit_cards": "yes",
          "shop": "supermarket",
          "toilets": "yes",
          "toilets:wheelchair": "limited",
          "wheelchair": "limited"
        }
      },
      {
        "type": "node",
        "id": 11061437782,
        "lat": 12.9817102,
        "lon": 77.5636162,
        "tags": {
          "amenity": "restaurant",
          "brand": "Chili's",
          "brand:wikidata": "Q1072948",
          "cuisine": "tex-mex",
          "diet:vegan": "yes",
          "diet:vegetarian": "yes",
          "indoor_seating": "yes",
          "name": "Chili's",
          "official_name": "Chili's Grill & Bar",
          "outdoor_seating": "no"
        }
      },
      {
        "type": "node",
        "id": 11102274266,
        "lat": 12.9847002,
        "lon": 77.5536101,
        "tags": {
          "amenity": "restaurant",
          "name": "Kim Lee Restaurant"
        }
      },
      {
        "type": "node",
        "id": 11102274267,
        "lat": 12.9857652,
        "lon": 77.55176,
        "tags": {
          "amenity": "restaurant",
          "name": "Sicilia Point"
        }
      },
      {
        "type": "node",
        "id": 11285259372,
        "lat": 12.9806797,
        "lon": 77.5635843,
        "tags": {
          "air_conditioning": "yes",
          "amenity": "cafe",
          "brand": "Costa",
          "brand:wikidata": "Q608845",
          "check_date": "2023-10-23",
          "cuisine": "coffee_shop",
          "diet:vegan": "yes",
          "diet:vegetarian": "yes",
          "indoor_seating": "yes",
          "name": "Costa",
          "outdoor_seating": "no",
          "smoking": "no",
          "takeaway": "yes",
          "wheelchair": "limited"
        }
      },
      {
        "type": "node",
        "id": 11285259381,
        "lat": 12.9812823,
        "lon": 77.5637362,
        "tags": {
          "air_conditioning": "yes",
          "amenity": "cafe",
          "brand": "Chai Point",
          "brand:wikidata": "Q28173415",
          "check_date": "2023-10-23",
          "cuisine": "coffee_shop",
          "diet:vegan": "yes",
          "diet:vegetarian": "yes",
          "indoor_seating": "yes",
          "name": "Chai Point",
          "outdoor_seating": "no",
          "smoking": "no",
          "takeaway": "yes",
          "wheelchair": "limited"
        }
      },
      {
        "type": "node",
        "id": 11285259384,
        "lat": 12.9818723,
        "lon": 77.5637939,
        "tags": {
          "amenity": "cafe",
          "check_date": "2023-10-23",
          "name": "Qmin"
        }
      },
      {
        "type": "node",
        "id": 11293554462,
        "lat": 12.9811091,
        "lon": 77.563085,
        "tags": {
          "amenity": "fast_food",
          "brand": "Subway",
          "brand:wikidata": "Q244457",
          "cuisine": "sandwich",
          "level": "3",
          "name": "Subway",
          "takeaway": "yes"
        }
      },
      {
        "type": "node",
        "id": 11293554463,
        "lat": 12.9810019,
        "lon": 77.5630863,
        "tags": {
          "amenity": "restaurant",
          "brand": "Pizza Hut",
          "brand:wikidata": "Q191615",
          "cuisine": "pizza",
          "level": "3",
          "name": "Pizza Hut"
        }
      },
      {
        "type": "node",
        "id": 11293554464,
        "lat": 12.9808974,
        "lon": 77.5630943,
        "tags": {
          "amenity": "fast_food",
          "level": "3",
          "name": "Naga's"
        }
      },
      {
        "type": "node",
        "id": 11293554465,
        "lat": 12.9807915,
        "lon": 77.5631037,
        "tags": {
          "amenity": "fast_food",
          "brand": "McDonald's",
          "brand:wikidata": "Q38076",
          "cuisine": "burger",
          "level": "3",
          "name": "McDonald's",
          "takeaway": "yes"
        }
      },
      {
        "type": "node",
        "id": 11293554466,
        "lat": 12.980683,
        "lon": 77.5631681,
        "tags": {
          "alt_name": "Kentucky Fried Chicken",
          "alt_name:en": "Kentucky Fried Chicken",
          "alt_name:hi": "\u0915\u0947\u0902\u091f\u0941\u0915\u0940 \u092b\u094d\u0930\u093e\u0907\u0921 \u091a\u093f\u0915\u0928",
          "alt_name:pa": "\u0a15\u0a48\u0a02\u0a1f\u0a41\u0a15\u0a40 \u0a2b\u0a4d\u0a30\u0a3e\u0a08\u0a21 \u0a1a\u0a3f\u0a15\u0a28",
          "alt_name:pnb": "\u06a9\u06cc\u0646\u0679\u06a9\u06cc \u0641\u0631\u0627\u0626\u06cc\u0688 \u0686\u06a9\u0646",
          "alt_name:ur": "\u06a9\u06cc\u0646\u0679\u06a9\u06cc \u0641\u0631\u0627\u0626\u06cc\u0688 \u0686\u06a9\u0646",
          "amenity": "fast_food",
          "brand": "KFC",
          "brand:en": "KFC",
          "brand:hi": "\u0915\u0947\u090f\u092b\u0938\u0940",
          "brand:pa": "\u0a15\u0a47\u0a10\u0a2b\u0a38\u0a40",
          "brand:pnb": "\u06a9\u06d2 \u0627\u06cc\u0641 \u0633\u06cc",
          "brand:ur": "\u06a9\u06d2 \u0627\u06cc\u0641 \u0633\u06cc",
          "brand:wikidata": "Q524757",
          "cuisine": "chicken",
          "level": "3",
          "name": "KFC",
          "name:en": "KFC",
          "name:hi": "\u0915\u0947\u090f\u092b\u0938\u0940",
          "name:pa": "\u0a15\u0a47\u0a10\u0a2b\u0a38\u0a40",
          "name:pnb": "\u06a9\u06d2 \u0627\u06cc\u0641 \u0633\u06cc",
          "name:ur": "\u06a9\u06d2 \u0627\u06cc\u0641 \u0633\u06cc",
          "takeaway": "yes"
        }
      },
      {
        "type": "node",
        "id": 11293554467,
        "lat": 12.9806791,
        "lon": 77.5632673,
        "tags": {
          "amenity": "fast_food",
          "brand": "Domino's",
          "brand:wikidata": "Q839466",
          "cuisine": "pizza",
          "level": "3",
          "name": "Domino's",
          "takeaway": "yes"
        }
      },
      {
        "type": "node",
        "id": 11293554468,
        "lat": 12.9806804,
        "lon": 77.5633706,
        "tags": {
          "amenity": "fast_food",
          "brand": "Taco Bell",
          "brand:wikidata": "Q752941",
          "cuisine": "tex-mex",
          "level": "3",
          "name": "Taco Bell",
          "name:kn": "\u0c9f\u0cbe\u0c95\u0cca \u0cac\u0cc6\u0cb2\u0ccd",
          "takeaway": "yes"
        }
      },
      {
        "type": "node",
        "id": 11293599069,
        "lat": 12.9817167,
        "lon": 77.5637005,
        "tags": {
          "air_conditioning": "no",
          "amenity": "restaurant",
          "brand": "Punjab Grill",
          "brand:wikidata": "Q124374761",
          "cuisine": "north_indian",
          "delivery": "yes",
          "diet:vegan": "yes",
          "diet:vegetarian": "yes",
          "indoor_seating": "yes",
          "level": "3",
          "name": "Punjab Grill",
          "outdoor_seating": "no",
          "takeaway": "yes"
        }
      },
      {
        "type": "node",
        "id": 11293599070,
        "lat": 12.9811313,
        "lon": 77.5637347,
        "tags": {
          "air_conditioning": "yes",
          "amenity": "fast_food",
          "brand": "Popeyes",
          "brand:wikidata": "Q1330910",
          "brand:wikipedia": "en:Popeyes",
          "cuisine": "chicken",
          "delivery": "yes",
          "diet:vegan": "yes",
          "diet:vegetarian": "yes",
          "indoor_seating": "yes",
          "level": "3",
          "name": "Popeyes",
          "official_name": "Popeyes Louisiana Kitchen",
          "outdoor_seating": "no",
          "smoking": "no",
          "takeaway": "yes",
          "website": "https://www.popeyes.in/",
          "wikipedia": "en:Popeyes Louisiana Kitchen"
        }
      },
      {
        "type": "node",
        "id": 12082134093,
        "lat": 12.9809025,
        "lon": 77.5634072,
        "tags": {
          "amenity": "fast_food",
          "level": "3",
          "name": "Samosa Singh"
        }
      },
      {
        "type": "node",
        "id": 12082134094,
        "lat": 12.9807947,
        "lon": 77.5634108,
        "tags": {
          "amenity": "fast_food",
          "cuisine": "pizza",
          "level": "3",
          "name": "Gopizza"
        }
      },
      {
        "type": "node",
        "id": 12118816469,
        "lat": 12.990542,
        "lon": 77.5580302,
        "tags": {
          "addr:street": "Dr. Rajkumar Road",
          "amenity": "bank",
          "atm": "yes",
          "brand": "City Union Bank",
          "brand:en": "City Union Bank",
          "brand:hi": "\u0938\u093f\u091f\u0940 \u092f\u0942\u0928\u093f\u092f\u0928 \u092c\u0948\u0902\u0915",
          "brand:ta": "\u0b9a\u0bbf\u0b9f\u0bcd\u0b9f\u0bbf \u0baf\u0bc2\u0ba9\u0bbf\u0baf\u0ba9\u0bcd \u0bb5\u0b99\u0bcd\u0b95\u0bbf",
          "brand:wikidata": "Q2040264",
          "name": "City Union Bank",
          "name:en": "City Union Bank",
          "name:hi": "\u0938\u093f\u091f\u0940 \u092f\u0942\u0928\u093f\u092f\u0928 \u092c\u0948\u0902\u0915",
          "name:ta": "\u0b9a\u0bbf\u0b9f\u0bcd\u0b9f\u0bbf \u0baf\u0bc2\u0ba9\u0bbf\u0baf\u0ba9\u0bcd \u0bb5\u0b99\u0bcd\u0b95\u0bbf",
          "short_name": "CUB"
        }
      },
      {
        "type": "node",
        "id": 12901334775,
        "lat": 12.9859554,
        "lon": 77.5509443,
        "tags": {
          "amenity": "cafe",
          "brand": "Third Wave Coffee Roasters",
          "brand:wikidata": "Q7785004",
          "cuisine": "coffee_shop",
          "delivery": "yes",
          "name": "Third Wave Coffee Roasters",
          "takeaway": "yes"
        }
      }
    ]
  },
  "pois_2_5km": {
    "version": 0.6,
    "generator": "Overpass API 0.7.62.8 e802775f",
    "osm3s": {
      "timestamp_osm_base": "2025-09-06T08:14:30Z",
      "copyright": "The data included in this document is from www.openstreetmap.org. The data is made available under ODbL."
    },
    "elements": [
      {
        "type": "node",
        "id": 246396993,
        "lat": 12.9783064,
        "lon": 77.5692678,
        "tags": {
          "name": "Bangalore City Junction",
          "public_transport": "stop_position",
          "railway": "stop",
          "ref": "SBC:1",
          "train": "yes"
        }
      },
      {
        "type": "node",
        "id": 347295628,
        "lat": 12.9781831,
        "lon": 77.5717624,
        "tags": {
          "bus": "yes",
          "name": "Platform 28A",
          "operator": "BMTC",
          "public_transport": "stop_position"
        }
      },
      {
        "type": "node",
        "id": 347295648,
        "lat": 12.9783665,
        "lon": 77.5730556,
        "tags": {
          "bus": "yes",
          "name": "Platform 23",
          "operator": "BMTC",
          "public_transport": "stop_position"
        }
      },
      {
        "type": "node",
        "id": 428317346,
        "lat": 13.0004488,
        "lon": 77.5637054,
        "tags": {
          "public_transport": "stop_position",
          "railway": "stop",
          "ref": "MWM:1"
        }
      },
      {
        "type": "node",
        "id": 429698093,
        "lat": 12.9766767,
        "lon": 77.5766838,
        "tags": {
          "amenity": "theatre",
          "name": "Gubbi Veerana Nataka",
          "name:kn": "\u0c97\u0cc1\u0cac\u0ccd\u0cac\u0cbf \u0cb5\u0cc0\u0cb0\u0ca3\u0ccd\u0ca3 \u0ca8\u0cbe\u0c9f\u0c95"
        }
      },
      {
        "type": "node",
        "id": 446791195,
        "lat": 12.9974325,
        "lon": 77.5459103,
        "tags": {
          "bus": "yes",
          "name": "Modi Hospital",
          "name:kn": "\u0cae\u0ccb\u0ca6\u0cbf \u0c86\u0cb8\u0ccd\u0caa\u0ca4\u0ccd\u0cb0\u0cc6",
          "network": "BMTC",
          "operator": "BMTC",
          "public_transport": "stop_position"
        }
      },
      {
        "type": "node",
        "id": 446995802,
        "lat": 12.9964968,
        "lon": 77.5630859,
        "tags": {
          "bus": "yes",
          "highway": "bus_stop",
          "name": "Devaiah Park",
          "name:kn": "\u0ca6\u0cc7\u0cb5\u0caf\u0ccd\u0caf \u0c89\u0ca6\u0ccd\u0caf\u0cbe\u0ca8\u0cb5\u0ca8",
          "public_transport": "stop_position"
        }
      },
      {
        "type": "node",
        "id": 456039716,
        "lat": 12.9931208,
        "lon": 77.5710734,
        "tags": {
          "addr:street": "Sampige Road",
          "amenity": "cinema",
          "name": "Sampige Theatre",
          "name:kn": "\u0cb8\u0c82\u0caa\u0cbf\u0c97\u0cc6"
        }
      },
      {
        "type": "node",
        "id": 577030466,
        "lat": 12.9867764,
        "lon": 77.5671966,
        "tags": {
          "amenity": "theatre",
          "name": "Aruna Theatre",
          "wheelchair": "no"
        }
      },
      {
        "type": "node",
        "id": 693296243,
        "lat": 13.0004202,
        "lon": 77.5636645,
        "tags": {
          "public_transport": "stop_position",
          "railway": "stop",
          "ref": "MWM:2"
        }
      },
      {
        "type": "node",
        "id": 806588782,
        "lat": 12.9783651,
        "lon": 77.5681771,
        "tags": {
          "name": "Bangalore City Junction",
          "name:kn": "\u0cac\u0cc6\u0c82\u0c97\u0cb3\u0cc2\u0cb0\u0cc1 \u0ca8\u0c97\u0cb0",
          "public_transport": "stop_position",
          "railway": "stop",
          "ref": "SBC:7",
          "train": "yes"
        }
      },
      {
        "type": "node",
        "id": 806588784,
        "lat": 12.9782669,
        "lon": 77.5689394,
        "tags": {
          "name": "Bangalore City Junction",
          "name:kn": "\u0cac\u0cc6\u0c82\u0c97\u0cb3\u0cc2\u0cb0\u0cc1 \u0ca8\u0c97\u0cb0",
          "public_transport": "stop_position",
          "railway": "stop",
          "ref": "SBC:4",
          "train": "yes"
        }
      },
      {
        "type": "node",
        "id": 806588786,
        "lat": 12.9783166,
        "lon": 77.5692242,
        "tags": {
          "name": "Bangalore City Junction",
          "name:kn": "\u0cac\u0cc6\u0c82\u0c97\u0cb3\u0cc2\u0cb0\u0cc1 \u0ca8\u0c97\u0cb0",
          "public_transport": "stop_position",
          "railway": "stop",
          "ref": "SBC:2",
          "train": "yes"
        }
      },
      {
        "type": "node",
        "id": 806588787,
        "lat": 12.9783553,
        "lon": 77.5682244,
        "tags": {
          "name": "Bangalore City Junction",
          "public_transport": "stop_position",
          "railway": "stop",
          "ref": "SBC:6",
          "train": "yes"
        }
      },
      {
        "type": "node",
        "id": 806588788,
        "lat": 12.9784008,
        "lon": 77.5678774,
        "tags": {
          "name": "Bangalore City Junction",
          "name:kn": "\u0cac\u0cc6\u0c82\u0c97\u0cb3\u0cc2\u0cb0\u0cc1 \u0ca8\u0c97\u0cb0",
          "public_transport": "stop_position",
          "railway": "stop",
          "ref": "SBC:10",
          "train": "yes"
        }
      },
      {
        "type": "node",
        "id": 806588789,
        "lat": 12.9784045,
        "lon": 77.568007,
        "tags": {
          "name": "Bangalore City Junction",
          "name:kn": "\u0cac\u0cc6\u0c82\u0c97\u0cb3\u0cc2\u0cb0\u0cc1 \u0ca8\u0c97\u0cb0",
          "public_transport": "stop_position",
          "railway": "stop",
          "ref": "SBC:9",
          "train": "yes"
        }
      },
      {
        "type": "node",
        "id": 806588796,
        "lat": 12.9783992,
        "lon": 77.568046,
        "tags": {
          "name": "Bangalore City Junction",
          "name:kn": "\u0cac\u0cc6\u0c82\u0c97\u0cb3\u0cc2\u0cb0\u0cc1 \u0ca8\u0c97\u0cb0 \u0cb0\u0cc8\u0cb2\u0cc1 \u0ca8\u0cbf\u0cb2\u0ccd\u0ca6\u0cbe\u0ca3",
          "public_transport": "stop_position",
          "railway": "stop",
          "ref": "SBC:8",
          "train": "yes"
        }
      },
      {
        "type": "node",
        "id": 806588798,
        "lat": 12.9782835,
        "lon": 77.5685839,
        "tags": {
          "name": "Bangalore City Junction",
          "name:kn": "\u0cac\u0cc6\u0c82\u0c97\u0cb3\u0cc2\u0cb0\u0cc1 \u0ca8\u0c97\u0cb0",
          "public_transport": "stop_position",
          "railway": "stop",
          "ref": "SBC:5",
          "train": "yes"
        }
      },
      {
        "type": "node",
        "id": 1060580206,
        "lat": 12.9677686,
        "lon": 77.569887,
        "tags": {
          "amenity": "cinema",
          "name": "Super talkies"
        }
      },
      {
        "type": "node",
        "id": 1116412178,
        "lat": 12.9916942,
        "lon": 77.5457901,
        "tags": {
          "amenity": "fuel",
          "brand": "Indian Oil",
          "brand:wikidata": "Q1289348",
          "brand:wikipedia": "en:Indian Oil Corporation",
          "name": "Indian Oil",
          "name:kn": "\u0c87\u0c82\u0ca1\u0cbf\u0caf\u0ca8\u0ccd \u0c86\u0caf\u0cbf\u0cb2\u0ccd"
        }
      },
      {
        "type": "node",
        "id": 1440193832,
        "lat": 12.9865791,
        "lon": 77.5403594,
        "tags": {
          "amenity": "fuel",
          "brand": "Total",
          "brand:wikidata": "Q154037",
          "fuel:lpg": "yes",
          "name": "Total gas",
          "operator": "Total"
        }
      },
      {
        "type": "node",
        "id": 1470547294,
        "lat": 12.9973631,
        "lon": 77.5601119,
        "tags": {
          "bus": "yes",
          "highway": "bus_stop",
          "name": "Harishchandra Ghat Bus Stop",
          "name:kn": "\u0cb9\u0cb0\u0cbf\u0cb6\u0ccd\u0c9a\u0c82\u0ca6\u0ccd\u0cb0 \u0c98\u0c9f\u0ccd",
          "public_transport": "stop_position",
          "wheelchair": "limited"
        }
      },
      {
        "type": "node",
        "id": 1548300484,
        "lat": 12.966924,
        "lon": 77.5745737,
        "tags": {
          "code": "CKPE",
          "name": "Chickpete",
          "name:hi": "\u091a\u093f\u0915\u092a\u0947\u091f\u0947",
          "name:kn": "\u0c9a\u0cbf\u0c95\u0ccd\u0c95\u0caa\u0cc7\u0c9f\u0cc6",
          "network": "Namma Metro",
          "note": "Contributors are requested to not edit the \"network\" and the \"operator\" tags. (2023/11/08)",
          "operator": "Bangalore Metro Rail Corporation Limited",
          "public_transport": "stop_position",
          "public_transport:version": "2",
          "railway": "stop",
          "source": "http://www.bmrc.co.in/English/Network.htm",
          "subway": "yes",
          "wheelchair": "yes"
        }
      },
      {
        "type": "node",
        "id": 1548828179,
        "lat": 12.9904754,
        "lon": 77.5707615,
        "tags": {
          "alt_name": "Swastik",
          "code": "SPGD",
          "name": "Mantri Square Sampige Road",
          "name:kn": "\u0cae\u0c82\u0ca4\u0ccd\u0cb0\u0cbf \u0cb8\u0ccd\u0c95\u0ccd\u0cb5\u0cc7\u0cb0\u0ccd \u0cb8\u0c82\u0caa\u0cbf\u0c97\u0cc6 \u0cb0\u0cb8\u0ccd\u0ca4\u0cc6",
          "network": "Namma Metro",
          "note": "Contributors are requested to not edit the \"network\" and the \"operator\" tags. (2023/11/08)",
          "operator": "Bangalore Metro Rail Corporation Limited",
          "public_transport": "stop_position",
          "public_transport:version": "2",
          "railway": "stop",
          "source": "http://www.bmrc.co.in/English/Network.htm",
          "subway": "yes",
          "wheelchair": "yes",
          "wikidata": "Q17088462",
          "wikipedia": "en:Sampige Road metro station"
        }
      },
      {
        "type": "node",
        "id": 1560067666,
        "lat": 12.9758581,
        "lon": 77.5653792,
        "tags": {
          "code": "BRCS",
          "name": "Krantivira Sangolli Rayanna Railway Station",
          "name:kn": "\u0ca8\u0c97\u0cb0 \u0cb0\u0cc8\u0cb2\u0cc1 \u0ca8\u0cbf\u0cb2\u0ccd\u0ca6\u0cbe\u0ca3",
          "network": "Namma Metro",
          "note": "Contributors are requested to not edit the \"network\" and the \"operator\" tags. (2023/11/08)",
          "operator": "Bangalore Metro Rail Corporation Limited",
          "platforms": "2",
          "public_transport": "stop_position",
          "public_transport:version": "2",
          "railway": "stop",
          "source": "http://www.bmrc.co.in/English/Network.htm",
          "subway": "yes",
          "wheelchair": "yes",
          "wikidata": "Q39070950",
          "wikipedia": "en:City Railway Station metro station (Bangalore)"
        }
      },
      {
        "type": "node",
        "id": 1565099078,
        "lat": 12.9964948,
        "lon": 77.5632993,
        "tags": {
          "code": "SPRU",
          "name": "Srirampura",
          "name:hi": "\u0936\u094d\u0930\u0940\u0930\u093e\u092e\u092a\u0941\u0930\u093e",
          "name:kn": "\u0cb6\u0ccd\u0cb0\u0cc0\u0cb0\u0cbe\u0cae\u0caa\u0cc1\u0cb0",
          "network": "Namma Metro",
          "note": "Contributors are requested to not edit the \"network\" and the \"operator\" tags. (2023/11/08)",
          "operator": "Bangalore Metro Rail Corporation Limited",
          "public_transport": "stop_position",
          "public_transport:version": "2",
          "railway": "stop",
          "source": "http://www.bmrc.co.in/English/Network.htm",
          "subway": "yes",
          "wheelchair": "yes",
          "wikidata": "Q17100145",
          "wikipedia": "en:Srirampura metro station"
        }
      },
      {
        "type": "node",
        "id": 1565099120,
        "lat": 13.0005359,
        "lon": 77.5496996,
        "tags": {
          "code": "RJNR",
          "layer": "2",
          "level": "2",
          "name": "Rajajinagar",
          "name:hi": "\u0930\u093e\u091c\u093e\u091c\u0940\u0928\u0917\u0930",
          "name:kn": "\u0cb0\u0cbe\u0c9c\u0cbe\u0c9c\u0cbf\u0ca8\u0c97\u0cb0",
          "network": "Namma Metro",
          "note": "Contributors are requested to not edit the \"network\" and the \"operator\" tags. (2023/11/08)",
          "operator": "Bangalore Metro Rail Corporation Limited",
          "public_transport": "stop_position",
          "public_transport:version": "2",
          "railway": "stop",
          "source": "http://www.bmrc.co.in/English/Network.htm",
          "subway": "yes",
          "wheelchair": "yes",
          "wikidata": "Q17085511",
          "wikipedia": "en:Rajajinagar metro station"
        }
      },
      {
        "type": "node",
        "id": 1565099143,
        "lat": 12.974267,
        "lon": 77.5456204,
        "tags": {
          "code": "HSLI",
          "name": "Sri Balagangadharanatha Swamiji Stn., Hosahalli",
          "name:kn": "\u0cb6\u0ccd\u0cb0\u0cc0 \u0cac\u0cbe\u0cb2\u0c97\u0c82\u0c97\u0cbe\u0ca7\u0cb0\u0ca8\u0cbe\u0ca5 \u0cae\u0cc6\u0c9f\u0ccd\u0cb0\u0ccb",
          "network": "Namma Metro",
          "note": "Contributors are requested to not edit the \"network\" and the \"operator\" tags. (2023/11/08)",
          "operator": "Bangalore Metro Rail Corporation Limited",
          "platforms": "2",
          "public_transport": "stop_position",
          "public_transport:version": "2",
          "railway": "stop",
          "source": "http://www.bmrc.co.in/English/Network.htm",
          "subway": "yes",
          "wheelchair": "yes",
          "wikidata": "Q23838583",
          "wikipedia": "en:Hosahalli metro station"
        }
      },
      {
        "type": "node",
        "id": 1565099154,
        "lat": 12.9985238,
        "lon": 77.5568794,
        "tags": {
          "code": "KVPR",
          "name": "Mahakavi Kuvempu Road",
          "name:etymology:wikidata": "Q3351108",
          "name:kn": "\u0cae\u0cb9\u0cbe\u0c95\u0cb5\u0cbf \u0c95\u0cc1\u0cb5\u0cc6\u0c82\u0caa\u0cc1 \u0cb0\u0cb8\u0ccd\u0ca4\u0cc6",
          "network": "Namma Metro",
          "note": "Contributors are requested to not edit the \"network\" and the \"operator\" tags. (2023/11/08)",
          "operator": "Bangalore Metro Rail Corporation Limited",
          "public_transport": "stop_position",
          "public_transport:version": "2",
          "railway": "stop",
          "short_name": "MKK Road",
          "source": "http://www.bmrc.co.in/English/Network.htm",
          "subway": "yes",
          "wheelchair": "yes",
          "wikidata": "Q17068244",
          "wikipedia": "en:Kuvempu Road metro station"
        }
      },
      {
        "type": "node",
        "id": 1614366547,
        "lat": 12.9883033,
        "lon": 77.5774436,
        "tags": {
          "amenity": "fuel",
          "brand": "Bharat Petroleum",
          "brand:wikidata": "Q854826",
          "name": "Bharat Petroleum",
          "name:kn": "\u0cad\u0cbe\u0cb0\u0ca4\u0ccd \u0caa\u0cc6\u0c9f\u0ccd\u0cb0\u0ccb\u0cb2\u0cbf\u0caf\u0c82",
          "wheelchair": "yes"
        }
      },
      {
        "type": "node",
        "id": 1778953948,
        "lat": 12.9771222,
        "lon": 77.5466032,
        "tags": {
          "amenity": "fuel",
          "brand": "Hindustan Petroleum",
          "brand:wikidata": "Q1619375",
          "name": "HP Petrol Bunk",
          "name:kn": "\u0cb9\u0cbf\u0c82\u0ca6\u0cc1\u0cb8\u0ccd\u0ca4\u0cbe\u0ca8\u0ccd \u0caa\u0cc6\u0c9f\u0ccd\u0cb0\u0ccb\u0cb2\u0cbf\u0caf\u0c82",
          "official_name": "Hindustan Petroleum",
          "wheelchair": "yes"
        }
      },
      {
        "type": "node",
        "id": 1778957265,
        "lat": 12.9793805,
        "lon": 77.5420846,
        "tags": {
          "amenity": "fuel",
          "brand": "Shell",
          "brand:wikidata": "Q110716465",
          "fuel:diesel": "yes",
          "fuel:lpg": "no",
          "fuel:octane_100": "yes",
          "name": "Shell Petrol Bunk",
          "name:kn": "\u0cb6\u0cc6\u0cb2\u0ccd",
          "operator": "Shell",
          "wheelchair": "yes"
        }
      },
      {
        "type": "node",
        "id": 1806966554,
        "lat": 12.9672844,
        "lon": 77.57,
        "tags": {
          "amenity": "fuel",
          "brand": "AEGIS AUTO GAS",
          "fuel:1_25": "no",
          "fuel:1_50": "no",
          "fuel:GTL_diesel": "no",
          "fuel:HGV_diesel": "no",
          "fuel:biodiesel": "no",
          "fuel:biogas": "no",
          "fuel:cng": "no",
          "fuel:diesel": "no",
          "fuel:e10": "no",
          "fuel:e85": "no",
          "fuel:electricity": "no",
          "fuel:lpg": "yes",
          "fuel:octane_100": "no",
          "fuel:octane_91": "no",
          "fuel:octane_95": "no",
          "fuel:octane_98": "no",
          "name": "Shree Krishna Auto Gas",
          "wheelchair": "yes"
        }
      },
      {
        "type": "node",
        "id": 1809669647,
        "lat": 12.9919287,
        "lon": 77.538523,
        "tags": {
          "bus": "yes",
          "highway": "bus_stop",
          "loc_name": "BASAVESHWARANAGARA",
          "name": "Kamalanagar 8th Main",
          "name:en": "Kamalanagar 8th Main",
          "network": "BMTC",
          "network:wikidata": "Q3345039",
          "operator": "BMTC",
          "public_transport": "stop_position"
        }
      },
      {
        "type": "node",
        "id": 1820408689,
        "lat": 12.975608,
        "lon": 77.5553564,
        "tags": {
          "code": "MIRD",
          "name": "Magadi Road",
          "name:kn": "\u0cae\u0cbe\u0c97\u0ca1\u0cbf \u0cb0\u0cb8\u0ccd\u0ca4\u0cc6",
          "network": "Namma Metro",
          "note": "Contributors are requested to not edit the \"network\" and the \"operator\" tags. (2023/11/08)",
          "operator": "Bangalore Metro Rail Corporation Limited",
          "platforms": "2",
          "public_transport": "stop_position",
          "public_transport:version": "2",
          "railway": "stop",
          "source": "http://www.bmrc.co.in/English/Network.htm",
          "subway": "yes",
          "wheelchair": "yes",
          "wikidata": "Q23838569",
          "wikipedia": "en:Magadi Road metro station"
        }
      },
      {
        "type": "node",
        "id": 1820438588,
        "lat": 12.9738144,
        "lon": 77.5517301,
        "tags": {
          "amenity": "cinema",
          "name": "PVR",
          "name:en": "PVR Cinemas",
          "wheelchair": "limited"
        }
      },
      {
        "type": "node",
        "id": 2016215963,
        "lat": 12.9841172,
        "lon": 77.5600221,
        "tags": {
          "amenity": "fuel"
        }
      },
      {
        "type": "node",
        "id": 2249045755,
        "lat": 12.9851341,
        "lon": 77.5433278,
        "tags": {
          "amenity": "fuel",
          "brand": "BP",
          "brand:wikidata": "Q152057",
          "name": "BP petrol pump",
          "wheelchair": "yes"
        }
      },
      {
        "type": "node",
        "id": 2249047993,
        "lat": 12.9916432,
        "lon": 77.5578265,
        "tags": {
          "amenity": "fuel",
          "brand": "Hindustan Petroleum",
          "brand:wikidata": "Q1619375",
          "brand:wikipedia": "en:Hindustan Petroleum",
          "compressed_air": "yes",
          "name": "HP",
          "name:kn": "\u0cb9\u0cbf\u0c82\u0ca6\u0cc1\u0cb8\u0ccd\u0ca4\u0cbe\u0ca8\u0ccd \u0caa\u0cc6\u0c9f\u0ccd\u0cb0\u0ccb\u0cb2\u0cbf\u0caf\u0c82",
          "official_name": "Hindustan Petroleum"
        }
      },
      {
        "type": "node",
        "id": 2249053699,
        "lat": 12.9810568,
        "lon": 77.5583911,
        "tags": {
          "amenity": "fuel",
          "brand": "Indian Oil",
          "brand:wikidata": "Q1289348",
          "brand:wikipedia": "en:Indian Oil Corporation",
          "name": "Indian Oil",
          "name:kn": "\u0c87\u0c82\u0ca1\u0cbf\u0caf\u0ca8\u0ccd \u0c86\u0caf\u0cbf\u0cb2\u0ccd",
          "wheelchair": "yes"
        }
      },
      {
        "type": "node",
        "id": 2394045745,
        "lat": 12.9878348,
        "lon": 77.5743169,
        "tags": {
          "bus": "yes",
          "name": "Swastik Sheshadripuram College",
          "name:en": "Swastik Sheshadripuram College",
          "network": "BMTC",
          "operator": "BMTC",
          "public_transport": "stop_position"
        }
      },
      {
        "type": "node",
        "id": 2403438706,
        "lat": 13.0006281,
        "lon": 77.5605652,
        "tags": {
          "alt_name": "Ramamandira",
          "bus": "yes",
          "highway": "bus_stop",
          "loc_name": "GAYTHRI NAGARA",
          "name": "Kodandarama",
          "name:kn": "\u0c95\u0ccb\u0ca6\u0c82\u0ca1\u0cb0\u0cbe\u0cae",
          "network": "BMTC",
          "operator": "BMTC",
          "public_transport": "stop_position",
          "wheelchair": "limited"
        }
      },
      {
        "type": "node",
        "id": 2403438888,
        "lat": 12.9993391,
        "lon": 77.5601837,
        "tags": {
          "bus": "yes",
          "highway": "bus_stop",
          "name": "SBM Gayathri Nagara",
          "network": "BMTC",
          "operator": "BMTC",
          "public_transport": "stop_position"
        }
      },
      {
        "type": "node",
        "id": 2403846910,
        "lat": 13.0048419,
        "lon": 77.5595007,
        "tags": {
          "bus": "yes",
          "highway": "bus_stop",
          "name": "Canara Bank Subramanyanagara",
          "name:kn": "\u0c95\u0cc6\u0ca8\u0cb0\u0cbe \u0cac\u0ccd\u0caf\u0cbe\u0c82\u0c95\u0ccd",
          "network": "BMTC",
          "operator": "BMTC",
          "public_transport": "stop_position"
        }
      },
      {
        "type": "node",
        "id": 2466476118,
        "lat": 12.9765112,
        "lon": 77.5799146,
        "tags": {
          "amenity": "fuel",
          "brand": "Bharat Petroleum",
          "brand:wikidata": "Q854826",
          "check_date": "2024-03-02",
          "compressed_air": "yes",
          "name": "Bharat Petroleum",
          "operator": "Chanders"
        }
      },
      {
        "type": "node",
        "id": 2467854906,
        "lat": 12.9873459,
        "lon": 77.5723926,
        "tags": {
          "amenity": "fuel",
          "name": "Vijees Auto Gas"
        }
      },
      {
        "type": "node",
        "id": 2476128053,
        "lat": 12.9782608,
        "lon": 77.5729,
        "tags": {
          "bus": "yes",
          "name": "Platform 12",
          "operator": "BMTC",
          "public_transport": "stop_position"
        }
      },
      {
        "type": "node",
        "id": 2487524459,
        "lat": 12.9669405,
        "lon": 77.5470005,
        "tags": {
          "addr:city": "Bangalore",
          "addr:housename": "Vijayanagar",
          "addr:street": "Hosahalli Main Road",
          "amenity": "fuel",
          "brand": "Total",
          "brand:wikidata": "Q154037",
          "building": "yes",
          "name": "Total Gas"
        }
      },
      {
        "type": "node",
        "id": 2487524461,
        "lat": 12.9673086,
        "lon": 77.5461504,
        "tags": {
          "addr:city": "Bangalore",
          "addr:housename": "Vijayanagar",
          "addr:postcode": "560040",
          "addr:street": "Hosahalli Main Road",
          "amenity": "fuel",
          "brand": "Indian Oil",
          "brand:wikidata": "Q1289348",
          "brand:wikipedia": "en:Indian Oil Corporation",
          "building": "yes",
          "name": "Indian Oil",
          "name:kn": "\u0c87\u0c82\u0ca1\u0cbf\u0caf\u0ca8\u0ccd \u0c86\u0caf\u0cbf\u0cb2\u0ccd"
        }
      },
      {
        "type": "node",
        "id": 2669084978,
        "lat": 12.9781739,
        "lon": 77.5695603,
        "tags": {
          "internet_access": "wlan",
          "name": "Krantivira Sangolli Rayanna (Bengaluru)",
          "name:kn": "\u0c95\u0ccd\u0cb0\u0cbe\u0c82\u0ca4\u0cbf\u0cb5\u0cc0\u0cb0 \u0cb8\u0c82\u0c97\u0cca\u0cb3\u0ccd\u0cb3\u0cbf \u0cb0\u0cbe\u0caf\u0ca3\u0ccd\u0ca3 \u0cb0\u0cc8\u0cb2\u0ccd\u0cb5\u0cc6 \u0ca8\u0cbf\u0cb2\u0ccd\u0ca6\u0cbe\u0ca3",
          "name:ml": "\u0d15\u0d4d\u0d30\u0d3e\u0d28\u0d4d\u0d24\u0d3f\u0d35\u0d40\u0d30 \u0d38\u0d19\u0d4d\u0d15\u0d4a\u0d32\u0d4d\u0d32\u0d3f \u0d30\u0d3e\u0d2f\u0d23\u0d4d\u0d23 \u0d31\u0d46\u0d2f\u0d3f\u0d7d\u0d35\u0d47 \u0d38\u0d4d\u0d31\u0d4d\u0d31\u0d47\u0d37\u0d7b",
          "name:te": "\u0c15\u0c4d\u0c30\u0c3e\u0c02\u0c24\u0c3f\u0c35\u0c40\u0c30 \u0c38\u0c02\u0c17\u0c4a\u0c32\u0c4d\u0c32\u0c3f \u0c30\u0c3e\u0c2f\u0c28\u0c4d\u0c28 \u0c30\u0c48\u0c32\u0c4d\u0c35\u0c47 \u0c38\u0c4d\u0c1f\u0c47\u0c37\u0c28\u0c4d",
          "network": "IR",
          "old_name": "Bangalore City Junction",
          "operator": "SWR",
          "public_transport": "station",
          "railway": "station",
          "ref": "SBC",
          "short_name": "KSR Bengaluru",
          "wheelchair": "yes",
          "wikidata": "Q3633970"
        }
      },
      {
        "type": "node",
        "id": 3198633191,
        "lat": 12.9869097,
        "lon": 77.5789251,
        "tags": {
          "bus": "yes",
          "highway": "bus_stop",
          "loc_name": "VASANTHA NAGARA",
          "name": "Shivananda Stores",
          "name:en": "Shivananda Stores",
          "network": "BMTC",
          "operator": "BMTC",
          "public_transport": "stop_position"
        }
      },
      {
        "type": "node",
        "id": 3320950152,
        "lat": 12.9900294,
        "lon": 77.5721105,
        "tags": {
          "bus": "yes",
          "name": "Central",
          "name:en": "Central",
          "network": "BMTC",
          "operator": "BMTC",
          "public_transport": "stop_position"
        }
      },
      {
        "type": "node",
        "id": 3664774925,
        "lat": 12.9920489,
        "lon": 77.5706285,
        "tags": {
          "addr:city": "Bengaluru",
          "addr:postcode": "560003",
          "addr:street": "Sampige Road",
          "air_conditioning": "yes",
          "amenity": "cinema",
          "brand": "INOX Leisure",
          "brand:wikidata": "Q5972349",
          "name": "INOX Malleshwaram - Mantri Square",
          "short_name": "INOX"
        }
      },
      {
        "type": "node",
        "id": 3755608905,
        "lat": 12.9786086,
        "lon": 77.5725521,
        "tags": {
          "bus": "yes",
          "name": "Platform 21",
          "operator": "BMTC",
          "public_transport": "stop_position"
        }
      },
      {
        "type": "node",
        "id": 3756218734,
        "lat": 12.9824156,
        "lon": 77.5620528,
        "tags": {
          "bus": "yes",
          "highway": "bus_stop",
          "loc_name": "RAMACHANDRAPURAM",
          "name": "Sujatha Talkies",
          "name:en": "Sujatha Talkies",
          "name:kn": "\u0cb8\u0cc1\u0c9c\u0cbe\u0ca4 \u0c9a\u0cbf\u0ca4\u0ccd\u0cb0\u0cae\u0c82\u0ca6\u0cbf\u0cb0",
          "network": "BMTC",
          "operator": "BMTC",
          "public_transport": "stop_position"
        }
      },
      {
        "type": "node",
        "id": 3875744057,
        "lat": 12.9777644,
        "lon": 77.5728494,
        "tags": {
          "bus": "yes",
          "name": "Platform 1",
          "name:kn": "\u0c85\u0c82\u0c95\u0ca3 \u0ce7",
          "operator": "BMTC",
          "public_transport": "stop_position"
        }
      },
      {
        "type": "node",
        "id": 3875744058,
        "lat": 12.9779442,
        "lon": 77.5727259,
        "tags": {
          "bus": "yes",
          "name": "Platform 2",
          "name:kn": "\u0c85\u0c82\u0c95\u0ca3 \u0ce8",
          "operator": "BMTC",
          "public_transport": "stop_position"
        }
      },
      {
        "type": "node",
        "id": 3875768038,
        "lat": 12.9780562,
        "lon": 77.5725348,
        "tags": {
          "bus": "yes",
          "name": "Platform 3",
          "name:kn": "\u0c85\u0c82\u0c95\u0ca3 \u0ce9",
          "operator": "BMTC",
          "public_transport": "stop_position"
        }
      },
      {
        "type": "node",
        "id": 3875768039,
        "lat": 12.9780653,
        "lon": 77.5722489,
        "tags": {
          "bus": "yes",
          "name": "Platform 3A",
          "operator": "BMTC",
          "public_transport": "stop_position"
        }
      },
      {
        "type": "node",
        "id": 3875768040,
        "lat": 12.9779148,
        "lon": 77.571813,
        "tags": {
          "bus": "yes",
          "name": "Platform 5",
          "name:kn": "\u0c85\u0c82\u0c95\u0ca3 \u0ceb",
          "operator": "BMTC",
          "public_transport": "stop_position"
        }
      },
      {
        "type": "node",
        "id": 3875790066,
        "lat": 12.9780458,
        "lon": 77.5719149,
        "tags": {
          "bus": "yes",
          "name": "Platform 6",
          "name:kn": "\u0cb5\u0cc7\u0ca6\u0cbf\u0c95\u0cc6 \u0cec",
          "operator": "BMTC",
          "public_transport": "stop_position"
        }
      },
      {
        "type": "node",
        "id": 3875790067,
        "lat": 12.9781429,
        "lon": 77.5720401,
        "tags": {
          "bus": "yes",
          "name": "Platform 6A",
          "name:kn": "\u0cb5\u0cc7\u0ca6\u0cbf\u0c95\u0cc6 \u0cec\u0c8e",
          "operator": "BMTC",
          "public_transport": "stop_position"
        }
      },
      {
        "type": "node",
        "id": 3875790068,
        "lat": 12.9781992,
        "lon": 77.5721632,
        "tags": {
          "bus": "yes",
          "name": "Platform 7",
          "name:kn": "\u0cb5\u0cc7\u0ca6\u0cbf\u0c95\u0cc6 \u0ced",
          "operator": "BMTC",
          "public_transport": "stop_position"
        }
      },
      {
        "type": "node",
        "id": 3875790069,
        "lat": 12.9782295,
        "lon": 77.5722952,
        "tags": {
          "bus": "yes",
          "name": "Platform 8",
          "name:kn": "\u0cb5\u0cc7\u0ca6\u0cbf\u0c95\u0cc6 \u0cee",
          "operator": "BMTC",
          "public_transport": "stop_position"
        }
      },
      {
        "type": "node",
        "id": 3875790070,
        "lat": 12.9782221,
        "lon": 77.5725112,
        "tags": {
          "bus": "yes",
          "name": "Platform 8A",
          "name:kn": "\u0cb5\u0cc7\u0ca6\u0cbf\u0c95\u0cc6 \u0cee\u0c8e",
          "operator": "BMTC",
          "public_transport": "stop_position"
        }
      },
      {
        "type": "node",
        "id": 4108417932,
        "lat": 13.0006306,
        "lon": 77.563476,
        "tags": {
          "internet_access": "no",
          "name": "Malleswaram",
          "name:kn": "\u0cae\u0cb2\u0ccd\u0cb2\u0cc7\u0cb6\u0ccd\u0cb5\u0cb0\u0c82",
          "network": "IR",
          "operator": "SWR",
          "public_transport": "station",
          "railway": "station",
          "ref": "MWM",
          "toilets:wheelchair": "no",
          "wheelchair": "yes",
          "wikidata": "Q63356763"
        }
      },
      {
        "type": "node",
        "id": 4130960190,
        "lat": 12.965813,
        "lon": 77.5622167,
        "tags": {
          "addr:street": "Tank Bund Road",
          "amenity": "cinema",
          "brand": "Cinepolis",
          "brand:wikidata": "Q5686673",
          "name": "Cinepolis ETA Mall"
        }
      },
      {
        "type": "node",
        "id": 4130960991,
        "lat": 12.9643548,
        "lon": 77.5499608,
        "tags": {
          "addr:street": "Hosahalli Main Road",
          "amenity": "theatre",
          "name": "Kk Function Hall"
        }
      },
      {
        "type": "node",
        "id": 4518422189,
        "lat": 12.9740504,
        "lon": 77.5500149,
        "tags": {
          "addr:street": "Magadi Road",
          "amenity": "fuel",
          "brand": "Total",
          "brand:wikidata": "Q154037",
          "name": "Total Gas Station",
          "name:en": "Total Gas Station"
        }
      },
      {
        "type": "node",
        "id": 4937191686,
        "lat": 12.9967945,
        "lon": 77.568963,
        "tags": {
          "bench": "yes",
          "bus": "yes",
          "covered": "yes",
          "highway": "bus_stop",
          "name": "Malleshwaram Circle",
          "name:kn": "\u0cae\u0cb2\u0ccd\u0cb2\u0cc7\u0cb6\u0ccd\u0cb5\u0cb0\u0c82 \u0cb5\u0cc3\u0ca4\u0ccd\u0ca4",
          "operator": "BMTC",
          "public_transport": "stop_position",
          "shelter": "yes"
        }
      },
      {
        "type": "node",
        "id": 4937863375,
        "lat": 12.9977319,
        "lon": 77.5713903,
        "tags": {
          "bus": "yes",
          "name": "Malleswaram Circle",
          "name:kn": "\u0cae\u0cb2\u0ccd\u0cb2\u0cc7\u0cb6\u0ccd\u0cb5\u0cb0\u0c82 \u0cb5\u0cc3\u0ca4\u0ccd\u0ca4",
          "operator": "BMTC",
          "public_transport": "stop_position"
        }
      },
      {
        "type": "node",
        "id": 5305932617,
        "lat": 12.9756704,
        "lon": 77.5728057,
        "tags": {
          "alt_name": "Majestic Metro Station",
          "code": "KGWA",
          "layer": "-1",
          "level": "-1",
          "name": "Nadaprabhu Kempegowda Station, Majestic (Purple Line)",
          "name:etymology:wikidata": "Q6387049",
          "name:kn": "\u0c95\u0cc6\u0c82\u0caa\u0cc7\u0c97\u0ccc\u0ca1",
          "network": "Namma Metro",
          "note": "Contributors are requested to not edit the \"network\" and the \"operator\" tags. (2023/11/08)",
          "operator": "Bangalore Metro Rail Corporation Limited",
          "public_transport": "stop_position",
          "public_transport:version": "2",
          "railway": "stop",
          "source": "http://www.bmrc.co.in/English/Network.htm",
          "subway": "yes",
          "wheelchair": "yes"
        }
      },
      {
        "type": "node",
        "id": 5464787094,
        "lat": 12.9750646,
        "lon": 77.5730388,
        "tags": {
          "alt_name": "Majestic Metro Station",
          "code": "KGWA",
          "layer": "-2",
          "level": "-2",
          "name": "Nadaprabhu Kempegowda Station, Majestic (Green Line)",
          "name:etymology:wikidata": "Q6387049",
          "name:kn": "\u0c95\u0cc6\u0c82\u0caa\u0cc7\u0c97\u0ccc\u0ca1",
          "network": "Namma Metro",
          "note": "Contributors are requested to not edit the \"network\" and the \"operator\" tags. (2023/11/08)",
          "operator": "Bangalore Metro Rail Corporation Limited",
          "public_transport": "stop_position",
          "public_transport:version": "2",
          "railway": "stop",
          "source": "http://www.bmrc.co.in/English/Network.htm",
          "subway": "yes",
          "wheelchair": "yes"
        }
      },
      {
        "type": "node",
        "id": 5760197785,
        "lat": 12.9743117,
        "lon": 77.5456197,
        "tags": {
          "code": "HSLI",
          "name": "Sri Balagangadharanatha Swamiji Stn., Hosahalli",
          "name:kn": "\u0cb6\u0ccd\u0cb0\u0cc0 \u0cac\u0cbe\u0cb2\u0c97\u0c82\u0c97\u0cbe\u0ca7\u0cb0\u0ca8\u0cbe\u0ca5 \u0cae\u0cc6\u0c9f\u0ccd\u0cb0\u0ccb",
          "network": "Namma Metro",
          "note": "Contributors are requested to not edit the \"network\" and the \"operator\" tags. (2023/11/08)",
          "operator": "Bangalore Metro Rail Corporation Limited",
          "platforms": "2",
          "public_transport": "stop_position",
          "public_transport:version": "2",
          "railway": "stop",
          "source": "http://www.bmrc.co.in/English/Network.htm",
          "subway": "yes",
          "wheelchair": "yes",
          "wikidata": "Q23838583",
          "wikipedia": "en:Hosahalli metro station"
        }
      },
      {
        "type": "node",
        "id": 5760197786,
        "lat": 12.9756527,
        "lon": 77.5553548,
        "tags": {
          "code": "MIRD",
          "name": "Magadi Road",
          "name:kn": "\u0cae\u0cbe\u0c97\u0ca1\u0cbf \u0cb0\u0cb8\u0ccd\u0ca4\u0cc6",
          "network": "Namma Metro",
          "note": "Contributors are requested to not edit the \"network\" and the \"operator\" tags. (2023/11/08)",
          "operator": "Bangalore Metro Rail Corporation Limited",
          "platforms": "2",
          "public_transport": "stop_position",
          "public_transport:version": "2",
          "railway": "stop",
          "source": "http://www.bmrc.co.in/English/Network.htm",
          "subway": "yes",
          "wheelchair": "yes",
          "wikidata": "Q23838569",
          "wikipedia": "en:Magadi Road metro station"
        }
      },
      {
        "type": "node",
        "id": 5760197788,
        "lat": 12.9759026,
        "lon": 77.5653744,
        "tags": {
          "code": "BRCS",
          "name": "Krantivira Sangolli Rayanna Railway Station",
          "name:kn": "\u0ca8\u0c97\u0cb0 \u0cb0\u0cc8\u0cb2\u0cc1 \u0ca8\u0cbf\u0cb2\u0ccd\u0ca6\u0cbe\u0ca3",
          "network": "Namma Metro",
          "note": "Contributors are requested to not edit the \"network\" and the \"operator\" tags. (2023/11/08)",
          "operator": "Bangalore Metro Rail Corporation Limited",
          "platforms": "2",
          "public_transport": "stop_position",
          "public_transport:version": "2",
          "railway": "stop",
          "source": "http://www.bmrc.co.in/English/Network.htm",
          "subway": "yes",
          "wheelchair": "yes",
          "wikidata": "Q39070950",
          "wikipedia": "en:City Railway Station metro station (Bangalore)"
        }
      },
      {
        "type": "node",
        "id": 5760197800,
        "lat": 12.9757512,
        "lon": 77.5730887,
        "tags": {
          "alt_name": "Majestic Metro Station",
          "code": "KGWA",
          "layer": "-1",
          "level": "-1",
          "name": "Nadaprabhu Kempegowda Station, Majestic (Purple Line)",
          "name:etymology:wikidata": "Q6387049",
          "name:kn": "\u0c95\u0cc6\u0c82\u0caa\u0cc7\u0c97\u0ccc\u0ca1",
          "network": "Namma Metro",
          "note": "Contributors are requested to not edit the \"network\" and the \"operator\" tags. (2023/11/08)",
          "operator": "Bangalore Metro Rail Corporation Limited",
          "public_transport": "stop_position",
          "public_transport:version": "2",
          "railway": "stop",
          "source": "http://www.bmrc.co.in/English/Network.htm",
          "subway": "yes",
          "wheelchair": "yes"
        }
      },
      {
        "type": "node",
        "id": 5760198468,
        "lat": 12.9759557,
        "lon": 77.5728675,
        "tags": {
          "alt_name": "Majestic Metro Station",
          "code": "KGWA",
          "layer": "-2",
          "level": "-2",
          "name": "Nadaprabhu Kempegowda Station, Majestic (Green Line)",
          "name:etymology:wikidata": "Q6387049",
          "name:kn": "\u0c95\u0cc6\u0c82\u0caa\u0cc7\u0c97\u0ccc\u0ca1",
          "network": "Namma Metro",
          "note": "Contributors are requested to not edit the \"network\" and the \"operator\" tags. (2023/11/08)",
          "operator": "Bangalore Metro Rail Corporation Limited",
          "public_transport": "stop_position",
          "public_transport:version": "2",
          "railway": "stop",
          "source": "http://www.bmrc.co.in/English/Network.htm",
          "subway": "yes",
          "wheelchair": "yes"
        }
      },
      {
        "type": "node",
        "id": 5760198469,
        "lat": 12.9669249,
        "lon": 77.5745314,
        "tags": {
          "code": "CKPE",
          "name": "Chickpete",
          "name:hi": "\u091a\u093f\u0915\u092a\u0947\u091f\u0947",
          "name:kn": "\u0c9a\u0cbf\u0c95\u0ccd\u0c95\u0caa\u0cc7\u0c9f\u0cc6",
          "network": "Namma Metro",
          "note": "Contributors are requested to not edit the \"network\" and the \"operator\" tags. (2023/11/08)",
          "operator": "Bangalore Metro Rail Corporation Limited",
          "public_transport": "stop_position",
          "public_transport:version": "2",
          "railway": "stop",
          "source": "http://www.bmrc.co.in/English/Network.htm",
          "subway": "yes",
          "wheelchair": "yes"
        }
      },
      {
        "type": "node",
        "id": 5760198623,
        "lat": 12.9904282,
        "lon": 77.5706929,
        "tags": {
          "alt_name": "Swastik",
          "code": "SPGD",
          "name": "Mantri Square Sampige Road",
          "name:kn": "\u0cae\u0c82\u0ca4\u0ccd\u0cb0\u0cbf \u0cb8\u0ccd\u0c95\u0ccd\u0cb5\u0cc7\u0cb0\u0ccd \u0cb8\u0c82\u0caa\u0cbf\u0c97\u0cc6 \u0cb0\u0cb8\u0ccd\u0ca4\u0cc6",
          "network": "Namma Metro",
          "note": "Contributors are requested to not edit the \"network\" and the \"operator\" tags. (2023/11/08)",
          "operator": "Bangalore Metro Rail Corporation Limited",
          "public_transport": "stop_position",
          "public_transport:version": "2",
          "railway": "stop",
          "source": "http://www.bmrc.co.in/English/Network.htm",
          "subway": "yes",
          "wheelchair": "yes",
          "wikidata": "Q17088462",
          "wikipedia": "en:Sampige Road metro station"
        }
      },
      {
        "type": "node",
        "id": 5760198624,
        "lat": 12.9965408,
        "lon": 77.5633115,
        "tags": {
          "code": "SPRU",
          "name": "Srirampura",
          "name:hi": "\u0936\u094d\u0930\u0940\u0930\u093e\u092e\u092a\u0941\u0930\u093e",
          "name:kn": "\u0cb6\u0ccd\u0cb0\u0cc0\u0cb0\u0cbe\u0cae\u0caa\u0cc1\u0cb0",
          "network": "Namma Metro",
          "note": "Contributors are requested to not edit the \"network\" and the \"operator\" tags. (2023/11/08)",
          "operator": "Bangalore Metro Rail Corporation Limited",
          "public_transport": "stop_position",
          "public_transport:version": "2",
          "railway": "stop",
          "source": "http://www.bmrc.co.in/English/Network.htm",
          "subway": "yes",
          "wheelchair": "yes",
          "wikidata": "Q17100145",
          "wikipedia": "en:Srirampura metro station"
        }
      },
      {
        "type": "node",
        "id": 5760198631,
        "lat": 12.9984697,
        "lon": 77.5568746,
        "tags": {
          "code": "KVPR",
          "name": "Mahakavi Kuvempu Road",
          "name:etymology:wikidata": "Q3351108",
          "name:kn": "\u0cae\u0cb9\u0cbe\u0c95\u0cb5\u0cbf \u0c95\u0cc1\u0cb5\u0cc6\u0c82\u0caa\u0cc1 \u0cb0\u0cb8\u0ccd\u0ca4\u0cc6",
          "network": "Namma Metro",
          "note": "Contributors are requested to not edit the \"network\" and the \"operator\" tags. (2023/11/08)",
          "operator": "Bangalore Metro Rail Corporation Limited",
          "public_transport": "stop_position",
          "public_transport:version": "2",
          "railway": "stop",
          "short_name": "MKK Road",
          "source": "http://www.bmrc.co.in/English/Network.htm",
          "subway": "yes",
          "wheelchair": "yes",
          "wikidata": "Q17068244",
          "wikipedia": "en:Kuvempu Road metro station"
        }
      },
      {
        "type": "node",
        "id": 5760198632,
        "lat": 13.0005232,
        "lon": 77.5496166,
        "tags": {
          "code": "RJNR",
          "layer": "2",
          "level": "2",
          "name": "Rajajinagar",
          "name:hi": "\u0930\u093e\u091c\u093e\u091c\u0940\u0928\u0917\u0930",
          "name:kn": "\u0cb0\u0cbe\u0c9c\u0cbe\u0c9c\u0cbf\u0ca8\u0c97\u0cb0",
          "network": "Namma Metro",
          "note": "Contributors are requested to not edit the \"network\" and the \"operator\" tags. (2023/11/08)",
          "operator": "Bangalore Metro Rail Corporation Limited",
          "public_transport": "stop_position",
          "public_transport:version": "2",
          "railway": "stop",
          "source": "http://www.bmrc.co.in/English/Network.htm",
          "subway": "yes",
          "wheelchair": "yes",
          "wikidata": "Q17085511",
          "wikipedia": "en:Rajajinagar metro station"
        }
      },
      {
        "type": "node",
        "id": 5960788726,
        "lat": 12.9965253,
        "lon": 77.5631963,
        "tags": {
          "code": "SPRU",
          "lit": "yes",
          "name": "Srirampura",
          "name:hi": "\u0936\u094d\u0930\u0940\u0930\u093e\u092e\u092a\u0941\u0930\u093e",
          "name:kn": "\u0cb6\u0ccd\u0cb0\u0cc0\u0cb0\u0cbe\u0cae\u0caa\u0cc1\u0cb0",
          "name:ml": "\u0d36\u0d4d\u0d30\u0d40\u0d30\u0d3e\u0d02\u0d2a\u0d41\u0d30",
          "name:ta": "\u0bb8\u0bcd\u0bb0\u0bc0\u0bb0\u0bbe\u0bae\u0bcd\u0baa\u0bc1\u0bb0\u0bbe",
          "network": "Namma Metro",
          "network:wikidata": "Q279343",
          "note": "Contributors are requested to not edit the \"network\" and the \"operator\" tags. (2023/11/08)",
          "operator": "Bangalore Metro Rail Corporation Limited",
          "public_transport": "station",
          "public_transport:version": "2",
          "railway": "station",
          "shelter": "yes",
          "station": "subway",
          "subway": "yes",
          "website": "https://english.brmc.co.in",
          "wheelchair": "yes"
        }
      },
      {
        "type": "node",
        "id": 6095308677,
        "lat": 12.9784514,
        "lon": 77.5717616,
        "tags": {
          "bus": "yes",
          "name": "Platform 19D",
          "operator": "BMTC",
          "public_transport": "stop_position"
        }
      },
      {
        "type": "node",
        "id": 6342882646,
        "lat": 12.99797,
        "lon": 77.5516362,
        "tags": {
          "bus": "yes",
          "name": "Navarang Theatre",
          "name:kn": "\u0ca8\u0cb5\u0cb0\u0c82\u0c97 \u0c9a\u0cbf\u0ca4\u0ccd\u0cb0\u0cae\u0c82\u0ca6\u0cbf\u0cb0",
          "network": "BMTC",
          "operator": "BMTC",
          "public_transport": "stop_position"
        }
      },
      {
        "type": "node",
        "id": 6342882647,
        "lat": 12.9975227,
        "lon": 77.5489437,
        "tags": {
          "bus": "yes",
          "local_ref": "RAJAJINAGARA",
          "name": "Navarang Theatre",
          "name:kn": "\u0ca8\u0cb5\u0cb0\u0c82\u0c97 \u0c9a\u0cbf\u0ca4\u0ccd\u0cb0\u0cae\u0c82\u0ca6\u0cbf\u0cb0",
          "network": "BMTC",
          "operator": "BMTC",
          "public_transport": "stop_position"
        }
      },
      {
        "type": "node",
        "id": 6342882648,
        "lat": 12.9971317,
        "lon": 77.5536245,
        "tags": {
          "bus": "yes",
          "name": "Navarang Theatre",
          "name:kn": "\u0ca8\u0cb5\u0cb0\u0c82\u0c97 \u0c9a\u0cbf\u0ca4\u0ccd\u0cb0\u0cae\u0c82\u0ca6\u0cbf\u0cb0",
          "network": "BMTC",
          "operator": "BMTC",
          "public_transport": "stop_position"
        }
      },