{
  "pois_1km": {
    "version": 0.6,
    "generator": "Overpass API 0.7.62.8 e802775f",
    "osm3s": {
      "timestamp_osm_base": "2025-09-06T08:15:30Z",
      "copyright": "The data included in this document is from www.openstreetmap.org. The data is made available under ODbL."
    },
    "elements": [
      {
        "type": "node",
        "id": 4188346496,
        "lat": 13.1908778,
        "lon": 77.6457522,
        "tags": {
          "addr:street": "Bellary Road",
          "amenity": "bank",
          "brand:wikidata": "Q1340361",
          "name": "State Bank of Mysore Settigere"
        }
      },
      {
        "type": "node",
        "id": 5402224051,
        "lat": 13.1910839,
        "lon": 77.6460232,
        "tags": {
          "amenity": "restaurant",
          "name": "Seasons"
        }
      },
      {
        "type": "node",
        "id": 9674210168,
        "lat": 13.1899072,
        "lon": 77.6450101,
        "tags": {
          "amenity": "cafe",
          "name": "Cafe Azzure New Airport Road",
          "outdoor_seating": "yes"
        }
      },
      {
        "type": "node",
        "id": 11962617214,
        "lat": 13.1907995,
        "lon": 77.645703,
        "tags": {
          "amenity": "restaurant",
          "diet:vegetarian": "yes",
          "name": "Shiva Ji"
        }
      },
      {
        "type": "node",
        "id": 11962617215,
        "lat": 13.1910227,
        "lon": 77.6458246,
        "tags": {
          "amenity": "bank",
          "brand": "State Bank of India",
          "brand:wikidata": "Q1340361",
          "name": "State Bank of India",
          "short_name": "SBI"
        }
      },
      {
        "type": "node",
        "id": 12069247296,
        "lat": 13.1888524,
        "lon": 77.6476912,
        "tags": {
          "amenity": "fast_food",
          "name": "We Cafe"
        }
      },
      {
        "type": "node",
        "id": 12625817226,
        "lat": 13.189148,
        "lon": 77.6442146,
        "tags": {
          "amenity": "restaurant",
          "name": "Acre"
        }
      }
    ]
  },
  "pois_2_5km": {
    "version": 0.6,
    "generator": "Overpass API 0.7.62.8 e802775f",
    "osm3s": {
      "timestamp_osm_base": "2025-09-06T08:15:30Z",
      "copyright": "The data included in this document is from www.openstreetmap.org. The data is made available under ODbL."
    },
    "elements": [
      {
        "type": "node",
        "id": 11987023859,
        "lat": 13.1776646,
        "lon": 77.6630831,
        "tags": {
          "amenity": "charging_station",
          "fee": "yes",
          "motorcar": "yes",
          "motorcycle": "yes",
          "name": "BluSmart Charging Station"
        }
      }
    ]
  }
}