{
  "pois_1km": {
    "version": 0.6,
    "generator": "Overpass API 0.7.62.8 e802775f",
    "osm3s": {
      "timestamp_osm_base": "2025-09-06T08:12:26Z",
      "copyright": "The data included in this document is from www.openstreetmap.org. The data is made available under ODbL."
    },
    "elements": [
      {
        "type": "node",
        "id": 665727326,
        "lat": 12.9100629,
        "lon": 77.5924585,
        "tags": {
          "addr:district": "Bengaluru Urban",
          "addr:full": "220, 2nd phase, JP Nagar,Next to Nilgiris",
          "addr:postcode": "560078",
          "addr:state": "Karnataka",
          "amenity": "hospital",
          "check_date": "2025-06-21",
          "healthcare:speciality": "General Gynecology; Obstetrics; Prenatal Care; nulife clinic; Laboratory Testing and In-Office Surgery; Medical Spa for Women; Ophthalmology",
          "name": "Divakars speciality Hospital",
          "operator:type": "private",
          "source": "OpenGovernmentData",
          "website": "http://www.healthforher.in/"
        }
      },
      {
        "type": "node",
        "id": 949313551,
        "lat": 12.9136384,
        "lon": 77.6074718,
        "tags": {
          "amenity": "pharmacy",
          "brand": "MedPlus",
          "brand:wikidata": "Q65684234",
          "healthcare": "pharmacy",
          "name": "MedPlus",
          "opening_hours": "PH,Mo-Su 08:00-23:00"
        }
      },
      {
        "type": "node",
        "id": 951203518,
        "lat": 12.9127285,
        "lon": 77.6064015,
        "tags": {
          "amenity": "atm",
          "brand": "Indian Bank",
          "brand:wikidata": "Q2003789",
          "check_date": "2023-10-15",
          "name": "Indian Bank",
          "operator": "Indian Bank",
          "operator:wikidata": "Q2003789"
        }
      },
      {
        "type": "node",
        "id": 1388103603,
        "lat": 12.9115937,
        "lon": 77.6062818,
        "tags": {
          "amenity": "pharmacy",
          "healthcare": "pharmacy",
          "name": "Aravind Medicals and General stores"
        }
      },
      {
        "type": "node",
        "id": 1388103608,
        "lat": 12.9127092,
        "lon": 77.6061623,
        "tags": {
          "amenity": "bank",
          "brand": "City Union Bank",
          "brand:en": "City Union Bank",
          "brand:hi": "\u0938\u093f\u091f\u0940 \u092f\u0942\u0928\u093f\u092f\u0928 \u092c\u0948\u0902\u0915",
          "brand:ta": "\u0b9a\u0bbf\u0b9f\u0bcd\u0b9f\u0bbf \u0baf\u0bc2\u0ba9\u0bbf\u0baf\u0ba9\u0bcd \u0bb5\u0b99\u0bcd\u0b95\u0bbf",
          "brand:wikidata": "Q2040264",
          "name": "City Union Bank",
          "name:en": "City Union Bank",
          "name:hi": "\u0938\u093f\u091f\u0940 \u092f\u0942\u0928\u093f\u092f\u0928 \u092c\u0948\u0902\u0915",
          "name:ta": "\u0b9a\u0bbf\u0b9f\u0bcd\u0b9f\u0bbf \u0baf\u0bc2\u0ba9\u0bbf\u0baf\u0ba9\u0bcd \u0bb5\u0b99\u0bcd\u0b95\u0bbf",
          "short_name": "CUB"
        }
      },
      {
        "type": "node",
        "id": 1388103622,
        "lat": 12.9106552,
        "lon": 77.6063086,
        "tags": {
          "addr:city": "Bangalore",
          "addr:floor": "1",
          "addr:housenumber": "107",
          "addr:postcode": "560076",
          "addr:street": "7th Main Road",
          "air_conditioning": "no",
          "currency:INR": "yes",
          "internet_access": "no",
          "name": "Homeneeds",
          "opening_hours": "Mo-Su 10:00-22:00",
          "payment:cash": "yes",
          "payment:credit_cards": "yes",
          "payment:debit_cards": "yes",
          "phone": "80-33618025",
          "shop": "supermarket",
          "source": "local knowledge",
          "stroller": "no",
          "toilets": "no",
          "wheelchair": "limited"
        }
      },
      {
        "type": "node",
        "id": 1397260169,
        "lat": 12.9052591,
        "lon": 77.5951539,
        "tags": {
          "addr:city": "Bengaluru",
          "addr:postcode": "560078",
          "addr:street": "3rd Main Road",
          "name": "MK Ahmed Bazar",
          "organic": "yes",
          "shop": "supermarket",
          "website": "https://www.mkretail.com/"
        }
      },
      {
        "type": "node",
        "id": 1466691751,
        "lat": 12.9100191,
        "lon": 77.5925018,
        "tags": {
          "amenity": "bank",
          "atm": "yes",
          "brand": "Karnataka Bank",
          "brand:wikidata": "Q2042632",
          "name": "Karnataka Bank",
          "name:kn": "\u0c95\u0cb0\u0ccd\u0ca8\u0cbe\u0c9f\u0c95 \u0cac\u0ccd\u0caf\u0cbe\u0c82\u0c95\u0ccd"
        }
      },
      {
        "type": "node",
        "id": 1468035313,
        "lat": 12.9168527,
        "lon": 77.6034541,
        "tags": {
          "amenity": "fast_food",
          "check_date": "2023-12-04",
          "name": "Juice Burg Cafe"
        }
      },
      {
        "type": "node",
        "id": 1470600205,
        "lat": 12.9149827,
        "lon": 77.605687,
        "tags": {
          "amenity": "bank",
          "name": "Sir M. Visvesvaraya Co-Operative Bank Limited",
          "opening_hours": "Mo-Sa 09:30-16:30"
        }
      },
      {
        "type": "node",
        "id": 1470603498,
        "lat": 12.914434,
        "lon": 77.6050207,
        "tags": {
          "amenity": "hospital",
          "designation": "Kids Care Clinic",
          "healthcare": "hospital",
          "name": "Kids Care Clinic"
        }
      },
      {
        "type": "node",
        "id": 1470604112,
        "lat": 12.9134789,
        "lon": 77.6065671,
        "tags": {
          "amenity": "bank",
          "atm": "yes",
          "brand": "Union Bank of India",
          "brand:wikidata": "Q2004078",
          "brand:wikipedia": "en:Union Bank of India",
          "name": "Union Bank of India",
          "opening_hours": "Mo-Sa 10:00-15:30"
        }
      },
      {
        "type": "node",
        "id": 1474304635,
        "lat": 12.9055718,
        "lon": 77.6058341,
        "tags": {
          "addr:postcode": "560076",
          "addr:street": "29th Main Road",
          "amenity": "cafe",
          "brand": "Cafe Coffee Day",
          "brand:wikidata": "Q5017235",
          "brand:wikipedia": "en:Caf\u00e9 Coffee Day",
          "cuisine": "coffee_shop",
          "internet_access": "wlan",
          "name": "Cafe Coffee Day",
          "name:en": "Caffe Coffee Day",
          "name:kn": "\u0c95\u0cab\u0cc6 \u0c95\u0cbe\u0cab\u0cbf \u0ca1\u0cc7",
          "takeaway": "yes"
        }
      },
      {
        "type": "node",
        "id": 1474819351,
        "lat": 12.9151822,
        "lon": 77.6059587,
        "tags": {
          "addr:city": "Bengaluru",
          "addr:housenumber": "284",
          "addr:postcode": "560076",
          "addr:street": "7th Main Road",
          "name": "Ashirwad Super Market",
          "opening_hours": "Mo-Su 10:00-21:00",
          "phone": "(91)-80-65333340",
          "shop": "supermarket"
        }
      },
      {
        "type": "node",
        "id": 1595801457,
        "lat": 12.9055748,
        "lon": 77.6057437,
        "tags": {
          "brand": "More",
          "brand:wikidata": "Q6910891",
          "brand:wikipedia": "en:More (store)",
          "name": "More",
          "shop": "supermarket"
        }
      },
      {
        "type": "node",
        "id": 1741781102,
        "lat": 12.9165024,
        "lon": 77.6034897,
        "tags": {
          "amenity": "atm",
          "brand": "ICICI Bank",
          "brand:wikidata": "Q1653258",
          "name": "ICICI Bank",
          "operator": "ICICI Bank",
          "operator:wikidata": "Q1653258",
          "short_name": "ICICI"
        }
      },
      {
        "type": "node",
        "id": 1801505690,
        "lat": 12.9063265,
        "lon": 77.5960973,
        "tags": {
          "amenity": "fast_food",
          "cuisine": "indian",
          "name": "Chaithanya Restaurant"
        }
      },
      {
        "type": "node",
        "id": 1866181822,
        "lat": 12.9064987,
        "lon": 77.5930188,
        "tags": {
          "addr:housename": "Emlion Hotel",
          "addr:postcode": "560078",
          "addr:street": "15th Cross",
          "amenity": "restaurant",
          "level": "0",
          "name": "The Onyx"
        }
      },
      {
        "type": "node",
        "id": 2357184836,
        "lat": 12.9055105,
        "lon": 77.595119,
        "tags": {
          "amenity": "restaurant",
          "cuisine": "pizza",
          "name": "Pizza Stop"
        }
      },
      {
        "type": "node",
        "id": 2357184837,
        "lat": 12.9056098,
        "lon": 77.595119,
        "tags": {
          "amenity": "restaurant",
          "cuisine": "ice_cream",
          "name": "Gelato"
        }
      },
      {
        "type": "node",
        "id": 2357184842,
        "lat": 12.9063288,
        "lon": 77.5965004,
        "tags": {
          "amenity": "cafe",
          "cuisine": "sandwich",
          "name": "Daily Bread"
        }
      },
      {
        "type": "node",
        "id": 2357184843,
        "lat": 12.9064308,
        "lon": 77.5968652,
        "tags": {
          "amenity": "restaurant",
          "cuisine": "kebab",
          "name": "Barbeque Nation",
          "phone": "+918060600002",
          "website": "https://www.barbeque-nation.com/"
        }
      },
      {
        "type": "node",
        "id": 2357184845,
        "lat": 12.9061118,
        "lon": 77.5967632,
        "tags": {
          "amenity": "fast_food",
          "brand": "Au Bon Pain",
          "brand:wikidata": "Q4818942",
          "cuisine": "sandwich",
          "internet_access": "yes",
          "name": "Au Bon Pain",
          "takeaway": "yes"
        }
      },
      {
        "type": "node",
        "id": 2357184846,
        "lat": 12.9061458,
        "lon": 77.5968786,
        "tags": {
          "amenity": "fast_food",
          "brand": "Domino's",
          "brand:ks": "\u0688\u0648\u0645\u06cc\u0646\u0648\u0632",
          "brand:pa": "\u0a21\u0a4b\u0a2e\u0a40\u0a28\u0a4b\u0a1c\u0a3c",
          "brand:ur": "\u0688\u0648\u0645\u06cc\u0646\u0648\u0632",
          "brand:wikidata": "Q839466",
          "brand:wikipedia": "en:Domino's Pizza",
          "cuisine": "pizza",
          "name": "Domino's",
          "name:ks": "\u0688\u0648\u0645\u06cc\u0646\u0648\u0632",
          "name:pa": "\u0a21\u0a4b\u0a2e\u0a40\u0a28\u0a4b\u0a1c\u0a3c",
          "name:ur": "\u0688\u0648\u0645\u06cc\u0646\u0648\u0632",
          "takeaway": "yes"
        }
      },
      {
        "type": "node",
        "id": 2357184852,
        "lat": 12.9117616,
        "lon": 77.5990109,
        "tags": {
          "amenity": "restaurant",
          "cuisine": "regional",
          "name": "MTR 1924"
        }
      },
      {
        "type": "node",
        "id": 2357184857,
        "lat": 12.9114243,
        "lon": 77.5990217,
        "tags": {
          "amenity": "fast_food",
          "cuisine": "regional",
          "name": "Park View"
        }
      },
      {
        "type": "node",
        "id": 2901127015,
        "lat": 12.9117776,
        "lon": 77.6006489,
        "tags": {
          "addr:street": "2nd Main",
          "amenity": "restaurant",
          "cuisine": "indian",
          "name": "Udupi Krishna Vihar",
          "name:en": "Sri Chaitanya Grand",
          "smoking": "no",
          "wheelchair": "limited"
        }
      },
      {
        "type": "node",
        "id": 2918827908,
        "lat": 12.9099094,
        "lon": 77.5998609,
        "tags": {
          "amenity": "bank",
          "atm": "yes",
          "brand": "Yes Bank",
          "brand:wikidata": "Q2040394",
          "brand:wikipedia": "en:Yes Bank",
          "name": "Yes Bank",
          "name:en": "YES Bank",
          "name:kn": "\u0caf\u0cb8\u0ccd \u0cac\u0ccd\u0caf\u0cbe\u0c82\u0c95\u0ccd",
          "website": "https://www.yesbank.in"
        }
      },
      {
        "type": "node",
        "id": 2918828415,
        "lat": 12.9088379,
        "lon": 77.5999309,
        "tags": {
          "amenity": "bank",
          "brand": "Axis Bank",
          "brand:wikidata": "Q2003549",
          "brand:wikipedia": "en:Axis Bank",
          "name": "Axis Bank",
          "name:en": "Axis Bank",
          "name:kn": "\u0c86\u0c95\u0ccd\u0cb8\u0cbf\u0cb8\u0ccd \u0cac\u0ccd\u0caf\u0cbe\u0c82\u0c95\u0ccd",
          "website": "https://www.axisbank.com"
        }
      },
      {
        "type": "node",
        "id": 2934044446,
        "lat": 12.9162927,
        "lon": 77.5966944,
        "tags": {
          "amenity": "bank",
          "brand": "Indian Overseas Bank",
          "brand:wikidata": "Q2003611",
          "brand:wikipedia": "en:Indian Overseas Bank",
          "name": "Indian Overseas Bank",
          "name:en": "Indian Overseas Bank",
          "short_name": "IOB",
          "website": "https://www.iob.in"
        }
      },
      {
        "type": "node",
        "id": 2934044447,
        "lat": 12.9162385,
        "lon": 77.5970407,
        "tags": {
          "amenity": "restaurant",
          "cuisine": "indian",
          "name": "Kabab Magic"
        }
      },
      {
        "type": "node",
        "id": 2934044450,
        "lat": 12.9158974,
        "lon": 77.5967626,
        "tags": {
          "amenity": "restaurant",
          "cuisine": "indian",
          "name": "The Pongal"
        }
      },
      {
        "type": "node",
        "id": 3016052470,
        "lat": 12.9104179,
        "lon": 77.5950737,
        "tags": {
          "amenity": "bank",
          "atm": "no",
          "brand": "State Bank of India",
          "brand:wikidata": "Q1340361",
          "brand:wikipedia": "en:State Bank of India",
          "name": "State Bank of India",
          "name:kn": "\u0cad\u0cbe\u0cb0\u0ca4\u0cc0\u0caf \u0cb8\u0ccd\u0c9f\u0cc7\u0c9f\u0ccd \u0cac\u0ccd\u0caf\u0cbe\u0c82\u0c95\u0ccd",
          "operator": "State Bank of India",
          "short_name": "SBI"
        }
      },
      {
        "type": "node",
        "id": 3016090369,
        "lat": 12.9061288,
        "lon": 77.593146,
        "tags": {
          "amenity": "restaurant",
          "brand": "Pizza Hut",
          "brand:wikidata": "Q191615",
          "cuisine": "pizza",
          "name": "Pizza Hut",
          "name:kn": "\u0caa\u0cbf\u0c9f\u0ccd\u0cb8 \u0cb9\u0c9f\u0ccd"
        }
      },
      {
        "type": "node",
        "id": 3016090373,
        "lat": 12.9165191,
        "lon": 77.5987455,
        "tags": {
          "amenity": "atm",
          "brand": "Axis Bank",
          "brand:wikidata": "Q2003549",
          "name": "Axis Bank",
          "operator": "Axis Bank",
          "operator:wikidata": "Q2003549"
        }
      },
      {
        "type": "node",
        "id": 3022109715,
        "lat": 12.90602,
        "lon": 77.5937277,
        "tags": {
          "amenity": "cafe",
          "brand": "Starbucks",
          "brand:pa": "\u0a38\u0a1f\u0a3e\u0a30\u0a2c\u0a15\u0a38",
          "brand:ur": "\u0627\u0633\u0679\u0627\u0631\u0628\u06a9\u0633",
          "brand:wikidata": "Q37158",
          "brand:wikipedia": "en:Starbucks",
          "cuisine": "coffee_shop",
          "internet_access": "wlan",
          "level": "0",
          "name": "Starbucks",
          "name:kn": "\u0cb8\u0ccd\u0c9f\u0cbe\u0cb0\u0ccd\u0cac\u0c95\u0ccd\u0cb8\u0ccd",
          "name:pa": "\u0a38\u0a1f\u0a3e\u0a30\u0a2c\u0a15\u0a38",
          "name:ur": "\u0627\u0633\u0679\u0627\u0631\u0628\u06a9\u0633",
          "official_name": "Starbucks Coffee",
          "official_name:pa": "\u0a38\u0a1f\u0a3e\u0a30\u0a2c\u0a15\u0a38 \u0a15\u0a4c\u0a2b\u0a40",
          "official_name:ur": "\u0627\u0633\u0679\u0627\u0631\u0628\u06a9\u0633 \u06a9\u0627\u0641\u06cc",
          "outdoor_seating": "yes",
          "takeaway": "yes",
          "wheelchair": "no"
        }
      },
      {
        "type": "node",
        "id": 3024944754,
        "lat": 12.9061196,
        "lon": 77.5926081,
        "tags": {
          "amenity": "restaurant",
          "name": "Wangs Kitchen",
          "source": "survey"
        }
      },
      {
        "type": "node",
        "id": 3050185859,
        "lat": 12.9048841,
        "lon": 77.6016207,
        "tags": {
          "alt_name": "Kentucky Fried Chicken",
          "alt_name:en": "Kentucky Fried Chicken",
          "alt_name:hi": "\u0915\u0947\u0902\u091f\u0941\u0915\u0940 \u092b\u094d\u0930\u093e\u0907\u0921 \u091a\u093f\u0915\u0928",
          "alt_name:pa": "\u0a15\u0a48\u0a02\u0a1f\u0a41\u0a15\u0a40 \u0a2b\u0a4d\u0a30\u0a3e\u0a08\u0a21 \u0a1a\u0a3f\u0a15\u0a28",
          "alt_name:pnb": "\u06a9\u06cc\u0646\u0679\u06a9\u06cc \u0641\u0631\u0627\u0626\u06cc\u0688 \u0686\u06a9\u0646",
          "alt_name:ur": "\u06a9\u06cc\u0646\u0679\u06a9\u06cc \u0641\u0631\u0627\u0626\u06cc\u0688 \u0686\u06a9\u0646",
          "amenity": "fast_food",
          "brand": "KFC",
          "brand:en": "KFC",
          "brand:hi": "\u0915\u0947\u090f\u092b\u0938\u0940",
          "brand:pa": "\u0a15\u0a47\u0a10\u0a2b\u0a38\u0a40",
          "brand:pnb": "\u06a9\u06d2 \u0627\u06cc\u0641 \u0633\u06cc",
          "brand:ur": "\u06a9\u06d2 \u0627\u06cc\u0641 \u0633\u06cc",
          "brand:wikidata": "Q524757",
          "cuisine": "chicken",
          "name": "KFC",
          "name:en": "KFC",
          "name:hi": "\u0915\u0947\u090f\u092b\u0938\u0940",
          "name:pa": "\u0a15\u0a47\u0a10\u0a2b\u0a38\u0a40",
          "name:pnb": "\u06a9\u06d2 \u0627\u06cc\u0641 \u0633\u06cc",
          "name:ur": "\u06a9\u06d2 \u0627\u06cc\u0641 \u0633\u06cc",
          "source": "survey",
          "takeaway": "yes"
        }
      },
      {
        "type": "node",
        "id": 3050185861,
        "lat": 12.9025994,
        "lon": 77.601482,
        "tags": {
          "amenity": "bank",
          "atm": "yes",
          "brand": "State Bank of India",
          "brand:wikidata": "Q1340361",
          "brand:wikipedia": "en:State Bank of India",
          "name": "State Bank of India",
          "name:kn": "\u0cae\u0cc8\u0cb8\u0cc2\u0cb0\u0cc1 \u0cac\u0ccd\u0caf\u0cbe\u0c82\u0c95\u0ccd\u200c",
          "short_name": "SBI",
          "source": "survey",
          "website": "https://www.sbi.co.in"
        }
      },
      {
        "type": "node",
        "id": 3072185610,
        "lat": 12.9140657,
        "lon": 77.5949385,
        "tags": {
          "amenity": "bank",
          "atm": "no",
          "brand": "ICICI Bank",
          "brand:wikidata": "Q1653258",
          "name": "ICICI Bank",
          "name:en": "ICICI Bank",
          "name:kn": "\u0c90\u0cb8\u0cbf\u0c90\u0cb8\u0cbf\u0c90 \u0cac\u0ccd\u0caf\u0cbe\u0c82\u0c95\u0cc1",
          "operator": "ICICI Bank",
          "short_name": "ICICI",
          "website": "https://www.icicibank.com"
        }
      },
      {
        "type": "node",
        "id": 3221380822,
        "lat": 12.914181,
        "lon": 77.5949195,
        "tags": {
          "amenity": "bank",
          "atm": "yes",
          "brand": "Andhra Bank",
          "brand:wikidata": "Q2003476",
          "brand:wikipedia": "en:Andhra Bank",
          "name": "Andhra Bank",
          "name:en": "Andhra Bank",
          "name:kn": "\u0c86\u0c82\u0ca7\u0ccd\u0cb0 \u0cac\u0ccd\u0caf\u0cbe\u0c82\u0c95\u0ccd",
          "operator": "Andhra Bank",
          "website": "https://www.andhrabank.in"
        }
      },
      {
        "type": "node",
        "id": 3226809436,
        "lat": 12.9100858,
        "lon": 77.5920685,
        "tags": {
          "amenity": "bank",
          "atm": "yes",
          "brand": "ING",
          "brand:wikidata": "Q645708",
          "name": "ING",
          "operator": "ING"
        }
      },
      {
        "type": "node",
        "id": 3231750612,
        "lat": 12.9168242,
        "lon": 77.6037973,
        "tags": {
          "amenity": "atm",
          "brand": "Citibank",
          "brand:wikidata": "Q857063",
          "name": "Citibank",
          "operator": "Citibank",
          "operator:wikidata": "Q857063",
          "short_name": "Citi",
          "source": "Survey"
        }
      },
      {
        "type": "node",
        "id": 3231750613,
        "lat": 12.9168242,
        "lon": 77.6038323,
        "tags": {
          "amenity": "atm",
          "brand": "Kotak Mahindra Bank",
          "brand:wikidata": "Q2040404",
          "operator": "Kotak Mahindra Bank",
          "operator:wikidata": "Q2040404",
          "source": "Survey"
        }
      },
      {
        "type": "node",
        "id": 3231750614,
        "lat": 12.9168388,
        "lon": 77.6033703,
        "tags": {
          "amenity": "atm",
          "brand": "Karur Vysya Bank",
          "brand:wikidata": "Q6373724",
          "name": "Karur Vysya Bank",
          "operator": "Karur Vysya Bank",
          "operator:wikidata": "Q6373724",
          "source": "Survey"
        }
      },
      {
        "type": "node",
        "id": 3231750615,
        "lat": 12.9168388,
        "lon": 77.6034052,
        "tags": {
          "amenity": "atm",
          "brand": "State Bank of India",
          "brand:wikidata": "Q1340361",
          "name": "State Bank of India",
          "operator": "State Bank of India",
          "operator:wikidata": "Q1340361",
          "short_name": "SBI",
          "source": "Survey"
        }
      },
      {
        "type": "node",
        "id": 3401671688,
        "lat": 12.9115865,
        "lon": 77.6002227,
        "tags": {
          "amenity": "restaurant",
          "name": "Hotel Aradhana"
        }
      },
      {
        "type": "node",
        "id": 3401687013,
        "lat": 12.9123494,
        "lon": 77.6004812,
        "tags": {
          "addr:housename": "Commerce @ Mantri",
          "addr:street": "Bannerghatta Road",
          "brand": "Shoppers Stop",
          "brand:wikidata": "Q7501155",
          "level": "0",
          "name": "Shoppers Stop",
          "shop": "department_store",
          "website": "https://www.shoppersstop.com"
        }
      },
      {
        "type": "node",
        "id": 3401699861,
        "lat": 12.9109162,
        "lon": 77.600202,
        "tags": {
          "amenity": "fast_food",
          "cuisine": "kebab",
          "name": "New Kabab Zone"
        }
      },
      {
        "type": "node",
        "id": 3401699875,
        "lat": 12.9109842,
        "lon": 77.6001833,
        "tags": {
          "amenity": "fast_food",
          "name": "Brahmashree Juice and Condiments"
        }
      },
      {
        "type": "node",
        "id": 3403067273,
        "lat": 12.9110992,
        "lon": 77.6001886,
        "tags": {
          "amenity": "fast_food",
          "name": "Kebab"
        }
      },
      {
        "type": "node",
        "id": 3403067275,
        "lat": 12.9113058,
        "lon": 77.6001591,
        "tags": {
          "amenity": "restaurant",
          "building": "restaurant",
          "name": "Shri Lakshmi Darshini"
        }
      },
      {
        "type": "node",
        "id": 3403067459,
        "lat": 12.9112273,
        "lon": 77.6001377,
        "tags": {
          "amenity": "fast_food",
          "name": "Kebab"
        }
      },
      {
        "type": "node",
        "id": 3403067460,
        "lat": 12.9113345,
        "lon": 77.6001135,
        "tags": {
          "amenity": "restaurant",
          "building": "restaurant",
          "name": "Prasanna bar and restaurant"
        }
      },
      {
        "type": "node",
        "id": 3403067697,
        "lat": 12.9110469,
        "lon": 77.6001538,
        "tags": {
          "amenity": "fast_food",
          "name": "Kebab"
        }
      },
      {
        "type": "node",
        "id": 3407447891,
        "lat": 12.9099986,
        "lon": 77.5928725,
        "tags": {
          "amenity": "bank",
          "brand": "Punjab National Bank",
          "brand:wikidata": "Q2743499",
          "building": "bank",
          "description": "J.P.Nagar branch",
          "name": "Punjab National Bank",
          "name:kn": "\u0caa\u0c82\u0c9c\u0cbe\u0cac \u0cb0\u0cbe\u0cb7\u0ccd\u0c9f\u0ccd\u0cb0\u0cc0\u0caf \u0cac\u0ccd\u0caf\u0cbe\u0c82\u0c95\u0ccd"
        }
      },
      {
        "type": "node",
        "id": 3408154565,
        "lat": 12.9161526,
        "lon": 77.6001688,
        "tags": {
          "amenity": "restaurant",
          "name": "Amaan Restaurant"
        }
      },
      {
        "type": "node",
        "id": 3412353036,
        "lat": 12.9165473,
        "lon": 77.6001273,
        "tags": {
          "amenity": "fast_food",
          "building": "restaurant",
          "name": "Ambur Chicken Biriyani and Chinese food"
        }
      },
      {
        "type": "node",
        "id": 3422057411,
        "lat": 12.9103456,
        "lon": 77.6097988,
        "tags": {
          "amenity": "restaurant",
          "name": "Holy Smoke"
        }
      },
      {
        "type": "node",
        "id": 3424841452,
        "lat": 12.9079522,
        "lon": 77.6062306,
        "tags": {
          "amenity": "pharmacy",
          "healthcare": "pharmacy",
          "name": "Reddy's Pharma"
        }
      },
      {
        "type": "node",
        "id": 3424841457,
        "lat": 12.9090104,
        "lon": 77.606404,
        "tags": {
          "amenity": "pharmacy",
          "brand": "Apollo Pharmacy",
          "brand:wikidata": "Q62562612",
          "healthcare": "pharmacy",
          "name": "Apollo Pharmacy",
          "name:kn": "\u0c85\u0caa\u0ccb\u0cb2\u0ccb \u0cab\u0cbe\u0cb0\u0ccd\u0cae\u0cb8\u0cbf"
        }
      },
      {
        "type": "node",
        "id": 4254309393,
        "lat": 12.916485,
        "lon": 77.5982924,
        "tags": {
          "addr:housenumber": "118/47",
          "addr:postcode": "560067",
          "addr:street": "Marenahalli Road",
          "amenity": "restaurant",
          "cuisine": "arab",
          "name": "AL-BEK"
        }
      },
      {
        "type": "node",
        "id": 4321212103,
        "lat": 12.9104062,
        "lon": 77.5951099,
        "tags": {
          "amenity": "atm",
          "brand": "State Bank of India",
          "brand:wikidata": "Q1340361",
          "check_date": "2024-12-28",
          "name": "State Bank of India",
          "operator": "State Bank of India",
          "operator:wikidata": "Q1340361",
          "short_name": "SBI"
        }
      },
      {
        "type": "node",
        "id": 4321280396,
        "lat": 12.9100655,
        "lon": 77.5921205,
        "tags": {
          "amenity": "bank",
          "brand": "Kotak Mahindra Bank",
          "brand:wikidata": "Q2040404",
          "name": "Kotak Mahindra Bank"
        }
      },
      {
        "type": "node",
        "id": 4321288192,
        "lat": 12.9061034,
        "lon": 77.5920152,
        "tags": {
          "addr:street": "Outer Ring Road",
          "amenity": "cafe",
          "name": "Pipe Yard"
        }
      },
      {
        "type": "node",
        "id": 4443260812,
        "lat": 12.9077046,
        "lon": 77.6080359,
        "tags": {
          "addr:city": "Bangalore",
          "addr:housenumber": "12, 17th Cross",
          "addr:postcode": "560076",
          "addr:street": "13th Main Road, 2nd Stage, BTM",
          "amenity": "restaurant",
          "cuisine": "regional",
          "name": "North Indian Restaurant",
          "opening_hours": "09:00-00:30",
          "smoking": "no"
        }
      },
      {
        "type": "node",
        "id": 4443267488,
        "lat": 12.9153987,
        "lon": 77.6010351,
        "tags": {
          "addr:city": "Bangalore",
          "addr:housenumber": "1st Main Road",
          "addr:postcode": "560076",
          "addr:street": "Opp Vijaya Bank, Bannerghatta Road, Bangalore",
          "amenity": "restaurant",
          "cuisine": "regional",
          "name": "Paratha Junction",
          "opening_hours": "10:00-23:00",
          "smoking": "no"
        }
      },
      {
        "type": "node",
        "id": 4444988626,
        "lat": 12.9060641,
        "lon": 77.6049776,
        "tags": {
          "addr:city": "bangalore",
          "addr:housenumber": "#349/352/6/1/1",
          "addr:postcode": "560070",
          "addr:street": "Main Road, Chandra Layout, Vijayanagar,",
          "amenity": "hospital",
          "healthcare": "hospital",
          "name": "Anurag Medical Centre"
        }
      },
      {
        "type": "node",
        "id": 4445973784,
        "lat": 12.9003193,
        "lon": 77.6008061,
        "tags": {
          "addr:city": "Bangalore",
          "addr:housenumber": "2nd Cross Rd",
          "addr:postcode": "560076",
          "addr:street": "Bannerghatta Road",
          "amenity": "hospital",
          "emergency": "yes",
          "name": "Parimala Health Care",
          "phone": "080 2658 3117"
        }
      },
      {
        "type": "node",
        "id": 4447353516,
        "lat": 12.91032,
        "lon": 77.5935628,
        "tags": {
          "addr:city": "Bangalore",
          "addr:housenumber": "213",
          "addr:postcode": "560078",
          "addr:street": "9th Cross Road",
          "amenity": "pharmacy",
          "check_date": "2025-06-21",
          "fixme": "the name doesn't sound very pharmacy like, also there are ambulances here",
          "healthcare": "pharmacy",
          "name": "Trinity Diagnostic And Imaging Research Centre",
          "phone": "080 2658 1757",
          "source": "justdial"
        }
      },
      {
        "type": "node",
        "id": 4447978869,
        "lat": 12.9009278,
        "lon": 77.5986641,
        "tags": {
          "addr:city": "Bangalore",
          "addr:postcode": "560076",
          "addr:street": "Bannerghatta Road, Near Kalyani Kala Mantap, Bilekahalli, 2nd Cross Rd,, Ram Shetty Nagar, Bilekahalli",
          "amenity": "hospital",
          "emergency": "yes",
          "name": "Parimala Health Care",
          "phone": "080 2658 3117",
          "source": "http://www.justdial.com/Bangalore/"
        }
      },
      {
        "type": "node",
        "id": 4489093093,
        "lat": 12.9164708,
        "lon": 77.6047081,
        "tags": {
          "addr:city": "Bengaluru",
          "addr:housenumber": "55/373/2",
          "addr:postcode": "560076",
          "addr:street": "BTM layout",
          "brand": "Reliance Fresh",
          "brand:wikidata": "Q7311014",
          "name": "Reliance Fresh",
          "name:kn": "\u0cb0\u0cbf\u0cb2\u0cbe\u0caf\u0ca8\u0ccd\u0cb8\u0ccd \u0cab\u0ccd\u0cb0\u0cc6\u0cb6\u0ccd",
          "phone": "(91)-80-41573392",
          "shop": "supermarket"
        }
      },
      {
        "type": "node",
        "id": 4586768489,
        "lat": 12.9148191,
        "lon": 77.5982088,
        "tags": {
          "amenity": "fast_food",
          "name": "Brahmins Special",
          "name:en": "Brahmins Special"
        }
      },
      {
        "type": "node",
        "id": 4946500324,
        "lat": 12.9139703,
        "lon": 77.6060989,
        "tags": {
          "addr:housenumber": "294",
          "addr:postcode": "560076",
          "addr:street": "7th Main Road",
          "amenity": "fast_food",
          "brand": "Subway",
          "brand:wikidata": "Q244457",
          "check_date": "2023-12-27",
          "cuisine": "sandwich",
          "drive_through": "no",
          "internet_access": "no",
          "name": "Subway",
          "opening_hours": "PH,Mo-Su 09:30-21:30",
          "payment:cash": "yes",
          "payment:credit_cards": "yes",
          "payment:debit_cards": "yes",
          "takeaway": "yes",
          "wheelchair": "limited"
        }
      },
      {
        "type": "node",
        "id": 5273034143,
        "lat": 12.904966,
        "lon": 77.6016531,
        "tags": {
          "amenity": "restaurant",
          "name": "Nagarjuna Andhra Style"
        }
      },
      {
        "type": "node",
        "id": 5402224046,
        "lat": 12.9077496,
        "lon": 77.6008578,
        "tags": {
          "addr:city": "Bengaluru",
          "addr:postcode": "560076",
          "addr:street": "Bannerghatta Road",
          "brand": "Spar",
          "brand:wikidata": "Q610492",
          "brand:wikipedia": "en:Spar (retailer)",
          "check_date": "2025-08-26",
          "name": "Spar",
          "opening_hours": "Mo-Su 10:00-21:00",
          "organic": "yes",
          "payment:credit_cards": "yes",
          "payment:mastercard": "yes",
          "shop": "supermarket",
          "website": "https://www.sparindia.com/"
        }
      },
      {
        "type": "node",
        "id": 5402224048,
        "lat": 12.9060155,
        "lon": 77.5958706,
        "tags": {
          "amenity": "fast_food",
          "brand": "Domino's",
          "brand:ks": "\u0688\u0648\u0645\u06cc\u0646\u0648\u0632",
          "brand:pa": "\u0a21\u0a4b\u0a2e\u0a40\u0a28\u0a4b\u0a1c\u0a3c",
          "brand:ur": "\u0688\u0648\u0645\u06cc\u0646\u0648\u0632",
          "brand:wikidata": "Q839466",
          "brand:wikipedia": "en:Domino's Pizza",
          "check_date": "2023-10-28",
          "cuisine": "pizza",
          "level": "0",
          "name": "Domino's",
          "name:ks": "\u0688\u0648\u0645\u06cc\u0646\u0648\u0632",
          "name:pa": "\u0a21\u0a4b\u0a2e\u0a40\u0a28\u0a4b\u0a1c\u0a3c",
          "name:ur": "\u0688\u0648\u0645\u06cc\u0646\u0648\u0632",
          "takeaway": "yes",
          "wheelchair": "no"
        }
      },
      {
        "type": "node",
        "id": 5402307945,
        "lat": 12.9004703,
        "lon": 77.6011552,
        "tags": {
          "amenity": "restaurant"
        }
      },
      {
        "type": "node",
        "id": 6079796527,
        "lat": 12.9020805,
        "lon": 77.6008605,
        "tags": {
          "amenity": "bank",
          "brand": "State Bank of India",
          "brand:wikidata": "Q1340361",
          "name": "State Bank of India",
          "name:kn": "\u0cad\u0cbe\u0cb0\u0ca4\u0cc0\u0caf \u0cb8\u0ccd\u0c9f\u0cc7\u0c9f\u0ccd \u0cac\u0ccd\u0caf\u0cbe\u0c82\u0c95\u0ccd",
          "short_name": "SBI"
        }
      },
      {
        "type": "node",
        "id": 6298960985,
        "lat": 12.9056713,
        "lon": 77.6039543,
        "tags": {
          "amenity": "restaurant",
          "cuisine": "South_Indian",
          "diet:vegetarian": "yes",
          "name": "Sattvik Udupi Uphar",
          "outdoor_seating": "no"
        }
      },
      {
        "type": "node",
        "id": 6298964736,
        "lat": 12.9055794,
        "lon": 77.6052372,
        "tags": {
          "amenity": "cafe",
          "brand": "Cafe Coffee Day",
          "brand:wikidata": "Q5017235",
          "brand:wikipedia": "en:Caf\u00e9 Coffee Day",
          "cuisine": "coffee_shop",
          "name": "Cafe Coffee Day",
          "name:kn": "\u0c95\u0cab\u0cc6 \u0c95\u0cbe\u0cab\u0cbf \u0ca1\u0cc7",
          "takeaway": "yes"
        }
      },
      {
        "type": "node",
        "id": 6298973771,
        "lat": 12.9035992,
        "lon": 77.6019963,
        "tags": {
          "amenity": "restaurant",
          "diet:vegetarian": "yes",
          "name": "Kalpavruksha",
          "name:kn": "\u0c95\u0cb2\u0ccd\u0caa\u0cb5\u0cc3\u0c95\u0ccd\u0cb7"
        }
      },
      {
        "type": "node",
        "id": 6312254292,
        "lat": 12.9032477,
        "lon": 77.6026985,
        "tags": {
          "amenity": "atm",
          "brand": "Indian Bank",
          "brand:wikidata": "Q2003789",
          "currency:INR": "yes",
          "drive_through": "no",
          "name": "Indian Bank",
          "name:kn": "\u0c87\u0c82\u0ca1\u0cbf\u0caf\u0ca8\u0ccd \u0cac\u0ccd\u0caf\u0cbe\u0c82\u0c95\u0ccd",
          "operator": "Indian Bank",
          "operator:wikidata": "Q2003789"
        }
      },
      {
        "type": "node",
        "id": 6938741378,
        "lat": 12.9122295,
        "lon": 77.5994906,
        "tags": {
          "addr:district": "Bengaluru Urban",
          "addr:full": "C K Emerald, No-10,N S Palya Kaveriappa Industrial Area, Bannergatta Road",
          "addr:postcode": "560076",
          "addr:state": "Karnataka",
          "amenity": "hospital",
          "healthcare": "hospital",
          "name": "Dr Agarwals Eye Hospital Ltd",
          "operator": "Dr. Agarwal's Eye Hospital",
          "operator:type": "private",
          "operator:wikidata": "Q17052044",
          "source": "OpenGovernmentData"
        }
      },
      {
        "type": "node",
        "id": 6939642200,
        "lat": 12.9064778,
        "lon": 77.5959125,
        "tags": {
          "addr:district": "Bengaluru Urban",
          "addr:full": "3rd Phase, 633, 100 Feet Ring Road, J.P.Nagar",
          "addr:postcode": "560078",
          "addr:state": "Karnataka",
          "amenity": "clinic",
          "email": "info@shekarnethralaya.com",
          "healthcare:speciality": "Ophthalmology; Pediatric Ophthalmology; Plastic Surgery",
          "name": "Shekar Nethralaya, Bengaluru Urban",
          "operator:type": "private",
          "source": "OpenGovernmentData",
          "website": "www.shekarnethralaya.com"
        }
      },
      {
        "type": "node",
        "id": 6944290483,
        "lat": 12.9144587,
        "lon": 77.6003156,
        "tags": {
          "addr:district": "Bengaluru Urban",
          "addr:full": "# 33, Bannerghatta Road (Service Road), B.T.M.Layout B.T.M. Layout 2nd Stage",
          "addr:postcode": "560076",
          "addr:state": "Karnataka",
          "amenity": "hospital",
          "name": "Sri Sai Ram Hospital - Bangalore",
          "source": "OpenGovernmentData"
        }
      },
      {
        "type": "node",
        "id": 6944507681,
        "lat": 12.9004567,
        "lon": 77.6005474,
        "tags": {
          "addr:district": "Bengaluru Urban",
          "addr:full": "12/13, Bilekahalli, Bannerghatta Road",
          "addr:postcode": "560076",
          "addr:state": "Karnataka",
          "amenity": "hospital",
          "healthcare": "hospital",
          "name": "Parimala Speciality Hospital",
          "operator:type": "private",
          "source": "OpenGovernmentData",
          "website": "https://www.parimalahospital.com/"
        }
      },
      {
        "type": "node",
        "id": 6947707900,
        "lat": 12.9164779,
        "lon": 77.6033811,
        "tags": {
          "addr:district": "Bengaluru Urban",
          "addr:full": "# 68, 1st Floor, 100 Ft. Ring Road, 2nd Stage, B.T.M. Layout",
          "addr:postcode": "560076",
          "addr:state": "Karnataka",
          "amenity": "clinic",
          "name": "Vinayaka Nethralaya",
          "name:kn": "\u0cb5\u0cbf\u0ca8\u0cbe\u0caf\u0c95 \u0ca8\u0cc7\u0ca4\u0ccd\u0cb0\u0cbe\u0cb2\u0caf",
          "source": "OpenGovernmentData"
        }
      },
      {
        "type": "node",
        "id": 7109544853,
        "lat": 12.9065609,
        "lon": 77.5952791,
        "tags": {
          "addr:postcode": "560078",
          "addr:street": "Outer Ring Road",
          "amenity": "bank",
          "atm": "yes",
          "name": "Apex Bank",
          "name:kn": "\u0c8f\u0caa\u0cc6\u0c95\u0ccd\u0cb8\u0ccd \u0cac\u0ccd\u0caf\u0cbe\u0c82\u0c95\u0ccd",
          "operator": "Govt of Karnataka"
        }
      },
      {
        "type": "node",
        "id": 7389053980,
        "lat": 12.9123595,
        "lon": 77.6067215,
        "tags": {
          "amenity": "clinic",
          "healthcare": "clinic",
          "healthcare:speciality": "orthopaedics",
          "name": "Ortho Centre Clinic",
          "opening_hours": "Mo-Sa 09:00-21:00"
        }
      },
      {
        "type": "node",
        "id": 7389053983,
        "lat": 12.9138357,
        "lon": 77.607426,
        "tags": {
          "amenity": "pharmacy",
          "dispensing": "yes",
          "healthcare": "pharmacy",
          "name": "Nandi Pharma",
          "opening_hours": "PH,Mo-Su 10:00-22:00"
        }
      },
      {
        "type": "node",
        "id": 7389069386,
        "lat": 12.9135395,
        "lon": 77.6065388,
        "tags": {
          "amenity": "restaurant",
          "cuisine": "indian",
          "name": "Dhansagar",
          "opening_hours": "Mo-Su 10:00-21:00"
        }
      },
      {
        "type": "node",
        "id": 7389069391,
        "lat": 12.9134456,
        "lon": 77.6051098,
        "tags": {
          "addr:floor": "G",
          "addr:postcode": "560076",
          "amenity": "pharmacy",
          "brand": "MedPlus",
          "brand:wikidata": "Q65684234",
          "brand:wikipedia": "en:MedPlus",
          "check_date": "2023-12-27",
          "dispensing": "yes",
          "drive_through": "no",
          "healthcare": "pharmacy",
          "internet_access": "no",
          "level": "0",
          "name": "MedPlus",
          "opening_hours": "PH,Mo-Su 08:00-23:00",
          "payment:cash": "yes",
          "payment:credit_cards": "yes",
          "payment:debit_cards": "yes",
          "source": "local knowledge",
          "wheelchair": "limited"
        }
      },
      {
        "type": "node",
        "id": 7579924707,
        "lat": 12.9147481,
        "lon": 77.6063204,
        "tags": {
          "addr:district": "Bengaluru Urban",
          "addr:full": "BTM Layout, Bengaluru",
          "addr:postcode": "560076",
          "addr:state": "Karnataka",
          "amenity": "clinic",
          "healthcare": "clinic",
          "name": "Daivik Clinic",
          "source": "Local Knowledge"
        }
      },
      {
        "type": "node",
        "id": 7579924720,
        "lat": 12.913031,
        "lon": 77.6034614,
        "tags": {
          "addr:district": "Bengaluru Urban",
          "addr:full": "Bengaluru",
          "addr:postcode": "560076",
          "addr:state": "Karnataka",
          "amenity": "clinic",
          "name": "Disney Family Clinic",
          "source": "Local Knowledge"
        }
      },
      {
        "type": "node",
        "id": 7579924728,
        "lat": 12.9053197,
        "lon": 77.6030568,
        "tags": {
          "addr:district": "Bengaluru Urban",
          "addr:full": "BTM Layout, Bengaluru",
          "addr:postcode": "560076",
          "addr:state": "Karnataka",
          "amenity": "doctors",
          "healthcare": "doctor",
          "name": "Dr. Revathi Prasad",
          "source": "Local Knowledge"
        }
      },
      {
        "type": "node",
        "id": 7579924731,
        "lat": 12.9136262,
        "lon": 77.6045369,
        "tags": {
          "addr:district": "Bengaluru Urban",
          "addr:floor": "3",
          "addr:full": "BTM, Bengaluru",
          "addr:postcode": "560076",
          "addr:state": "Karnataka",
          "amenity": "hospital",
          "check_date": "2023-12-27",
          "emergency": "no",
          "healthcare": "hospital",
          "internet_access": "no",
          "level": "3",
          "name": "Marigold Hospital",
          "operator:type": "private",
          "payment:cash": "yes",
          "payment:credit_cards": "yes",
          "payment:debit_cards": "yes",
          "source": "Local Knowledge",
          "wheelchair": "limited"
        }
      },
      {
        "type": "node",
        "id": 7579924741,
        "lat": 12.9138294,
        "lon": 77.6070373,
        "tags": {
          "addr:district": "Bengaluru Urban",
          "addr:full": "Mico Layout, Bengaluru",
          "addr:postcode": "560076",
          "addr:state": "Karnataka",
          "amenity": "clinic",
          "healthcare": "clinic",
          "name": "Nisa Multi Speciality Clinics",
          "opening_hours": "Mo-Sa 10:00-22:00",
          "source": "Local Knowledge"
        }
      },
      {
        "type": "node",
        "id": 7579924749,
        "lat": 12.907377,
        "lon": 77.6040762,
        "tags": {
          "addr:district": "Bengaluru Urban",
          "addr:full": "Abbaappa Layout, BTM Layout, Bengaluru",
          "addr:postcode": "560076",
          "addr:state": "Karnataka",
          "amenity": "clinic",
          "healthcare": "clinic",
          "name": "Ashya Clinic",
          "source": "Local Knowledge"
        }
      },
      {
        "type": "node",
        "id": 7579924753,
        "lat": 12.9159348,
        "lon": 77.6034098,
        "tags": {
          "addr:district": "Bengaluru Urban",
          "addr:full": "Bannerghatta Main Road, BTM, Bengaluru",
          "addr:postcode": "560076",
          "addr:state": "Karnataka",
          "amenity": "hospital",
          "healthcare": "hospital",
          "name": "Pothys Hospital",
          "source": "Local Knowledge"
        }
      },
      {
        "type": "node",
        "id": 7579924769,
        "lat": 12.912832,
        "lon": 77.605728,
        "tags": {
          "addr:district": "Bengaluru Urban",
          "addr:full": "BTM Layout, Bengaluru",
          "addr:postcode": "560076",
          "addr:state": "Karnataka",
          "amenity": "clinic",
          "healthcare": "clinic",
          "name": "Anugraha Clinic",
          "source": "Local Knowledge"
        }
      },
      {
        "type": "node",
        "id": 7579924782,
        "lat": 12.9082942,
        "lon": 77.6050646,
        "tags": {
          "addr:district": "Bengaluru Urban",
          "addr:full": "Mahadeshwara Nagar, BTM, Bengaluru",
          "addr:postcode": "560076",
          "addr:state": "Karnataka",
          "amenity": "clinic",
          "healthcare": "clinic",
          "name": "Bharat Clinic",
          "source": "Local Knowledge"
        }
      },
      {
        "type": "node",
        "id": 9102882915,
        "lat": 12.9141809,
        "lon": 77.6062896,
        "tags": {
          "amenity": "restaurant",
          "bar": "no",
          "brand": "Pizza Hut",
          "brand:wikidata": "Q191615",
          "brand:wikipedia": "en:Pizza Hut",
          "brewery": "no",
          "cuisine": "pizza",
          "delivery": "yes",
          "highchair": "yes",
          "microbrewery": "no",
          "name": "Pizza Hut",
          "opening_hours": "Mo-Su 10:00-21:00",
          "outdoor_seating": "no",
          "payment:cash": "yes",
          "payment:credit_cards": "yes",
          "payment:debit_cards": "yes",
          "reservation": "no",
          "smoking": "no",
          "source": "local knowledge",
          "takeaway": "yes",
          "toilets": "yes",
          "toilets:wheelchair": "limited",
          "wheelchair": "limited"
        }
      },
      {
        "type": "node",
        "id": 9102904801,
        "lat": 12.913395,
        "lon": 77.604436,
        "tags": {
          "amenity": "atm",
          "brand": "HDFC Bank",
          "brand:wikidata": "Q631047",
          "brand:wikipedia": "en:HDFC Bank",
          "name": "HDFC Bank",
          "name:kn": "\u0c8e\u0c9a\u0ccd \u0ca1\u0cbf \u0c8e\u0cab\u0ccd \u0cb8\u0cbf",
          "operator": "HDFC Bank",
          "operator:wikidata": "Q631047",
          "operator:wikipedia": "en:HDFC Bank",
          "short_name": "HDFC"
        }
      },
      {
        "type": "node",
        "id": 9102904802,
        "lat": 12.913395,
        "lon": 77.6044106,
        "tags": {
          "amenity": "bank",
          "brand": "HDFC Bank",
          "brand:wikidata": "Q631047",
          "brand:wikipedia": "en:HDFC Bank",
          "name": "HDFC Bank",
          "name:kn": "\u0c8e\u0c9a\u0ccd \u0ca1\u0cbf \u0c8e\u0cab\u0ccd \u0cb8\u0cbf",
          "opening_hours": "Mo-Sa 10:00-16:00",
          "short_name": "HDFC"
        }
      },
      {
        "type": "node",
        "id": 9159982974,
        "lat": 12.9133887,
        "lon": 77.6043111,
        "tags": {
          "amenity": "bank",
          "brand": "State Bank of India",
          "brand:wikidata": "Q1340361",
          "brand:wikipedia": "en:State Bank of India",
          "name": "State Bank of India",
          "opening_hours": "Mo-Sa 11:00-16:00",
          "short_name": "SBI"
        }
      },
      {
        "type": "node",
        "id": 9159982975,
        "lat": 12.9133861,
        "lon": 77.6043326,
        "tags": {
          "amenity": "atm",
          "brand": "State Bank of India",
          "brand:wikidata": "Q1340361",
          "brand:wikipedia": "en:State Bank of India",
          "name": "State Bank of India",
          "operator": "State Bank of India",
          "operator:wikidata": "Q1340361",
          "operator:wikipedia": "en:State Bank of India",
          "short_name": "SBI"
        }
      },
      {
        "type": "node",
        "id": 9165209208,
        "lat": 12.9138932,
        "lon": 77.6060959,
        "tags": {
          "addr:floor": "G",
          "air_conditioning": "no",
          "amenity": "restaurant",
          "bar": "no",
          "brewery": "no",
          "check_date": "2023-12-27",
          "cuisine": "indian;regional",
          "delivery": "yes",
          "diet:vegetarian": "yes",
          "highchair": "yes",
          "internet_access": "no",
          "level": "0",
          "microbrewery": "no",
          "name": "Sri Krishna Sagar",
          "opening_hours": "PH,Mo-Su 09:00-22:00",
          "outdoor_seating": "no",
          "payment:cash": "yes",
          "payment:credit_cards": "yes",
          "payment:debit_cards": "yes",
          "reservation": "no",
          "smoking": "no",
          "source": "local knowledge",
          "takeaway": "yes",
          "toilets": "no",
          "toilets:wheelchair": "no",
          "wheelchair": "limited"
        }
      },
      {
        "type": "node",
        "id": 9165273183,
        "lat": 12.9136612,
        "lon": 77.6076138,
        "tags": {
          "amenity": "pharmacy",
          "healthcare": "pharmacy",
          "name": "Om Medicals",
          "opening_hours": "PH,Mo-Su 10:00-22:00"
        }
      },
      {
        "type": "node",
        "id": 9165273184,
        "lat": 12.9136456,
        "lon": 77.6073952,
        "tags": {
          "amenity": "atm",
          "brand": "IndusInd Bank",
          "brand:wikidata": "Q2040323",
          "brand:wikipedia": "en:IndusInd Bank",
          "check_date": "2023-10-15",
          "name": "IndusInd Bank",
          "name:kn": "\u0c87\u0c82\u0ca1\u0cb8\u0ccd\u0c87\u0c82\u0ca1\u0ccd",
          "operator": "IndusInd Bank",
          "operator:wikidata": "Q2040323",
          "operator:wikipedia": "en:IndusInd Bank"
        }
      },
      {
        "type": "node",
        "id": 9173864225,
        "lat": 12.9126995,
        "lon": 77.6064081,
        "tags": {
          "amenity": "bank",
          "atm": "yes",
          "brand": "Indian Bank",
          "brand:wikidata": "Q2003789",
          "name": "Indian Bank",
          "opening_hours": "Mo-Sa 11:00-17:00"
        }
      },
      {
        "type": "node",
        "id": 9174380012,
        "lat": 12.9136459,
        "lon": 77.6049936,
        "tags": {
          "addr:housenumber": "246",
          "addr:street": "7th Cross Road",
          "amenity": "fast_food",
          "name": "Eat Again",
          "opening_hours": "Mo-Su 11:00-22:00"
        }
      },
      {
        "type": "node",
        "id": 9174380013,
        "lat": 12.9134524,
        "lon": 77.605455,
        "tags": {
          "amenity": "bank",
          "brand": "Bank of Maharashtra",
          "brand:wikidata": "Q2004304",
          "brand:wikipedia": "en:Bank of Maharashtra",
          "name": "Bank of Maharashtra"
        }
      },
      {
        "type": "node",
        "id": 9892036252,
        "lat": 12.9068098,
        "lon": 77.5995603,
        "tags": {
          "amenity": "restaurant",
          "name": "Klayworkz Barista"
        }
      },
      {
        "type": "node",
        "id": 10051816951,
        "lat": 12.9070051,
        "lon": 77.5982256,
        "tags": {
          "amenity": "restaurant",
          "name": "The Studs Sports Bar + Grill"
        }
      },
      {
        "type": "node",
        "id": 10302703775,
        "lat": 12.9077667,
        "lon": 77.6012689,
        "tags": {
          "amenity": "fast_food",
          "brand": "Popeyes",
          "brand:wikidata": "Q1330910",
          "brand:wikipedia": "en:Popeyes",
          "check_date": "2025-08-26",
          "cuisine": "chicken",
          "delivery": "yes",
          "indoor_seating": "yes",
          "name": "Popeyes",
          "official_name": "Popeyes Louisiana Kitchen",
          "outdoor_seating": "no",
          "payment:cash": "yes",
          "payment:credit_cards": "yes",
          "payment:debit_cards": "yes",
          "takeaway": "yes",
          "website": "https://www.popeyes.in/",
          "wheelchair": "yes"
        }
      },
      {
        "type": "node",
        "id": 10697707069,
        "lat": 12.9047312,
        "lon": 77.6014844,
        "tags": {
          "air_conditioning": "yes",
          "amenity": "restaurant",
          "cuisine": "indian",
          "diet:vegetarian": "yes",
          "indoor_seating": "yes",
          "name": "Nagarjuna",
          "outdoor_seating": "no"
        }
      },
      {
        "type": "node",
        "id": 11048973795,
        "lat": 12.9101235,
        "lon": 77.5953898,
        "tags": {
          "amenity": "bank",
          "brand": "CSB Bank",
          "brand:wikidata": "Q5053244",
          "name": "CSB Bank",
          "official_name": "Catholic Syrian Bank"
        }
      },
      {
        "type": "node",
        "id": 11162603758,
        "lat": 12.9100271,
        "lon": 77.5953771,
        "tags": {
          "amenity": "restaurant",
          "name": "Vyana World Cuisine",
          "website": "https://thevyana.com"
        }
      },
      {
        "type": "node",
        "id": 11164777495,
        "lat": 12.9141742,
        "lon": 77.5995886,
        "tags": {
          "amenity": "fast_food",
          "brand": "Taco Bell",
          "brand:wikidata": "Q752941",
          "check_date": "2023-09-03",
          "cuisine": "tex-mex",
          "name": "Taco Bell",
          "source": "survey",
          "takeaway": "yes"
        }
      },
      {
        "type": "node",
        "id": 11201322521,
        "lat": 12.9107075,
        "lon": 77.5992431,
        "tags": {
          "amenity": "restaurant",
          "check_date": "2023-09-19",
          "cuisine": "indian;seafood",
          "name": "Check Post",
          "opening_hours": "11:00-23:00",
          "payment:mastercard": "yes",
          "payment:visa": "yes"
        }
      },
      {
        "type": "node",
        "id": 11279857284,
        "lat": 12.9165053,
        "lon": 77.602323,
        "tags": {
          "amenity": "fast_food",
          "name": "SLV Juice & Chats"
        }
      },
      {
        "type": "node",
        "id": 11279857285,
        "lat": 12.9165053,
        "lon": 77.6020816,
        "tags": {
          "amenity": "cafe",
          "name": "The Startup Cafe"
        }
      },
      {
        "type": "node",
        "id": 11289658363,
        "lat": 12.9137332,
        "lon": 77.6058898,
        "tags": {
          "amenity": "fast_food",
          "cuisine": "burger",
          "name": "Biggies Burger"
        }
      },
      {
        "type": "node",
        "id": 11290256856,
        "lat": 12.9132656,
        "lon": 77.6057264,
        "tags": {
          "amenity": "clinic",
          "healthcare": "clinic",
          "healthcare:speciality": "urology",
          "name": "Urocare Urology Superspeciality Clinic"
        }
      },
      {
        "type": "node",
        "id": 11290812040,
        "lat": 12.9136069,
        "lon": 77.6040059,
        "tags": {
          "amenity": "restaurant",
          "cuisine": "indian",
          "name": "Roti Wala"
        }
      },
      {
        "type": "node",
        "id": 11290812041,
        "lat": 12.9136855,
        "lon": 77.6051806,
        "tags": {
          "amenity": "cafe",
          "name": "Third Wave Coffee"
        }
      },
      {
        "type": "node",
        "id": 11291647624,
        "lat": 12.9136049,
        "lon": 77.606949,
        "tags": {
          "amenity": "pharmacy",
          "healthcare": "pharmacy",
          "name": "Life Care Medicals"
        }
      },
      {
        "type": "node",
        "id": 11291647625,
        "lat": 12.9136053,
        "lon": 77.6070457,
        "tags": {
          "amenity": "clinic",
          "healthcare": "clinic",
          "healthcare:speciality": "otolaryngology",
          "name": "Smruthi ENT Clinic & Multispeciality Centre"
        }
      },
      {
        "type": "node",
        "id": 11293201589,
        "lat": 12.9061135,
        "lon": 77.5934146,
        "tags": {
          "addr:city": "Bangalore",
          "addr:full": "#312, 15th Cross Road, 3rd floor, JP Nagar 5th Phase, Bangalore - 560078",
          "addr:housenumber": "312",
          "addr:postcode": "560078",
          "addr:street": "15th Cross Road",
          "addr:suburb": "JP Nagar 5th Phase",
          "amenity": "restaurant",
          "contact:mobile": "+91-70224-50852",
          "cuisine": "korean",
          "level": "3",
          "name": "Kimchi",
          "wheelchair": "limited"
        }
      },
      {
        "type": "node",
        "id": 11293484209,
        "lat": 12.9065628,
        "lon": 77.5925599,
        "tags": {
          "amenity": "restaurant",
          "level": "2",
          "name": "154 Breakfast Club"
        }
      },
      {
        "type": "node",
        "id": 11294646353,
        "lat": 12.9149556,
        "lon": 77.5949412,
        "tags": {
          "amenity": "fast_food",
          "name": "Welcome Upahara"
        }
      },
      {
        "type": "node",
        "id": 11296562017,
        "lat": 12.9070559,
        "lon": 77.6003303,
        "tags": {
          "amenity": "restaurant",
          "name": "Millenials"
        }
      },
      {
        "type": "node",
        "id": 11296562018,
        "lat": 12.9060834,
        "lon": 77.5953108,
        "tags": {
          "amenity": "restaurant",
          "brand": "Pizza Hut",
          "brand:wikidata": "Q191615",
          "cuisine": "pizza",
          "level": "0",
          "name": "Pizza Hut",
          "wheelchair": "no"
        }
      },
      {
        "type": "node",
        "id": 11296562019,
        "lat": 12.9059837,
        "lon": 77.596215,
        "tags": {
          "amenity": "restaurant",
          "cuisine": "pizza",
          "level": "0",
          "name": "Wood and Brixx Pizza",
          "wheelchair": "no"
        }
      },
      {
        "type": "node",
        "id": 11296562020,
        "lat": 12.9064253,
        "lon": 77.5981787,
        "tags": {
          "amenity": "atm",
          "brand": "Kotak Mahindra Bank",
          "brand:wikidata": "Q2040404",
          "level": "0",
          "opening_hours": "24/7",
          "operator": "Kotak Mahindra Bank",
          "operator:wikidata": "Q2040404",
          "wheelchair": "no"
        }
      },
      {
        "type": "node",
        "id": 11296562021,
        "lat": 12.9068787,
        "lon": 77.5997761,
        "tags": {
          "amenity": "atm",
          "brand": "HDFC Bank",
          "brand:wikidata": "Q631047",
          "level": "0",
          "operator": "HDFC Bank",
          "operator:wikidata": "Q631047",
          "short_name": "HDFC",
          "wheelchair": "no"
        }
      },
      {
        "type": "node",
        "id": 11296562025,
        "lat": 12.9060271,
        "lon": 77.5957624,
        "tags": {
          "addr:full": "No.6 (4th Phase), 100 Feet Road, JP Nagar, Bangalore - 560078",
          "amenity": "fast_food",
          "contact:phone": "+91-080-4680-9292",
          "cuisine": "biryani",
          "name": "PotFul",
          "operator": "PotFul India Private Limited"
        }
      },
      {
        "type": "node",
        "id": 11296562026,
        "lat": 12.9069216,
        "lon": 77.5998856,
        "tags": {
          "amenity": "atm",
          "brand": "RBL Bank",
          "brand:wikidata": "Q13120398",
          "level": "0",
          "operator": "RBL Bank",
          "operator:wikidata": "Q13120398",
          "wheelchair": "no"
        }
      },
      {
        "type": "node",
        "id": 11296562027,
        "lat": 12.9069377,
        "lon": 77.5999429,
        "tags": {
          "amenity": "bank",
          "branch": "4th Phase, JP Nagar",
          "brand": "RBL Bank",
          "brand:wikidata": "Q13120398",
          "level": "0",
          "name": "RBL Bank",
          "wheelchair": "no"
        }
      },
      {
        "type": "node",
        "id": 11296562028,
        "lat": 12.9070463,
        "lon": 77.6002896,
        "tags": {
          "amenity": "restaurant",
          "name": "Crumb Together"
        }
      },
      {
        "type": "node",
        "id": 11296562029,
        "lat": 12.9068917,
        "lon": 77.5998225,
        "tags": {
          "amenity": "bank",
          "branch": "Bilekahalli, JP Nagar 4th Phase",
          "brand": "HDFC Bank",
          "brand:wikidata": "Q631047",
          "level": "0",
          "name": "HDFC Bank",
          "short_name": "HDFC",
          "wheelchair": "no"
        }
      },
      {
        "type": "node",
        "id": 11296562030,
        "lat": 12.9065152,
        "lon": 77.5984826,
        "tags": {
          "amenity": "fast_food",
          "diet:lacto_vegetarian": "yes",
          "name": "Saanvi Sagar"
        }
      },
      {
        "type": "node",
        "id": 11296660884,
        "lat": 12.9068092,
        "lon": 77.5980072,
        "tags": {
          "level": "0",
          "shop": "supermarket",
          "wheelchair": "limited"
        }
      },
      {
        "type": "node",
        "id": 11296660887,
        "lat": 12.906721,
        "lon": 77.5992833,
        "tags": {
          "amenity": "cafe",
          "name": "Blue Tokai Coffee Roasters"
        }
      },
      {
        "type": "node",
        "id": 11296660890,
        "lat": 12.9062801,
        "lon": 77.597683,
        "tags": {
          "amenity": "restaurant",
          "cuisine": "japanese",
          "name": "Saiko"
        }
      },
      {
        "type": "node",
        "id": 11296660893,
        "lat": 12.9134212,
        "lon": 77.6083447,
        "tags": {
          "addr:city": "Bangalore",
          "addr:district": "Bengaluru Urban",
          "addr:postcode": "560076",
          "addr:street": "11th Main Road",
          "amenity": "cafe",
          "cuisine": "indian",
          "name": "Puneri Katta"
        }
      },
      {
        "type": "node",
        "id": 11296908432,
        "lat": 12.9134261,
        "lon": 77.6050916,
        "tags": {
          "amenity": "clinic",
          "healthcare": "clinic",
          "healthcare:speciality": "orthopaedics",
          "name": "Bangalore Orthopaedic Clinic"
        }
      },
      {
        "type": "node",
        "id": 11393362101,
        "lat": 12.9168676,
        "lon": 77.6004295,
        "tags": {
          "amenity": "bank",
          "brand": "State Bank of India",
          "brand:wikidata": "Q1340361",
          "check_date": "2023-12-04",
          "name": "State Bank of India",
          "name:kn": "\u0c8e\u0cb8\u0ccd \u0cac\u0cbf \u0c90",
          "short_name": "SBI"
        }
      },
      {
        "type": "node",
        "id": 11393362102,
        "lat": 12.9165149,
        "lon": 77.603164,
        "tags": {
          "amenity": "bank",
          "brand": "CSB Bank",
          "brand:wikidata": "Q5053244",
          "check_date": "2023-12-04",
          "name": "CSB Bank",
          "official_name": "Catholic Syrian Bank"
        }
      },
      {
        "type": "node",
        "id": 11395345924,
        "lat": 12.9169678,
        "lon": 77.5985202,
        "tags": {
          "amenity": "pharmacy",
          "check_date": "2023-12-05",
          "healthcare": "pharmacy",
          "name": "Poornima Medicals"
        }
      },
      {
        "type": "node",
        "id": 11395345925,
        "lat": 12.9168623,
        "lon": 77.602811,
        "tags": {
          "amenity": "cafe",
          "check_date": "2023-12-05",
          "name": "Tea Time"
        }
      },
      {
        "type": "node",
        "id": 11395345926,
        "lat": 12.9168575,
        "lon": 77.6028425,
        "tags": {
          "amenity": "atm",
          "brand": "IDFC First Bank",
          "brand:wikidata": "Q22031467",
          "check_date": "2023-12-05",
          "operator": "IDFC First Bank",
          "operator:wikidata": "Q22031467"
        }
      },
      {
        "type": "node",
        "id": 11422632437,
        "lat": 12.913472,
        "lon": 77.6057079,
        "tags": {
          "amenity": "bank",
          "atm": "yes",
          "brand": "Yes Bank",
          "brand:wikidata": "Q2040394",
          "name": "Yes Bank",
          "name:kn": "\u0caf\u0cb8\u0ccd \u0cac\u0ccd\u0caf\u0cbe\u0c82\u0c95\u0ccd"
        }
      },
      {
        "type": "node",
        "id": 11502593621,
        "lat": 12.9121692,
        "lon": 77.6064581,
        "tags": {
          "amenity": "restaurant",
          "cuisine": "indian",
          "name": "Sri Annapurneswari Restaurant",
          "name:kn": "\u0cb6\u0ccd\u0cb0\u0cc0 \u0c85\u0ca8\u0ccd\u0ca8\u0caa\u0cc2\u0cb0\u0ccd\u0ca3\u0cc7\u0cb6\u0ccd\u0cb5\u0cb0\u0cbf"
        }
      },
      {
        "type": "node",
        "id": 11532843227,
        "lat": 12.9165245,
        "lon": 77.6032301,
        "tags": {
          "amenity": "pharmacy",
          "check_date": "2024-01-20",
          "healthcare": "pharmacy",
          "name": "Sri Amulya Medicals"
        }
      },
      {
        "type": "node",
        "id": 11602938164,
        "lat": 12.9107013,
        "lon": 77.5991351,
        "tags": {
          "amenity": "restaurant",
          "cuisine": "indian",
          "name": "Cafe Khadya"
        }
      },
      {
        "type": "node",
        "id": 11602938165,
        "lat": 12.9107288,
        "lon": 77.5993819,
        "tags": {
          "amenity": "restaurant",
          "cuisine": "indian;italian",
          "name": "three dots & a dash"
        }
      },
      {
        "type": "node",
        "id": 11618114056,
        "lat": 12.9052307,
        "lon": 77.5954974,
        "tags": {
          "amenity": "cafe",
          "cuisine": "coffee_shop",
          "name": "Kinya Coffee"
        }
      },
      {
        "type": "node",
        "id": 11630831052,
        "lat": 12.9130361,
        "lon": 77.6000043,
        "tags": {
          "amenity": "atm",
          "brand": "ICICI Bank",
          "brand:wikidata": "Q1653258",
          "operator": "ICICI Bank",
          "operator:wikidata": "Q1653258",
          "short_name": "ICICI"
        }
      },
      {
        "type": "node",
        "id": 11757924267,
        "lat": 12.905666,
        "lon": 77.6012072,
        "tags": {
          "amenity": "restaurant",
          "name": "Thelagram"
        }
      },
      {
        "type": "node",
        "id": 11757924268,
        "lat": 12.9057693,
        "lon": 77.6012005,
        "tags": {
          "amenity": "restaurant",
          "cuisine": "regional",
          "name": "IDC Kitchen"
        }
      },
      {
        "type": "node",
        "id": 11946809266,
        "lat": 12.9069046,
        "lon": 77.6040856,
        "tags": {
          "name": "Olive Mart Supermarket",
          "shop": "supermarket"
        }
      },
      {
        "type": "node",
        "id": 11946809267,
        "lat": 12.9070903,
        "lon": 77.6038657,
        "tags": {
          "amenity": "bank",
          "atm": "yes",
          "brand": "UCO Bank",
          "brand:wikidata": "Q2005310",
          "name": "UCO Bank"
        }
      },
      {
        "type": "node",
        "id": 11946809268,
        "lat": 12.9058817,
        "lon": 77.6037517,
        "tags": {
          "amenity": "hospital",
          "healthcare": "hospital",
          "name": "Chirag Global Hospital"
        }
      },
      {
        "type": "node",
        "id": 12051379642,
        "lat": 12.9164448,
        "lon": 77.6046546,
        "tags": {
          "addr:postcode": "560076",
          "addr:street": "Outer Ring Road",
          "amenity": "clinic",
          "healthcare": "clinic",
          "healthcare:speciality": "fertility",
          "level": "1",
          "name": "Fertilite IVF"
        }
      },
      {
        "type": "node",
        "id": 12051379643,
        "lat": 12.9164193,
        "lon": 77.6047377,
        "tags": {
          "amenity": "restaurant",
          "cuisine": "indian;italian",
          "level": "2",
          "name": "Absolute Barbecues"
        }
      },
      {
        "type": "node",
        "id": 12053283216,
        "lat": 12.902148,
        "lon": 77.6008642,
        "tags": {
          "addr:postcode": "560076",
          "addr:street": "Bannerghatta Road",
          "amenity": "atm",
          "brand": "State Bank of India",
          "brand:wikidata": "Q1340361",
          "operator": "State Bank of India",
          "operator:wikidata": "Q1340361",
          "short_name": "SBI"
        }
      },
      {
        "type": "node",
        "id": 12129341178,
        "lat": 12.9060229,
        "lon": 77.5943649,
        "tags": {
          "amenity": "cafe",
          "contact:instagram": "cafe1854coorg",
          "cuisine": "coffee_shop",
          "name": "1854 Coffee Collective"
        }
      },
      {
        "type": "node",
        "id": 12219081017,
        "lat": 12.9164837,
        "lon": 77.6022732,
        "tags": {
          "amenity": "restaurant",
          "name": "Ninan Steak house and Burgers"
        }
      },
      {
        "type": "node",
        "id": 12247899717,
        "lat": 12.9135804,
        "lon": 77.6043652,
        "tags": {
          "addr:postcode": "560076",
          "addr:street": "7th Cross Road",
          "amenity": "cafe",
          "name": "Cremeux"
        }
      },
      {
        "type": "node",
        "id": 12247899718,
        "lat": 12.9137236,
        "lon": 77.6051894,
        "tags": {
          "addr:postcode": "560076",
          "addr:street": "7th Cross Road",
          "amenity": "restaurant",
          "cuisine": "asian",
          "level": "1",
          "name": "The Koi"
        }
      },
      {
        "type": "node",
        "id": 12292078854,
        "lat": 12.9060713,
        "lon": 77.5943602,
        "tags": {
          "amenity": "cafe",
          "name": "Nenapu"
        }
      },
      {
        "type": "node",
        "id": 12461000333,
        "lat": 12.9071543,
        "lon": 77.5988211,
        "tags": {
          "amenity": "restaurant",
          "contact:facebook": "pastastreet",
          "contact:instagram": "pasta.street",
          "cuisine": "pasta",
          "email": "info@pastastreet.co.in",
          "name": "Pasta Street",
          "phone": "+91 9266844026",
          "website": "https://pastastreet.co.in/"
        }
      },
      {
        "type": "node",
        "id": 12676813327,
        "lat": 12.9071,
        "lon": 77.6003438,
        "tags": {
          "addr:city": "Bengaluru",
          "addr:district": "Bangalore Urban",
          "addr:street": "Outer Ring Road",
          "amenity": "restaurant",
          "cuisine": "regional;indian",
          "diet:vegetarian": "yes",
          "name": "Dakshin Cafe"
        }
      },
      {
        "type": "node",
        "id": 12941883837,
        "lat": 12.9100981,
        "lon": 77.5921837,
        "tags": {
          "check_date": "2025-06-21",
          "name": "Sri Deep a Retail",
          "shop": "supermarket"
        }
      },
      {
        "type": "node",
        "id": 13062869345,
        "lat": 12.9075889,
        "lon": 77.6012716,
        "tags": {
          "amenity": "cafe",
          "brand": "Starbucks",
          "brand:wikidata": "Q37158",
          "check_date": "2025-08-26",
          "cuisine": "coffee_shop",
          "indoor_seating": "yes",
          "name": "Starbucks",
          "official_name": "Starbucks Coffee",
          "outdoor_seating": "no",
          "payment:cash": "yes",
          "payment:credit_cards": "yes",
          "payment:debit_cards": "yes",
          "takeaway": "yes"
        }
      },
      {
        "type": "node",
        "id": 13086275907,
        "lat": 12.9056206,
        "lon": 77.6014402,
        "tags": {
          "amenity": "restaurant",
          "name": "Bombay Chapter"
        }
      }
    ]
  },
  "pois_2_5km": {
    "version": 0.6,
    "generator": "Overpass API 0.7.62.8 e802775f",
    "osm3s": {
      "timestamp_osm_base": "2025-09-06T08:12:26Z",
      "copyright": "The data included in this document is from www.openstreetmap.org. The data is made available under ODbL."
    },
    "elements": [
      {
        "type": "node",
        "id": 493530632,
        "lat": 12.9233773,
        "lon": 77.598919,
        "tags": {
          "amenity": "cinema",
          "name": "Maheshwari",
          "name:kn": "\u0cae\u0cb9\u0cc7\u0cb6\u0ccd\u0cb5\u0cb0\u0cbf"
        }
      },
      {
        "type": "node",
        "id": 493556426,
        "lat": 12.9196944,
        "lon": 77.5923194,
        "tags": {
          "bus": "yes",
          "public_transport": "stop_position"
        }
      },
      {
        "type": "node",
        "id": 1331946760,
        "lat": 12.895836,
        "lon": 77.5818445,
        "tags": {
          "amenity": "fuel",
          "brand": "Indian Oil",
          "brand:wikidata": "Q1289348",
          "brand:wikipedia": "en:Indian Oil Corporation",
          "name": "Indian Oil",
          "name:en": "Indian Oil Corporation",
          "name:kn": "\u0c87\u0c82\u0ca1\u0cbf\u0caf\u0ca8\u0ccd \u0c86\u0caf\u0cbf\u0cb2\u0ccd",
          "operator": "Indian Oil"
        }
      },
      {
        "type": "node",
        "id": 1331946775,
        "lat": 12.9054868,
        "lon": 77.5857678,
        "tags": {
          "bus": "yes",
          "name": "Nandini Hotel JP Nagara",
          "name:en": "Nandini Hotel JP Nagara",
          "network": "BMTC",
          "operator": "BMTC",
          "public_transport": "stop_position"
        }
      },
      {
        "type": "node",
        "id": 1463771768,
        "lat": 12.9162428,
        "lon": 77.592424,
        "tags": {
          "amenity": "cinema",
          "brand": "INOX Leisure",
          "brand:wikidata": "Q5972349",
          "name": "Inox",
          "short_name": "INOX"
        }
      },
      {
        "type": "node",
        "id": 1467143629,
        "lat": 12.9140071,
        "lon": 77.5993825,
        "tags": {
          "amenity": "cinema",
          "level": "3",
          "name": "Gopalan Cinemas",
          "name:kn": "\u0c97\u0ccb\u0caa\u0cbe\u0cb2\u0ca8\u0ccd \u0cb8\u0cbf\u0ca8\u0cc6\u0cae\u0cbe\u0cb8\u0ccd",
          "opening_hours": "PH,Mo-Su 09:00-22:00"
        }
      },
      {
        "type": "node",
        "id": 1732931230,
        "lat": 12.9116079,
        "lon": 77.58708,
        "tags": {
          "addr:street": "22nd Main",
          "amenity": "theatre",
          "name": "Ranga Shankara",
          "name:kn": "\u0cb0\u0c82\u0c97 \u0cb6\u0c82\u0c95\u0cb0",
          "website": "http://www.rangashankara.org/",
          "wikidata": "Q7292595",
          "wikipedia": "en:Ranga Shankara"
        }
      },
      {
        "type": "node",
        "id": 1866221218,
        "lat": 12.9065766,
        "lon": 77.5907568,
        "tags": {
          "amenity": "fuel",
          "brand": "Hindustan Petroleum",
          "brand:wikidata": "Q1619375",
          "fuel:diesel": "yes",
          "name": "Hindustan Petroleum",
          "name:kn": "\u0cb9\u0cbf\u0c82\u0ca6\u0cc1\u0cb8\u0ccd\u0ca4\u0cbe\u0ca8\u0ccd \u0caa\u0cc6\u0c9f\u0ccd\u0cb0\u0ccb\u0cb2\u0cbf\u0caf\u0c82",
          "official_name": "Hindustan Petroleum"
        }
      },
      {
        "type": "node",
        "id": 2509428534,
        "lat": 12.9168542,
        "lon": 77.6212842,
        "tags": {
          "bus": "yes",
          "public_transport": "stop_position"
        }
      },
      {
        "type": "node",
        "id": 2893518450,
        "lat": 12.9104004,
        "lon": 77.5947964,
        "tags": {
          "amenity": "fuel",
          "brand": "Indian Oil",
          "brand:wikidata": "Q1289348",
          "brand:wikipedia": "en:Indian Oil Corporation",
          "name": "Indian Oil Corporation",
          "name:kn": "\u0c87\u0c82\u0ca1\u0cbf\u0caf\u0ca8\u0ccd \u0c86\u0caf\u0cbf\u0cb2\u0ccd"
        }
      },
      {
        "type": "node",
        "id": 3302642058,
        "lat": 12.916731,
        "lon": 77.5999663,
        "tags": {
          "code": "JDHP",
          "layer": "1",
          "lit": "yes",
          "name": "Jayadeva Hospital",
          "name:en": "Jayadeva Hospital",
          "name:kn": "\u0c9c\u0caf\u0ca6\u0cc7\u0cb5 \u0c86\u0cb8\u0ccd\u0caa\u0ca4\u0ccd\u0cb0\u0cc6",
          "network": "Namma Metro",
          "note": "Contributors are requested to not edit the \"network\" and the \"operator\" tags. (2023/11/08)",
          "operator": "Bangalore Metro Rail Corporation Limited",
          "platforms": "2",
          "public_transport": "station",
          "public_transport:version": "2",
          "railway": "station",
          "shelter": "yes",
          "start_date": "2025-08-10",
          "station": "subway",
          "subway": "yes",
          "website": "https://english.brmc.co.in",
          "wheelchair": "yes"
        }
      },
      {
        "type": "node",
        "id": 5595713221,
        "lat": 12.893822,
        "lon": 77.6008862,
        "tags": {
          "amenity": "theatre",
          "name": "IIM Auditorium"
        }
      },
      {
        "type": "node",
        "id": 5760198212,
        "lat": 12.9165816,
        "lon": 77.620567,
        "tags": {
          "code": "SBJT",
          "layer": "1",
          "lit": "yes",
          "name": "Central Silk Board",
          "name:en": "Central Silk Board",
          "name:kn": "\u0cb8\u0cc6\u0c82\u0c9f\u0ccd\u0cb0\u0cb2\u0ccd \u0cb8\u0cbf\u0cb2\u0ccd\u0c95 \u0cac\u0ccb\u0cb0\u0ccd\u0ca1\u0ccd",
          "network": "Namma Metro",
          "note": "Contributors are requested to not edit the \"network\" and the \"operator\" tags. (2023/11/08)",
          "operator": "Bangalore Metro Rail Corporation Limited",
          "platforms": "2",
          "public_transport": "station",
          "public_transport:version": "2",
          "railway": "station",
          "shelter": "yes",
          "start_date": "2025-08-10",
          "station": "subway",
          "subway": "yes",
          "website": "https://english.brmc.co.in",
          "wheelchair": "yes"
        }
      },
      {
        "type": "node",
        "id": 5760198226,
        "lat": 12.9165878,
        "lon": 77.6081182,
        "tags": {
          "code": "BTML",
          "layer": "1",
          "lit": "yes",
          "name": "BTM Layout",
          "name:en": "BTM Layout",
          "name:kn": "\u0cac\u0cbf\u0c9f\u0cbf\u0c8e\u0c82 \u0cac\u0ca1\u0cbe\u0cb5\u0ca3\u0cc6",
          "network": "Namma Metro",
          "note": "Contributors are requested to not edit the \"network\" and the \"operator\" tags. (2023/11/08)",
          "operator": "Bangalore Metro Rail Corporation Limited",
          "platforms": "2",
          "public_transport": "station",
          "public_transport:version": "2",
          "railway": "station",
          "shelter": "yes",
          "start_date": "2025-08-10",
          "station": "subway",
          "subway": "yes",
          "website": "https://english.brmc.co.in",
          "wheelchair": "yes"
        }
      },
      {
        "type": "node",
        "id": 5760198239,
        "lat": 12.9170807,
        "lon": 77.5883015,
        "tags": {
          "code": "RGDT",
          "layer": "1",
          "lit": "yes",
          "name": "Ragigudda",
          "name:en": "Ragigudda",
          "name:kn": "\u0cb0\u0cbe\u0c97\u0cbf\u0c97\u0cc1\u0ca1\u0ccd\u0ca1",
          "network": "Namma Metro",
          "note": "Contributors are requested to not edit the \"network\" and the \"operator\" tags. (2023/11/08)",
          "operator": "Bangalore Metro Rail Corporation Limited",
          "platforms": "2",
          "public_transport": "station",
          "public_transport:version": "2",
          "railway": "station",
          "shelter": "yes",
          "start_date": "2025-08-10",
          "station": "subway",
          "subway": "yes",
          "website": "https://english.brmc.co.in",
          "wheelchair": "yes"
        }
      },
      {
        "type": "node",
        "id": 6338071925,
        "lat": 12.9013144,
        "lon": 77.585703,
        "tags": {
          "amenity": "fuel",
          "name": "HiDrive Auto LPG",
          "wheelchair": "yes"
        }
      },
      {
        "type": "node",
        "id": 7141213445,
        "lat": 12.886875,
        "lon": 77.5969188,
        "tags": {
          "bus": "yes",
          "name": "Arakere BPL",
          "name:en": "Arakere BPL",
          "network": "BMTC",
          "operator": "BMTC",
          "public_transport": "stop_position"
        }
      },
      {
        "type": "node",
        "id": 7141213446,
        "lat": 12.8906857,
        "lon": 77.5982134,
        "tags": {
          "bus": "yes",
          "name": "Arakere Gate",
          "name:en": "Arakere Gate",
          "name:kn": "\u0c85\u0cb0\u0cc6\u0c95\u0cc6\u0cb0\u0cc6 \u0c97\u0cc7\u0c9f\u0ccd",
          "network": "BMTC",
          "operator": "BMTC",
          "public_transport": "stop_position"
        }
      },
      {
        "type": "node",
        "id": 7141213447,
        "lat": 12.8962812,
        "lon": 77.5998338,
        "tags": {
          "bus": "yes",
          "name": "IIM Apollo",
          "name:en": "IIM Apollo",
          "network": "BMTC",
          "operator": "BMTC",
          "public_transport": "stop_position"
        }
      },
      {
        "type": "node",
        "id": 7141213448,
        "lat": 12.9008047,
        "lon": 77.6010889,
        "tags": {
          "bus": "yes",
          "name": "Bilekahalli",
          "name:en": "Bilekahalli",
          "name:kn": "\u0cac\u0cbf\u0cb3\u0cc7\u0c95\u0cb9\u0cb3\u0ccd\u0cb3\u0cbf",
          "network": "BMTC",
          "operator": "BMTC",
          "public_transport": "stop_position"
        }
      },
      {
        "type": "node",
        "id": 7141213449,
        "lat": 12.9081964,
        "lon": 77.600381,
        "tags": {
          "alt_name": "J.D. Mara",
          "bus": "yes",
          "name": "JP Nagara 3rd Phase",
          "name:en": "JP Nagara 3rd Phase",
          "network": "BMTC",
          "operator": "BMTC",
          "public_transport": "stop_position"
        }
      },
      {
        "type": "node",
        "id": 7141213452,
        "lat": 12.9198633,
        "lon": 77.6001476,
        "tags": {
          "bus": "yes",
          "name": "Gurappanapalya",
          "name:en": "Gurappanapalya",
          "name:kn": "\u0c97\u0cc1\u0cb0\u0caa\u0ccd\u0caa\u0ca8 \u0caa\u0cbe\u0cb3\u0ccd\u0caf",
          "network": "BMTC",
          "operator": "BMTC",
          "public_transport": "stop_position"
        }
      },
      {
        "type": "node",
        "id": 7829006597,
        "lat": 12.9167281,
        "lon": 77.5999985,
        "tags": {
          "construction": "station",
          "disused:railway": "stop",
          "name": "Jayadeva Interchange (u/c)",
          "network": "Namma Metro",
          "note": "Contributors are requested to not edit the \"network\" and the \"operator\" tags. (2023/11/08)",
          "operator": "Bangalore Metro Rail Corporation Limited",
          "public_transport": "stop_position",
          "railway": "stop",
          "station": "subway",
          "subway": "yes"
        }
      },
      {
        "type": "node",
        "id": 9904111098,
        "lat": 12.9165373,
        "lon": 77.6067587,
        "tags": {
          "bus": "yes",
          "name": "BTM Nagar Layout Water Tank",
          "name:en": "BTM Water Tank",
          "network": "BMTC",
          "operator": "BMTC",
          "public_transport": "stop_position"
        }
      },
      {
        "type": "node",
        "id": 9904111100,
        "lat": 12.9166825,
        "lon": 77.6068604,
        "tags": {
          "bus": "yes",
          "name": "BTM Water Tank",
          "name:en": "BTM Water Tank",
          "network": "BMTC",
          "operator": "BMTC",
          "public_transport": "stop_position"
        }
      },
      {
        "type": "node",
        "id": 9904111102,
        "lat": 12.9168592,
        "lon": 77.5971059,
        "tags": {
          "bus": "yes",
          "name": "Jayanagara 9th East Circle",
          "name:en": "Jayanagara 9th East Circle",
          "network": "BMTC",
          "operator": "BMTC",
          "public_transport": "stop_position"
        }
      },
      {
        "type": "node",
        "id": 9906332345,
        "lat": 12.9167328,
        "lon": 77.5999289,
        "tags": {
          "construction": "station",
          "disused:railway": "stop",
          "name": "Jayadeva Interchange (u/c)",
          "network": "Namma Metro",
          "note": "Contributors are requested to not edit the \"network\" and the \"operator\" tags. (2023/11/08)",
          "operator": "Bangalore Metro Rail Corporation Limited",
          "public_transport": "stop_position",
          "railway": "stop",
          "station": "subway",
          "subway": "yes"
        }
      },
      {
        "type": "node",
        "id": 10728055706,
        "lat": 12.9143171,
        "lon": 77.5870237,
        "tags": {
          "amenity": "theatre",
          "contact:facebook": "artkhoj",
          "contact:instagram": "artkhoj",
          "contact:linkedin": "artkhoj",
          "name": "Artkhoj",
          "website": "https://linktr.ee/Artkhoj"
        }
      },
      {
        "type": "node",
        "id": 10763275239,
        "lat": 12.9154635,
        "lon": 77.6158909,
        "tags": {
          "amenity": "charging_station",
          "fee": "yes",
          "name": "Magenta ChargeGrid Charging Station",
          "operator": "Magenta Group"
        }
      },
      {
        "type": "node",
        "id": 10792812734,
        "lat": 12.9169985,
        "lon": 77.5847149,
        "tags": {
          "bus": "yes",
          "name": "Jayanagara 5th Block",
          "name:en": "Jayanagara 5th Block",
          "name:kn": "\u0c9c\u0caf\u0ca8\u0c97\u0cb0 \u0ceb\u0ca8\u0cc7 \u0cac\u0ca1\u0cbe\u0cb5\u0ca3\u0cc6",
          "network": "BMTC",
          "operator": "BMTC",
          "public_transport": "stop_position"
        }
      },
      {
        "type": "node",
        "id": 10853180817,
        "lat": 12.9167043,
        "lon": 77.5986174,
        "tags": {
          "bus": "yes",
          "name": "Jayadeva Hospital",
          "name:en": "Jayadeva Hospital",
          "name:kn": "\u0c9c\u0caf\u0ca6\u0cc7\u0cb5 \u0c86\u0cb8\u0ccd\u0caa\u0ca4\u0ccd\u0cb0\u0cc6",
          "network": "BMTC",
          "operator": "BMTC",
          "public_transport": "stop_position"
        }
      },
      {
        "type": "node",
        "id": 10853180818,
        "lat": 12.9165987,
        "lon": 77.6041289,
        "tags": {
          "bus": "yes",
          "name": "MICO Layout",
          "name:en": "MICO Layout",
          "network": "BMTC",
          "operator": "BMTC",
          "public_transport": "stop_position"
        }
      },
      {
        "type": "node",
        "id": 10854298567,
        "lat": 12.9168326,
        "lon": 77.5935009,
        "tags": {
          "bus": "yes",
          "name": "Ragigudda",
          "name:en": "Ragigudda",
          "name:kn": "\u0cb0\u0cbe\u0c97\u0cbf\u0c97\u0cc1\u0ca1\u0ccd\u0ca1",
          "network": "BMTC",
          "operator": "BMTC",
          "public_transport": "stop_position"
        }
      },
      {
        "type": "node",
        "id": 10854298568,
        "lat": 12.9169357,
        "lon": 77.5933794,
        "tags": {
          "alt_name": "Jayanagara 9th Block",
          "bus": "yes",
          "name": "Ragigudda",
          "name:en": "Ragigudda",
          "name:kn": "\u0cb0\u0cbe\u0c97\u0cbf\u0c97\u0cc1\u0ca1\u0ccd\u0ca1",
          "network": "BMTC",
          "operator": "BMTC",
          "public_transport": "stop_position"
        }
      },
      {
        "type": "node",
        "id": 10854298573,
        "lat": 12.9171119,
        "lon": 77.5850831,
        "tags": {
          "bus": "yes",
          "name": "Jayanagar 5th Block",
          "name:en": "Jayanagara 5th Block",
          "name:kn": "\u0c9c\u0caf\u0ca8\u0c97\u0cb0 \u0ceb\u0ca8\u0cc7 \u0cac\u0ccd\u0cb2\u0cbe\u0c95\u0ccd",
          "network": "BMTC",
          "operator": "BMTC",
          "public_transport": "stop_position"
        }
      },
      {
        "type": "node",
        "id": 10854298578,
        "lat": 12.917138,
        "lon": 77.5834066,
        "tags": {
          "bus": "yes",
          "name": "Jayanagara 5th Block",
          "name:en": "Jayanagara 5th Block",
          "name:kn": "\u0c9c\u0caf\u0ca8\u0c97\u0cb0 \u0ceb\u0ca8\u0cc7 \u0cac\u0ca1\u0cbe\u0cb5\u0ca3\u0cc6",
          "network": "BMTC",
          "operator": "BMTC",
          "public_transport": "stop_position"
        }
      },
      {
        "type": "node",
        "id": 11286212936,
        "lat": 12.916907,
        "lon": 77.6102709,
        "tags": {
          "access": "yes",
          "amenity": "charging_station",
          "brand": "BESCOM",
          "capacity": "2",
          "operator": "BESCOM"
        }
      },
      {
        "type": "node",
        "id": 11296933565,
        "lat": 12.9273812,
        "lon": 77.6001621,
        "tags": {
          "amenity": "theatre",
          "name": "Mother Veronica Auditorium"
        }
      },
      {
        "type": "node",
        "id": 11434216330,
        "lat": 12.8913214,
        "lon": 77.5878278,
        "tags": {
          "bus": "yes",
          "name": "Nayara Petrol Pump Lakshmi Layout",
          "name:en": "Nayara Petrol Pump Lakshmi Layout",
          "network": "BMTC",
          "operator": "BMTC",
          "public_transport": "stop_position"
        }
      },
      {
        "type": "node",
        "id": 11799641555,
        "lat": 12.9215008,
        "lon": 77.5836636,
        "tags": {
          "bus": "yes",
          "name": "Jayanagara 38th Cross",
          "name:en": "Jayanagara 38th Cross",
          "network": "BMTC",
          "operator": "BMTC",
          "public_transport": "stop_position"
        }
      },
      {
        "type": "node",
        "id": 11799641556,
        "lat": 12.9151927,
        "lon": 77.5857573,
        "tags": {
          "bus": "yes",
          "name": "Marenahalli",
          "name:en": "Marenahalli",
          "name:kn": "\u0cae\u0cb0\u0cc7\u0ca8\u0cb9\u0cb3\u0ccd\u0cb3\u0cbf",
          "network": "BMTC",
          "operator": "BMTC",
          "public_transport": "stop_position"
        }
      },
      {
        "type": "node",
        "id": 11799641557,
        "lat": 12.9111708,
        "lon": 77.5856838,
        "tags": {
          "bus": "yes",
          "name": "RV Dental College",
          "name:en": "RV Dental College",
          "network": "BMTC",
          "operator": "BMTC",
          "public_transport": "stop_position"
        }
      },
      {
        "type": "node",
        "id": 11799641558,
        "lat": 12.9071365,
        "lon": 77.5856783,
        "tags": {
          "bus": "yes",
          "name": "JP Nagara 15th Cross",
          "name:en": "JP Nagara 15th Cross",
          "network": "BMTC",
          "operator": "BMTC",
          "public_transport": "stop_position"
        }
      },
      {
        "type": "node",
        "id": 12032990391,
        "lat": 12.9270546,
        "lon": 77.5924036,
        "tags": {
          "bus": "yes",
          "name": "Sanjay Gandhi Hospital",
          "name:en": "Sanjay Gandhi Hospital",
          "name:kn": "\u0cb8\u0c82\u0c9c\u0caf\u0ccd \u0c97\u0cbe\u0c82\u0ca7\u0cbf \u0c86\u0cb8\u0ccd\u0caa\u0ca4\u0ccd\u0cb0\u0cc6",
          "network": "BMTC",
          "operator": "BMTC",
          "public_transport": "stop_position"
        }
      },
      {
        "type": "node",
        "id": 12032990392,
        "lat": 12.9269849,
        "lon": 77.5929284,
        "tags": {
          "bus": "yes",
          "name": "Sanjay Gandhi Hospital",
          "name:en": "Sanjay Gandhi Hospital",
          "network": "BMTC",
          "operator": "BMTC",
          "public_transport": "stop_position"
        }
      },
      {
        "type": "node",
        "id": 12032990393,
        "lat": 12.9267231,
        "lon": 77.5970921,
        "tags": {
          "bus": "yes",
          "name": "Carmel Convent",
          "name:en": "Carmel Convent",
          "name:kn": "\u0c95\u0cbe\u0cb0\u0ccd\u0cae\u0cc6\u0cb2\u0ccd \u0c95\u0cbe\u0ca8\u0ccd\u0cb5\u0cc6\u0c82\u0c9f\u0ccd",
          "network": "BMTC",
          "operator": "BMTC",
          "public_transport": "stop_position"
        }
      },
      {
        "type": "node",
        "id": 12032990398,
        "lat": 12.9263412,
        "lon": 77.5971456,
        "tags": {
          "bus": "yes",
          "name": "Carmel Convent",
          "name:en": "Carmel Convent",
          "name:kn": "\u0c95\u0cbe\u0cb0\u0ccd\u0cae\u0cc6\u0cb2\u0ccd \u0c95\u0cbe\u0ca8\u0ccd\u0cb5\u0cc6\u0c82\u0c9f\u0ccd",
          "network": "BMTC",
          "operator": "BMTC",
          "public_transport": "stop_position"
        }
      },
      {
        "type": "node",
        "id": 12040966324,
        "lat": 12.9164026,
        "lon": 77.620117,
        "tags": {
          "code": "SBJT",
          "name": "Central Silk Board",
          "name:en": "Central Silk Board",
          "name:kn": "\u0cb8\u0cc6\u0c82\u0c9f\u0ccd\u0cb0\u0cb2\u0ccd \u0cb8\u0cbf\u0cb2\u0ccd\u0c95 \u0cac\u0ccb\u0cb0\u0ccd\u0ca1\u0ccd",
          "network": "Namma Metro",
          "note": "Contributors are requested to not edit the \"network\" and the \"operator\" tags. (2023/11/08)",
          "operator": "Bangalore Metro Rail Corporation Limited",
          "public_transport": "stop_position",
          "public_transport:version": "2",
          "railway": "stop",
          "source": "http://www.bmrc.co.in/English/Network.htm",
          "subway": "yes",
          "wheelchair": "yes"
        }
      },
      {
        "type": "node",
        "id": 12160392817,
        "lat": 12.8915567,
        "lon": 77.5977606,
        "tags": {
          "amenity": "cinema",
          "name": "Cinepolis SJR Arekere"
        }
      },
      {
        "type": "node",
        "id": 12187048819,
        "lat": 12.9242706,
        "lon": 77.6146931,
        "tags": {
          "amenity": "fuel",
          "check_date": "2024-09-18",
          "self_service": "no"
        }
      },
      {
        "type": "node",
        "id": 12462543988,
        "lat": 12.916679,
        "lon": 77.6095838,
        "tags": {
          "bus": "yes",
          "name": "16th Main BTM Layout",
          "name:en": "16th Main BTM Layout",
          "network": "BMTC",
          "operator": "BMTC",
          "public_transport": "stop_position"
        }
      },
      {
        "type": "node",
        "id": 12462543989,
        "lat": 12.9167865,
        "lon": 77.6032644,
        "tags": {
          "bus": "yes",
          "name": "MICO Layout",
          "name:en": "MICO Layout",
          "network": "BMTC",
          "operator": "BMTC",
          "public_transport": "stop_position"
        }
      },
      {
        "type": "node",
        "id": 12462543990,
        "lat": 12.9217633,
        "lon": 77.5970268,
        "tags": {
          "bus": "yes",
          "name": "Jayanagara Pump House",
          "name:en": "Jayanagara Pump House",
          "network": "BMTC",
          "operator": "BMTC",
          "public_transport": "stop_position"
        }
      },
      {
        "type": "node",
        "id": 12462547454,
        "lat": 12.9234167,
        "lon": 77.5895751,
        "tags": {
          "bus": "yes",
          "name": "Jayanagara 18th Main",
          "name:en": "Jayanagara 18th Main",
          "network": "BMTC",
          "operator": "BMTC",
          "public_transport": "stop_position"
        }
      },
      {
        "type": "node",
        "id": 12462547456,
        "lat": 12.9230562,
        "lon": 77.5934443,
        "tags": {
          "bus": "yes",
          "name": "Jayanagara 4th T Block",
          "name:en": "Jayanagara 4th T Block",
          "name:kn": "\u0c9c\u0caf\u0ca8\u0c97\u0cb0 \u0cea\u0ca8\u0cc7 \u0cac\u0ca1\u0cbe\u0cb5\u0ca3\u0cc6",
          "network": "BMTC",
          "operator": "BMTC",
          "public_transport": "stop_position"
        }
      },
      {
        "type": "node",
        "id": 12462547457,
        "lat": 12.919694,
        "lon": 77.5923364,
        "tags": {
          "bus": "yes",
          "name": "Jayanagar 9th Block",
          "name:en": "Jayanagar 9th Block",
          "network": "BMTC",
          "operator": "BMTC",
          "public_transport": "stop_position"
        }
      },
      {
        "type": "node",
        "id": 12462551328,
        "lat": 12.8977323,
        "lon": 77.5858706,
        "tags": {
          "bus": "yes",
          "name": "Shobha Tulip JP Nagara",
          "name:en": "Shobha Tulip JP Nagara",
          "network": "BMTC",
          "operator": "BMTC",
          "public_transport": "stop_position"
        }
      },
      {
        "type": "node",
        "id": 12462551329,
        "lat": 12.9010699,
        "lon": 77.5858542,
        "tags": {
          "bus": "yes",
          "name": "Auto Gas/Royal School",
          "name:en": "Auto Gas/Royal School",
          "network": "BMTC",
          "operator": "BMTC",
          "public_transport": "stop_position"
        }
      },
      {
        "type": "node",
        "id": 12462551330,
        "lat": 12.9026679,
        "lon": 77.5858171,
        "tags": {
          "bus": "yes",
          "name": "Inchara Hotel JP Nagara",
          "name:en": "Inchara Hotel JP Nagara",
          "network": "BMTC",
          "operator": "BMTC",
          "public_transport": "stop_position"
        }
      },
      {
        "type": "node",
        "id": 12462551332,
        "lat": 12.9065665,
        "lon": 77.5857634,
        "tags": {
          "bus": "yes",
          "name": "JP Nagara 15th Cross",
          "name:en": "JP Nagara 15th Cross",
          "network": "BMTC",
          "operator": "BMTC",
          "public_transport": "stop_position"
        }
      },
      {
        "type": "node",
        "id": 12462551334,
        "lat": 12.9097302,
        "lon": 77.5857496,
        "tags": {
          "bus": "yes",
          "name": "RV Dental College",
          "name:en": "RV Dental College",
          "network": "BMTC",
          "operator": "BMTC",
          "public_transport": "stop_position"
        }
      },