{
  "pois_1km": {
    "version": 0.6,
    "generator": "Overpass API 0.7.62.8 e802775f",
    "osm3s": {
      "timestamp_osm_base": "2025-09-06T08:02:01Z",
      "copyright": "The data included in this document is from www.openstreetmap.org. The data is made available under ODbL."
    },
    "elements": [
      {
        "type": "node",
        "id": 1212309366,
        "lat": 12.9713009,
        "lon": 77.6347274,
        "tags": {
          "amenity": "atm",
          "brand": "IDBI Bank",
          "brand:wikidata": "Q3633485",
          "name": "IDBI Bank",
          "operator": "IDBI Bank",
          "operator:wikidata": "Q3633485",
          "short_name": "IDBI"
        }
      },
      {
        "type": "node",
        "id": 1282881158,
        "lat": 12.9711101,
        "lon": 77.6342171,
        "tags": {
          "amenity": "fast_food",
          "name": "Chat"
        }
      },
      {
        "type": "node",
        "id": 1328617013,
        "lat": 12.9701421,
        "lon": 77.6314807,
        "tags": {
          "addr:street": "Sai Baba Mandira Road",
          "amenity": "pharmacy",
          "name": "Health and Glow"
        }
      },
      {
        "type": "node",
        "id": 1462124094,
        "lat": 12.972972,
        "lon": 77.6213025,
        "tags": {
          "amenity": "fast_food",
          "brand": "McDonald's",
          "brand:pa": "\u0a2e\u0a48\u0a15\u0a21\u0a4b\u0a28\u0a32\u0a21\u2019\u0a1c\u0a3c",
          "brand:ur": "\u0645\u06a9\u0688\u0648\u0646\u0644\u0688\u0632",
          "brand:wikidata": "Q38076",
          "brand:wikipedia": "en:McDonald's",
          "brand:wikipedia:pa": "\u0a2e\u0a48\u0a15\u0a21\u0a4b\u0a28\u0a32\u0a21\u2019\u0a1c\u0a3c",
          "brand:wikipedia:ur": "\u0645\u06a9\u0688\u0648\u0646\u0644\u0688\u0632",
          "cuisine": "burger",
          "name": "McDonald's",
          "name:kn": "\u0cae\u0ccd\u0caf\u0cbe\u0c95\u0ccd\u200c\u0ca1\u0cca\u0ca8\u0cbe\u0cb2\u0ccd\u0ca1\u0ccd\u0cb8\u0ccd",
          "name:pa": "\u0a2e\u0a48\u0a15\u0a21\u0a4b\u0a28\u0a32\u0a21\u2019\u0a1c\u0a3c",
          "name:ur": "\u0645\u06a9\u0688\u0648\u0646\u0644\u0688\u0632",
          "takeaway": "yes"
        }
      },
      {
        "type": "node",
        "id": 1707859852,
        "lat": 12.9732119,
        "lon": 77.6217398,
        "tags": {
          "amenity": "restaurant",
          "brand": "TGI Fridays",
          "brand:wikidata": "Q1524184",
          "cuisine": "american",
          "name": "TGI Fridays",
          "name:kn": "\u0c9f\u0c9c\u0cbf\u0c90 \u0cab\u0ccd\u0cb0\u0cc8\u0ca1\u0cc7\u0cb8\u0ccd"
        }
      },
      {
        "type": "node",
        "id": 1941464651,
        "lat": 12.9724588,
        "lon": 77.6260331,
        "tags": {
          "brand": "Nilgiri's",
          "brand:wikidata": "Q17079567",
          "check_date": "2023-10-12",
          "name": "Nilgiri's",
          "shop": "supermarket"
        }
      },
      {
        "type": "node",
        "id": 1941465446,
        "lat": 12.9725555,
        "lon": 77.6266554,
        "tags": {
          "amenity": "restaurant",
          "name": "Ruchi Restaurant"
        }
      },
      {
        "type": "node",
        "id": 2901080141,
        "lat": 12.9714443,
        "lon": 77.6350673,
        "tags": {
          "amenity": "restaurant",
          "name": "Khan Saheb"
        }
      },
      {
        "type": "node",
        "id": 2999559155,
        "lat": 12.9722421,
        "lon": 77.6184419,
        "tags": {
          "addr:city": "Bangalore",
          "addr:country": "IN",
          "addr:hamlet": "Craig Park Layout",
          "addr:housename": "Ramanashree Arcade",
          "addr:housenumber": "18",
          "addr:postcode": "560025",
          "addr:street": "MG Road",
          "addr:suburb": "Ashok Nagar",
          "amenity": "restaurant",
          "contact:instagram": "daysie.allday",
          "contact:whatsapp": "+91 89040 85004",
          "level": "0",
          "name": "Daysie",
          "outdoor_seating": "yes",
          "phone": "+91 080 47250 000",
          "website": "https://daysie.in/"
        }
      },
      {
        "type": "node",
        "id": 2999562191,
        "lat": 12.9723534,
        "lon": 77.6186861,
        "tags": {
          "addr:street": "Mahatma Gandhi Road",
          "amenity": "bank",
          "name": "EXIM (Export-Import Bank of India)"
        }
      },
      {
        "type": "node",
        "id": 3170021930,
        "lat": 12.9734434,
        "lon": 77.6216713,
        "tags": {
          "name": "Big Bazaar",
          "name:kn": "\u0cac\u0cbf\u0c97\u0ccd \u0cac\u0c9c\u0cbe\u0cb0\u0ccd",
          "shop": "supermarket"
        }
      },
      {
        "type": "node",
        "id": 3170025557,
        "lat": 12.9750047,
        "lon": 77.6200027,
        "tags": {
          "amenity": "restaurant",
          "cuisine": "regional",
          "level": "2",
          "name": "Carnival De Goa",
          "name:kn": "\u0c95\u0cbe\u0cb0\u0ccd\u0ca8\u0cbf\u0cb5\u0cbe\u0cb2\u0ccd \u0ca1\u0cbf \u0c97\u0ccb\u0cb5\u0cbe",
          "smoking": "outside"
        }
      },
      {
        "type": "node",
        "id": 3170057127,
        "lat": 12.9733087,
        "lon": 77.6214181,
        "tags": {
          "amenity": "atm"
        }
      },
      {
        "type": "node",
        "id": 3170060062,
        "lat": 12.9734362,
        "lon": 77.6215884,
        "tags": {
          "amenity": "atm"
        }
      },
      {
        "type": "node",
        "id": 3292614897,
        "lat": 12.9730022,
        "lon": 77.6173053,
        "tags": {
          "amenity": "fast_food",
          "brand": "Domino's",
          "brand:ks": "\u0688\u0648\u0645\u06cc\u0646\u0648\u0632",
          "brand:pa": "\u0a21\u0a4b\u0a2e\u0a40\u0a28\u0a4b\u0a1c\u0a3c",
          "brand:ur": "\u0688\u0648\u0645\u06cc\u0646\u0648\u0632",
          "brand:wikidata": "Q839466",
          "brand:wikipedia": "en:Domino's Pizza",
          "cuisine": "pizza",
          "indoor_seating": "yes",
          "name": "Domino's",
          "name:ks": "\u0688\u0648\u0645\u06cc\u0646\u0648\u0632",
          "name:pa": "\u0a21\u0a4b\u0a2e\u0a40\u0a28\u0a4b\u0a1c\u0a3c",
          "name:ur": "\u0688\u0648\u0645\u06cc\u0646\u0648\u0632",
          "outdoor_seating": "no",
          "takeaway": "yes"
        }
      },
      {
        "type": "node",
        "id": 3488721663,
        "lat": 12.972765,
        "lon": 77.6190259,
        "tags": {
          "amenity": "atm",
          "brand": "Bank of Baroda",
          "brand:wikidata": "Q2003797",
          "check_date": "2022-07-03",
          "name": "Bank of Baroda",
          "name:kn": "\u0cb5\u0cbf\u0c9c\u0caf \u0cac\u0ccd\u0caf\u0cbe\u0c82\u0c95\u0cc1",
          "operator": "Bank of Baroda",
          "operator:wikidata": "Q2003797"
        }
      },
      {
        "type": "node",
        "id": 3643239013,
        "lat": 12.9761885,
        "lon": 77.6260897,
        "tags": {
          "amenity": "fast_food",
          "name": "Bhai Ji's",
          "name:kn": "\u0cad\u0cbe\u0caf\u0ccd\u200c \u0c9c\u0cc0\u0cb8\u0ccd"
        }
      },
      {
        "type": "node",
        "id": 3730961535,
        "lat": 12.9739292,
        "lon": 77.6232945,
        "tags": {
          "amenity": "cafe",
          "name": "Kumbakonam Traditional Coffee",
          "name:kn": "\u0c95\u0cc1\u0c82\u0cac\u0c95\u0cca\u0ca3\u0c82 \u0cb8\u0c82\u0caa\u0ccd\u0cb0\u0ca6\u0cbe\u0caf\u0c95 \u0c95\u0cbe\u0cab\u0cc0"
        }
      },
      {
        "type": "node",
        "id": 3760133043,
        "lat": 12.9729167,
        "lon": 77.6172137,
        "tags": {
          "amenity": "atm",
          "brand": "Yes Bank",
          "brand:wikidata": "Q2040394",
          "layer": "1",
          "level": "1",
          "name": "Yes Bank",
          "operator": "Yes Bank",
          "operator:wikidata": "Q2040394"
        }
      },
      {
        "type": "node",
        "id": 3761230359,
        "lat": 12.9749935,
        "lon": 77.6199471,
        "tags": {
          "addr:street": "Bhaskaran Road",
          "amenity": "restaurant",
          "cuisine": "mexican",
          "level": "0",
          "name": "The Grill House",
          "name:kn": "\u0ca6 \u0c97\u0ccd\u0cb0\u0cbf\u0cb2\u0ccd \u0cb9\u0ccc\u0cb8\u0ccd"
        }
      },
      {
        "type": "node",
        "id": 3805493606,
        "lat": 12.9721008,
        "lon": 77.6184589,
        "tags": {
          "amenity": "bank",
          "atm": "no",
          "level": "4",
          "name": "EXIM Bank;Export-Import Bank of India"
        }
      },
      {
        "type": "node",
        "id": 3805499875,
        "lat": 12.9723831,
        "lon": 77.6184938,
        "tags": {
          "amenity": "bank",
          "atm": "no",
          "brand": "Canara Bank",
          "brand:en": "Canara Bank",
          "brand:hi": "\u0915\u0947\u0928\u0930\u093e \u092c\u0948\u0902\u0915",
          "brand:kn": "\u0c95\u0cc6\u0ca8\u0cb0\u0cbe \u0cac\u0ccd\u0caf\u0cbe\u0c82\u0c95\u0ccd",
          "brand:pa": "\u0a15\u0a47\u0a28\u0a30\u0a3e \u0a2c\u0a48\u0a02\u0a15",
          "brand:pnb": "\u06a9\u06cc\u0646\u0631\u0627 \u0628\u06cc\u0646\u06a9",
          "brand:ur": "\u06a9\u06cc\u0646\u0631\u0627 \u0628\u06cc\u0646\u06a9",
          "brand:wikidata": "Q2003777",
          "brand:wikipedia": "en:Canara Bank",
          "brand:wikipedia:pa": "\u0a15\u0a47\u0a28\u0a30\u0a3e \u0a2c\u0a48\u0a02\u0a15",
          "level": "3",
          "name": "Canara Bank",
          "name:en": "Canara Bank",
          "name:hi": "\u0915\u0947\u0928\u0930\u093e \u092c\u0948\u0902\u0915",
          "name:kn": "\u0c95\u0cc6\u0ca8\u0cb0\u0cbe \u0cac\u0ccd\u0caf\u0cbe\u0c82\u0c95\u0ccd",
          "name:pa": "\u0a15\u0a47\u0a28\u0a30\u0a3e \u0a2c\u0a48\u0a02\u0a15",
          "name:pnb": "\u06a9\u06cc\u0646\u0631\u0627 \u0628\u06cc\u0646\u06a9",
          "name:ur": "\u06a9\u06cc\u0646\u0631\u0627 \u0628\u06cc\u0646\u06a9",
          "website": "https://www.canarabank.com/"
        }
      },
      {
        "type": "node",
        "id": 3837441455,
        "lat": 12.970003,
        "lon": 77.6310087,
        "tags": {
          "addr:housenumber": "114",
          "addr:street": "Sai Baba Mandira Road",
          "amenity": "fast_food",
          "cuisine": "indian",
          "delivery": "no",
          "diet:vegetarian": "yes",
          "name": "Om Sai Skanda Dosa Camp"
        }
      },
      {
        "type": "node",
        "id": 4286285302,
        "lat": 12.9772166,
        "lon": 77.631572,
        "tags": {
          "addr:housenumber": "20",
          "addr:street": "1st Main Road",
          "amenity": "atm",
          "brand": "ICICI Bank",
          "brand:wikidata": "Q1653258",
          "name": "ICICI Bank",
          "operator": "ICICI Bank",
          "operator:wikidata": "Q1653258",
          "short_name": "ICICI"
        }
      },
      {
        "type": "node",
        "id": 4286285517,
        "lat": 12.9777082,
        "lon": 77.6323407,
        "tags": {
          "addr:housenumber": "111(3/1)",
          "addr:street": "18th Cross Road",
          "amenity": "hospital",
          "description": "hospital",
          "healthcare": "hospital",
          "name": "Ameena Medical centre"
        }
      },
      {
        "type": "node",
        "id": 4445139977,
        "lat": 12.9703581,
        "lon": 77.63022,
        "tags": {
          "addr:city": "Bangalore",
          "addr:housenumber": "58/1",
          "addr:postcode": "560008",
          "addr:street": "3rd main shridi sai baba mandir road, Cambridge layout halasuru",
          "amenity": "hospital",
          "name": "Indianova Healthcare Pvt Ltd",
          "phone": "+9197390 07505",
          "website": "indianovahealthcare.com"
        }
      },
      {
        "type": "node",
        "id": 4463865291,
        "lat": 12.9737462,
        "lon": 77.6193171,
        "tags": {
          "addr:postcode": "560001",
          "addr:street": "Naveen Complex Building,MG Road",
          "amenity": "bank",
          "brand": "Canara Bank",
          "brand:en": "Canara Bank",
          "brand:hi": "\u0915\u0947\u0928\u0930\u093e \u092c\u0948\u0902\u0915",
          "brand:kn": "\u0c95\u0cc6\u0ca8\u0cb0\u0cbe \u0cac\u0ccd\u0caf\u0cbe\u0c82\u0c95\u0ccd",
          "brand:pa": "\u0a15\u0a47\u0a28\u0a30\u0a3e \u0a2c\u0a48\u0a02\u0a15",
          "brand:pnb": "\u06a9\u06cc\u0646\u0631\u0627 \u0628\u06cc\u0646\u06a9",
          "brand:ur": "\u06a9\u06cc\u0646\u0631\u0627 \u0628\u06cc\u0646\u06a9",
          "brand:wikidata": "Q2003777",
          "brand:wikipedia": "en:Canara Bank",
          "brand:wikipedia:pa": "\u0a15\u0a47\u0a28\u0a30\u0a3e \u0a2c\u0a48\u0a02\u0a15",
          "name": "Canara Bank",
          "name:en": "Canara Bank",
          "name:hi": "\u0915\u0947\u0928\u0930\u093e \u092c\u0948\u0902\u0915",
          "name:kn": "\u0c95\u0cc6\u0ca8\u0cb0\u0cbe \u0cac\u0ccd\u0caf\u0cbe\u0c82\u0c95\u0ccd",
          "name:pa": "\u0a15\u0a47\u0a28\u0a30\u0a3e \u0a2c\u0a48\u0a02\u0a15",
          "name:pnb": "\u06a9\u06cc\u0646\u0631\u0627 \u0628\u06cc\u0646\u06a9",
          "name:ur": "\u06a9\u06cc\u0646\u0631\u0627 \u0628\u06cc\u0646\u06a9",
          "opening_hours": "Mo-Sa 22:00-06:00",
          "website": "https://www.canarabank.com/"
        }
      },
      {
        "type": "node",
        "id": 4832473456,
        "lat": 12.9759486,
        "lon": 77.6253838,
        "tags": {
          "addr:city": "Bangalore",
          "addr:postcode": "560008",
          "addr:street": "Car Street",
          "amenity": "bank",
          "atm": "yes",
          "brand": "Indian Bank",
          "brand:wikidata": "Q2003789",
          "brand:wikipedia": "en:Indian Bank",
          "check_date": "2024-03-05",
          "name": "Indian Bank",
          "name:en": "Indian Bank",
          "name:kn": "\u0c87\u0c82\u0ca1\u0cbf\u0caf\u0ca8\u0ccd \u0cac\u0ccd\u0caf\u0cbe\u0c82\u0c95\u0ccd",
          "operator": "Indian Bank",
          "website": "https://www.indianbank.in/"
        }
      },
      {
        "type": "node",
        "id": 4834488421,
        "lat": 12.9759801,
        "lon": 77.6252681,
        "tags": {
          "addr:postcode": "560008",
          "addr:street": "car street",
          "amenity": "restaurant",
          "name": "Udupi Vaibhav",
          "name:en": "Udupi Vaibhav"
        }
      },
      {
        "type": "node",
        "id": 4840185928,
        "lat": 12.9716236,
        "lon": 77.6273835,
        "tags": {
          "addr:district": "Bengaluru Urban",
          "addr:full": "No 18/17, Cambridge Road, Ulsoor",
          "addr:postcode": "560008",
          "addr:state": "Karnataka",
          "amenity": "hospital",
          "healthcare": "hospital",
          "name": "Cambridge Hospital",
          "name:en": "Cambridge Hospital",
          "source": "OpenGovernmentData"
        }
      },
      {
        "type": "node",
        "id": 4840186222,
        "lat": 12.9753996,
        "lon": 77.6223913,
        "tags": {
          "amenity": "pharmacy",
          "healthcare": "pharmacy",
          "name": "Suneel Pharma",
          "name:en": "Suneel Pharma"
        }
      },
      {
        "type": "node",
        "id": 4846787926,
        "lat": 12.9755275,
        "lon": 77.6179176,
        "tags": {
          "amenity": "bank",
          "brand": "BNP Paribas",
          "brand:wikidata": "Q499707",
          "brand:wikipedia": "en:BNP Paribas",
          "name": "BNP Paribas",
          "name:en": "BNP PARIBAS"
        }
      },
      {
        "type": "node",
        "id": 4846789724,
        "lat": 12.9749189,
        "lon": 77.6185055,
        "tags": {
          "amenity": "bank",
          "brand": "HDFC Bank",
          "brand:wikidata": "Q631047",
          "name": "HDFC Bank",
          "name:en": "HDFC Bank",
          "name:kn": "\u0c8e\u0c9a\u0ccd \u0ca1\u0cbf \u0c8e\u0cab\u0ccd \u0cb8\u0cbf",
          "short_name": "HDFC"
        }
      },
      {
        "type": "node",
        "id": 4846817422,
        "lat": 12.9746129,
        "lon": 77.6193934,
        "tags": {
          "addr:city": "Bengaluru",
          "addr:country": "IN",
          "addr:floor": "G",
          "addr:postcode": "560008",
          "addr:street": "Halasuru Road",
          "addr:suburb": "Ulsoor",
          "air_conditioning": "yes",
          "amenity": "cafe",
          "bar": "no",
          "check_date": "2025-01-11",
          "contact:instagram": "@marzipan.cafe",
          "cuisine": "greek",
          "delivery": "yes",
          "email": "marzipan.ulsoor@gmail.com",
          "level": "0",
          "name": "Marzipan Cafe",
          "name:en": "Marzipan Cafe",
          "outdoor_seating": "yes",
          "payment:cash": "yes",
          "payment:credit_cards": "yes",
          "payment:debit_cards": "yes",
          "phone": "9844422724",
          "shop": "bakery",
          "takeaway": "yes",
          "wheelchair": "no"
        }
      },
      {
        "type": "node",
        "id": 5265720466,
        "lat": 12.977874,
        "lon": 77.6285,
        "tags": {
          "amenity": "bank",
          "name": "Repco Bank"
        }
      },
      {
        "type": "node",
        "id": 5524163946,
        "lat": 12.9737445,
        "lon": 77.62041,
        "tags": {
          "amenity": "cafe",
          "level": "5",
          "name": "Cafe Felix"
        }
      },
      {
        "type": "node",
        "id": 5599537622,
        "lat": 12.973347,
        "lon": 77.6217445,
        "tags": {
          "addr:city": "Bangalore",
          "addr:housenumber": "0",
          "addr:postcode": "560008",
          "addr:street": "Ground floor Lido mall",
          "amenity": "fast_food",
          "brand": "McDonald's",
          "brand:pa": "\u0a2e\u0a48\u0a15\u0a21\u0a4b\u0a28\u0a32\u0a21\u2019\u0a1c\u0a3c",
          "brand:ur": "\u0645\u06a9\u0688\u0648\u0646\u0644\u0688\u0632",
          "brand:wikidata": "Q38076",
          "brand:wikipedia": "en:McDonald's",
          "brand:wikipedia:pa": "\u0a2e\u0a48\u0a15\u0a21\u0a4b\u0a28\u0a32\u0a21\u2019\u0a1c\u0a3c",
          "brand:wikipedia:ur": "\u0645\u06a9\u0688\u0648\u0646\u0644\u0688\u0632",
          "cuisine": "burger",
          "name": "McDonald's",
          "name:kn": "\u0cae\u0ccd\u0caf\u0cbe\u0c95\u0ccd\u200c\u0ca1\u0cca\u0ca8\u0cbe\u0cb2\u0ccd\u0ca1\u0ccd\u0cb8\u0ccd",
          "name:pa": "\u0a2e\u0a48\u0a15\u0a21\u0a4b\u0a28\u0a32\u0a21\u2019\u0a1c\u0a3c",
          "name:ur": "\u0645\u06a9\u0688\u0648\u0646\u0644\u0688\u0632",
          "takeaway": "yes",
          "wheelchair": "yes"
        }
      },
      {
        "type": "node",
        "id": 5714945190,
        "lat": 12.9721029,
        "lon": 77.6193559,
        "tags": {
          "amenity": "bank",
          "branch": "CAB Bangalore Branch",
          "brand": "State Bank of India",
          "brand:wikidata": "Q1340361",
          "name": "State Bank of India",
          "name:kn": "\u0c8e\u0cb8\u0ccd \u0cac\u0cbf \u0c90",
          "short_name": "SBI"
        }
      },
      {
        "type": "node",
        "id": 6393846700,
        "lat": 12.9713759,
        "lon": 77.6348862,
        "tags": {
          "amenity": "atm",
          "brand": "IDBI Bank",
          "brand:wikidata": "Q3633485",
          "covered": "yes",
          "currency:INR": "yes",
          "name": "IDBI Bank",
          "operator": "IDBI Bank",
          "operator:wikidata": "Q3633485",
          "short_name": "IDBI"
        }
      },
      {
        "type": "node",
        "id": 6393846701,
        "lat": 12.9712853,
        "lon": 77.6348681,
        "tags": {
          "amenity": "atm",
          "brand": "Andhra Bank",
          "brand:wikidata": "Q2003476",
          "covered": "yes",
          "currency:INR": "yes",
          "name": "Andhra Bank",
          "name:kn": "\u0c86\u0c82\u0ca7\u0ccd\u0cb0 \u0cac\u0ccd\u0caf\u0cbe\u0c82\u0c95\u0ccd",
          "operator": "Andhra Bank",
          "operator:wikidata": "Q2003476"
        }
      },
      {
        "type": "node",
        "id": 6458988265,
        "lat": 12.977819,
        "lon": 77.6303184,
        "tags": {
          "amenity": "fast_food",
          "name": "Dosa shop"
        }
      },
      {
        "type": "node",
        "id": 6458991781,
        "lat": 12.9777866,
        "lon": 77.6302967,
        "tags": {
          "amenity": "pharmacy",
          "check_date": "2024-02-06",
          "healthcare": "pharmacy",
          "name": "Suresh Pharma"
        }
      },
      {
        "type": "node",
        "id": 6938864303,
        "lat": 12.976032,
        "lon": 77.6254061,
        "tags": {
          "addr:district": "Bengaluru Urban",
          "addr:full": "CGHS Dispensary No.4, Ulsoor No.27, Car StreetUlsoor",
          "addr:postcode": "560004",
          "addr:state": "Karnataka",
          "amenity": "clinic",
          "health_facility:type": "dispensary",
          "healthcare": "centre",
          "name": "CGHS Dispensary No.4",
          "operator:type": "government",
          "source": "OpenGovernmentData",
          "website": "http://nb.bsf.gov.in/CGHS%20DIspenseries.pdf"
        }
      },
      {
        "type": "node",
        "id": 6944256063,
        "lat": 12.9781151,
        "lon": 77.6301697,
        "tags": {
          "addr:district": "Bengaluru Urban",
          "addr:full": "10,12 th Cross, Lakshmipuram",
          "addr:postcode": "560008",
          "addr:state": "Karnataka",
          "amenity": "clinic",
          "healthcare": "clinic",
          "name": "Joseph Clinic, Bengaluru Urban",
          "source": "OpenGovernmentData"
        }
      },
      {
        "type": "node",
        "id": 6944364980,
        "lat": 12.970023,
        "lon": 77.6307987,
        "tags": {
          "addr:district": "Bengaluru Urban",
          "addr:full": "No. 114, 5Th Cross, Sai Baba Temple Road, Cambridge Layout, Ulsoor",
          "addr:postcode": "560008",
          "addr:state": "Karnataka",
          "amenity": "hospital",
          "name": "Sadhana Eye Hospital, Bengaluru Urban",
          "source": "OpenGovernmentData"
        }
      },
      {
        "type": "node",
        "id": 6944418996,
        "lat": 12.975802,
        "lon": 77.6184806,
        "tags": {
          "addr:district": "Bengaluru Urban",
          "addr:full": "No.1 Haudin Road, Off Ulsoor Road",
          "addr:postcode": "560042",
          "addr:state": "Karnataka",
          "amenity": "hospital",
          "name": "Nikad Ortho Centre",
          "source": "OpenGovernmentData"
        }
      },
      {
        "type": "node",
        "id": 6947371813,
        "lat": 12.9709143,
        "lon": 77.6321116,
        "tags": {
          "addr:district": "Bengaluru Urban",
          "addr:full": "#289.1 Cross, Cambridge Layout, Halasuru, Near Sai Baba Temple",
          "addr:postcode": "560008",
          "addr:state": "Karnataka",
          "amenity": "hospital",
          "name": "Health Cottage Hospital",
          "source": "OpenGovernmentData"
        }
      },
      {
        "type": "node",
        "id": 7178597795,
        "lat": 12.973545,
        "lon": 77.6204172,
        "tags": {
          "addr:city": "Bengaluru",
          "addr:country": "IN",
          "addr:hamlet": "Ulsoor",
          "addr:housenumber": "1MG Mall",
          "addr:postcode": "560008",
          "addr:street": "Mahatma Gandhi Road",
          "amenity": "cafe",
          "name": "Food Hall",
          "website": "https://www.foodhallonline.com/"
        }
      },
      {
        "type": "node",
        "id": 7572526710,
        "lat": 12.9698194,
        "lon": 77.6317472,
        "tags": {
          "addr:district": "Bengaluru Urban",
          "addr:full": "Someshvarapura Layout, Jogupalya, Bengaluru",
          "addr:postcode": "560008",
          "addr:state": "Karnataka",
          "amenity": "hospital",
          "name": "Sai Baba Hospital",
          "name:kn": "\u0cb8\u0cbe\u0caf\u0cbf\u0cac\u0cbe\u0cac \u0c86\u0cb8\u0ccd\u0caa\u0ca4\u0ccd\u0cb0\u0cc6",
          "source": "Local Knowledge"
        }
      },
      {
        "type": "node",
        "id": 7572526746,
        "lat": 12.9767057,
        "lon": 77.6229194,
        "tags": {
          "addr:district": "Bengaluru Urban",
          "addr:full": "Someshwarpura, Halasuru, Bengaluru",
          "addr:postcode": "560008",
          "addr:state": "Karnataka",
          "amenity": "clinic",
          "name": "Ghagare Health Care Clinic",
          "source": "Local Knowledge"
        }
      },
      {
        "type": "node",
        "id": 7572526767,
        "lat": 12.9693009,
        "lon": 77.6317545,
        "tags": {
          "addr:district": "Bengaluru Urban",
          "addr:full": "Someshvarapura Layout, Jogupalya, Bengaluru",
          "addr:postcode": "560008",
          "addr:state": "Karnataka",
          "amenity": "hospital",
          "name": "ESIC Hospital",
          "source": "Local Knowledge"
        }
      },
      {
        "type": "node",
        "id": 7572526775,
        "lat": 12.9714838,
        "lon": 77.6350988,
        "tags": {
          "addr:district": "Bengaluru Urban",
          "addr:full": "Indiranagar, Bengaluru",
          "addr:postcode": "560008",
          "addr:state": "Karnataka",
          "amenity": "clinic",
          "check_date": "2023-10-12",
          "name": "Dr. Banerjee Homeopathy Clinic",
          "source": "Local Knowledge"
        }
      },
      {
        "type": "node",
        "id": 7572526777,
        "lat": 12.9694023,
        "lon": 77.6300504,
        "tags": {
          "addr:district": "Bengaluru Urban",
          "addr:full": "Cambridge Layout, Halasuru, Bengaluru",
          "addr:postcode": "560008",
          "addr:state": "Karnataka",
          "amenity": "clinic",
          "name": "Orthotrend Clinic",
          "source": "Local Knowledge"
        }
      },
      {
        "type": "node",
        "id": 7572526809,
        "lat": 12.9728469,
        "lon": 77.6268497,
        "tags": {
          "addr:district": "Bengaluru Urban",
          "addr:full": "Cambridge Road, Udani Layout, Jogupalya, Bengaluru",
          "addr:postcode": "560008",
          "addr:state": "Karnataka",
          "amenity": "clinic",
          "healthcare": "clinic",
          "name": "Rai Clinic",
          "source": "Local Knowledge"
        }
      },
      {
        "type": "node",
        "id": 8442476342,
        "lat": 12.9723374,
        "lon": 77.6187616,
        "tags": {
          "addr:city": "Bengaluru",
          "addr:hamlet": "Craig Park Layout",
          "addr:housename": "Ramanashree Arcade",
          "addr:postcode": "560001",
          "addr:street": "Mahatma Gandhi Road",
          "addr:suburb": "Ashok Nagar",
          "amenity": "restaurant",
          "capacity": "41",
          "contact:facebook": "comal.india",
          "contact:instagram": "comal.in",
          "cuisine": "mexican",
          "delivery": "no",
          "name": "Comal",
          "opening_hours": "Tu-Su 12:00-15:00,19:00-22:30",
          "outdoor_seating": "no",
          "phone": "+91 8123240555",
          "reservation": "required",
          "start_date": "06-12-2024",
          "takeaway": "no"
        }
      },
      {
        "type": "node",
        "id": 9230655289,
        "lat": 12.972361,
        "lon": 77.6186442,
        "tags": {
          "air_conditioning": "yes",
          "amenity": "restaurant",
          "cuisine": "regional",
          "diet:vegetarian": "yes",
          "indoor_seating": "yes",
          "name": "Dindigul Thalappakatti",
          "outdoor_seating": "no",
          "smoking": "no"
        }
      },
      {
        "type": "node",
        "id": 9230655290,
        "lat": 12.9723446,
        "lon": 77.618718,
        "tags": {
          "amenity": "restaurant",
          "cuisine": "italian",
          "name": "Chianti"
        }
      },
      {
        "type": "node",
        "id": 9230655291,
        "lat": 12.9723937,
        "lon": 77.6184551,
        "tags": {
          "addr:floor": "G",
          "air_conditioning": "yes",
          "amenity": "cafe",
          "bar": "no",
          "brand": "Starbucks",
          "brand:pa": "\u0a38\u0a1f\u0a3e\u0a30\u0a2c\u0a15\u0a38",
          "brand:ur": "\u0627\u0633\u0679\u0627\u0631\u0628\u06a9\u0633",
          "brand:wikidata": "Q37158",
          "brand:wikipedia": "en:Starbucks",
          "capacity": "50",
          "check_date": "2024-06-23",
          "cuisine": "coffee_shop",
          "indoor_seating": "yes",
          "internet_access": "wlan",
          "internet_access:fee": "customers",
          "level": "0",
          "name": "Starbucks",
          "name:pa": "\u0a38\u0a1f\u0a3e\u0a30\u0a2c\u0a15\u0a38",
          "name:ur": "\u0627\u0633\u0679\u0627\u0631\u0628\u06a9\u0633",
          "official_name": "Starbucks Coffee",
          "official_name:pa": "\u0a38\u0a1f\u0a3e\u0a30\u0a2c\u0a15\u0a38 \u0a15\u0a4c\u0a2b\u0a40",
          "official_name:ur": "\u0627\u0633\u0679\u0627\u0631\u0628\u06a9\u0633 \u06a9\u0627\u0641\u06cc",
          "outdoor_seating": "no",
          "payment:cash": "yes",
          "payment:mastercard": "yes",
          "payment:visa": "yes",
          "takeaway": "yes",
          "toilets": "yes"
        }
      },
      {
        "type": "node",
        "id": 9230655292,
        "lat": 12.9723584,
        "lon": 77.6183143,
        "tags": {
          "amenity": "fast_food"
        }
      },
      {
        "type": "node",
        "id": 9811346733,
        "lat": 12.9745892,
        "lon": 77.6196447,
        "tags": {
          "amenity": "bank",
          "atm": "yes",
          "brand": "Union Bank of India",
          "brand:wikidata": "Q2004078",
          "name": "Union Bank of India",
          "name:kn": "\u0caf\u0cc2\u0ca8\u0cbf\u0caf\u0ca8\u0ccd \u0cac\u0ccd\u0caf\u0cbe\u0c82\u0c95\u0ccd",
          "operator": "Union Bank of India"
        }
      },
      {
        "type": "node",
        "id": 9811346735,
        "lat": 12.975044,
        "lon": 77.6191498,
        "tags": {
          "amenity": "fast_food",
          "name": "Lassi Corner"
        }
      },
      {
        "type": "node",
        "id": 10727955503,
        "lat": 12.9732928,
        "lon": 77.6203649,
        "tags": {
          "addr:city": "Bangalore",
          "addr:country": "IN",
          "addr:housename": "1 MG Road Mall",
          "addr:postcode": "560008",
          "addr:street": "Mahatma Gandhi Road",
          "amenity": "restaurant",
          "contact:facebook": "YauatchaBlr",
          "contact:instagram": "yauatchabengaluru",
          "cuisine": "cantonese",
          "delivery": "yes",
          "email": "reservation.bengaluru@yauatchaindia.com",
          "level": "5",
          "name": "Yauatcha",
          "phone": "+91 922 2222800",
          "reservation": "yes",
          "website": "https://yauatcha.com/bengaluru/"
        }
      },
      {
        "type": "node",
        "id": 11131430556,
        "lat": 12.9696889,
        "lon": 77.6325273,
        "tags": {
          "amenity": "restaurant",
          "cuisine": "chinese",
          "name": "Hong Kong Chinese Restaurant"
        }
      },
      {
        "type": "node",
        "id": 11131430558,
        "lat": 12.9686442,
        "lon": 77.6291495,
        "tags": {
          "amenity": "fast_food",
          "brand": "Domino's",
          "brand:wikidata": "Q839466",
          "cuisine": "pizza",
          "name": "Domino's",
          "name:kn": "\u0ca1\u0cbe\u0cae\u0cbf\u0ca8\u0ccb\u0cb8\u0ccd",
          "takeaway": "yes"
        }
      },
      {
        "type": "node",
        "id": 11131430559,
        "lat": 12.9693732,
        "lon": 77.6287175,
        "tags": {
          "amenity": "bank",
          "brand": "HDFC Bank",
          "brand:wikidata": "Q631047",
          "name": "HDFC Bank",
          "name:kn": "\u0c8e\u0c9a\u0ccd \u0ca1\u0cbf \u0c8e\u0cab\u0ccd \u0cb8\u0cbf",
          "short_name": "HDFC"
        }
      },
      {
        "type": "node",
        "id": 11131430560,
        "lat": 12.9714734,
        "lon": 77.6277316,
        "tags": {
          "amenity": "pharmacy",
          "brand": "MedPlus",
          "brand:wikidata": "Q65684234",
          "healthcare": "pharmacy",
          "name": "MedPlus"
        }
      },
      {
        "type": "node",
        "id": 11131430561,
        "lat": 12.9714974,
        "lon": 77.6277058,
        "tags": {
          "amenity": "atm",
          "brand": "Kotak Mahindra Bank",
          "brand:wikidata": "Q2040404",
          "operator": "Kotak Mahindra Bank",
          "operator:wikidata": "Q2040404"
        }
      },
      {
        "type": "node",
        "id": 11385585231,
        "lat": 12.972819,
        "lon": 77.6172708,
        "tags": {
          "amenity": "atm",
          "brand": "State Bank of India",
          "brand:wikidata": "Q1340361",
          "check_date": "2023-11-30",
          "level": "1",
          "operator": "State Bank of India",
          "operator:wikidata": "Q1340361",
          "short_name": "SBI"
        }
      },
      {
        "type": "node",
        "id": 11404712824,
        "lat": 12.9776472,
        "lon": 77.6273121,
        "tags": {
          "amenity": "pharmacy",
          "name": "Shree Raajarajeshwari Medicals & General store"
        }
      },
      {
        "type": "node",
        "id": 11499112406,
        "lat": 12.972617,
        "lon": 77.6266243,
        "tags": {
          "addr:floor": "2",
          "amenity": "restaurant",
          "check_date": "2024-01-08",
          "contact:instagram": "https://www.instagram.com/podiandspice",
          "level": "2",
          "name": "Podi and Spice"
        }
      },
      {
        "type": "node",
        "id": 11594813843,
        "lat": 12.9784568,
        "lon": 77.6302376,
        "tags": {
          "check_date": "2025-08-18",
          "check_date:opening_hours": "2025-08-18",
          "description": "Wholesale store for household items",
          "internet_access": "no",
          "name": "Mahadev Marketing",
          "opening_hours": "Mo-Su 09:00-21:00",
          "payment:cards": "no",
          "payment:cash": "yes",
          "payment:credit_cards": "no",
          "payment:debit_cards": "no",
          "shop": "department_store",
          "toilets": "no"
        }
      },
      {
        "type": "node",
        "id": 11630684166,
        "lat": 12.9782284,
        "lon": 77.6306448,
        "tags": {
          "amenity": "atm",
          "brand": "Canara Bank",
          "brand:en": "Canara Bank",
          "brand:hi": "\u0915\u0947\u0928\u0930\u093e \u092c\u0948\u0902\u0915",
          "brand:kn": "\u0c95\u0cc6\u0ca8\u0cb0\u0cbe \u0cac\u0ccd\u0caf\u0cbe\u0c82\u0c95\u0ccd",
          "brand:pa": "\u0a15\u0a47\u0a28\u0a30\u0a3e \u0a2c\u0a48\u0a02\u0a15",
          "brand:pnb": "\u06a9\u06cc\u0646\u0631\u0627 \u0628\u06cc\u0646\u06a9",
          "brand:ur": "\u06a9\u06cc\u0646\u0631\u0627 \u0628\u06cc\u0646\u06a9",
          "brand:wikidata": "Q2003777",
          "cash_in": "no",
          "check_date": "2024-02-16",
          "currency:INR": "yes",
          "indoor": "yes",
          "name:en": "Canara Bank",
          "name:hi": "\u0915\u0947\u0928\u0930\u093e \u092c\u0948\u0902\u0915",
          "name:kn": "\u0c95\u0cc6\u0ca8\u0cb0\u0cbe \u0cac\u0ccd\u0caf\u0cbe\u0c82\u0c95\u0ccd",
          "name:pa": "\u0a15\u0a47\u0a28\u0a30\u0a3e \u0a2c\u0a48\u0a02\u0a15",
          "name:pnb": "\u06a9\u06cc\u0646\u0631\u0627 \u0628\u06cc\u0646\u06a9",
          "name:ur": "\u06a9\u06cc\u0646\u0631\u0627 \u0628\u06cc\u0646\u06a9",
          "operator": "Canara Bank",
          "operator:wikidata": "Q2003777"
        }
      },
      {
        "type": "node",
        "id": 11630738956,
        "lat": 12.9784085,
        "lon": 77.630885,
        "tags": {
          "amenity": "pharmacy",
          "check_date": "2024-02-16",
          "healthcare": "pharmacy",
          "internet_access": "no",
          "name": "Eshwar Pharma",
          "payment:cash": "yes",
          "payment:credit_cards": "yes",
          "payment:debit_cards": "yes",
          "phone": "+91 91643 45443",
          "wheelchair": "no"
        }
      },
      {
        "type": "node",
        "id": 11630772965,
        "lat": 12.9784895,
        "lon": 77.6299631,
        "tags": {
          "amenity": "restaurant",
          "check_date": "2024-10-06",
          "cuisine": "indian",
          "internet_access": "no",
          "name": "Ambur Hot Dum Biriyani",
          "payment:cards": "no",
          "payment:cash": "yes",
          "payment:credit_cards": "no",
          "payment:debit_cards": "no",
          "wheelchair": "no"
        }
      },
      {
        "type": "node",
        "id": 11659385837,
        "lat": 12.9736597,
        "lon": 77.6229416,
        "tags": {
          "amenity": "pharmacy",
          "check_date": "2024-02-24",
          "healthcare": "pharmacy",
          "internet_access": "no",
          "name": "Pharma Point",
          "payment:cash": "yes",
          "payment:credit_cards": "yes",
          "payment:debit_cards": "yes",
          "wheelchair": "no"
        }
      },
      {
        "type": "node",
        "id": 11659393739,
        "lat": 12.9737997,
        "lon": 77.6231991,
        "tags": {
          "amenity": "bank",
          "brand": "Punjab & Sind Bank",
          "brand:en": "Punjab & Sind Bank",
          "brand:hi": "\u092a\u0902\u091c\u093e\u092c \u090f\u0923\u094d\u0921 \u0938\u093f\u0902\u0927 \u092c\u0948\u0902\u0915",
          "brand:wikidata": "Q2003302",
          "check_date": "2024-02-24",
          "internet_access": "no",
          "name": "Punjab & Sind Bank",
          "name:en": "Punjab & Sind Bank",
          "name:hi": "\u092a\u0902\u091c\u093e\u092c \u090f\u0923\u094d\u0921 \u0938\u093f\u0902\u0927 \u092c\u0948\u0902\u0915"
        }
      },
      {
        "type": "node",
        "id": 11659393740,
        "lat": 12.9737843,
        "lon": 77.6231744,
        "tags": {
          "amenity": "atm",
          "check_date": "2024-02-24",
          "currency:INR": "yes",
          "operator": "Punjab & Sind Bank ATM"
        }
      },
      {
        "type": "node",
        "id": 11659407358,
        "lat": 12.9783601,
        "lon": 77.6313384,
        "tags": {
          "amenity": "fast_food",
          "check_date": "2024-02-19",
          "cuisine": "juice",
          "internet_access": "no",
          "name": "Sri Brahmalingeshwara Juice And Condiments",
          "payment:cards": "no",
          "payment:cash": "yes",
          "payment:credit_cards": "no",
          "payment:debit_cards": "no",
          "wheelchair": "no"
        }
      },
      {
        "type": "node",
        "id": 11684465147,
        "lat": 12.9776129,
        "lon": 77.6273546,
        "tags": {
          "amenity": "restaurant",
          "check_date": "2024-03-02",
          "internet_access": "no",
          "name": "Zamam's Darbaar",
          "payment:cards": "no",
          "payment:cash": "yes",
          "payment:credit_cards": "no",
          "payment:debit_cards": "no",
          "wheelchair": "no"
        }
      },
      {
        "type": "node",
        "id": 11684501144,
        "lat": 12.9774449,
        "lon": 77.6271297,
        "tags": {
          "amenity": "hospital",
          "check_date": "2024-03-02",
          "healthcare": "hospital",
          "name": "Span Health Center"
        }
      },
      {
        "type": "node",
        "id": 11690851846,
        "lat": 12.9784197,
        "lon": 77.6306998,
        "tags": {
          "amenity": "clinic",
          "check_date": "2024-03-04",
          "healthcare": "clinic",
          "name": "Laxmi Piles Clinic"
        }
      },
      {
        "type": "node",
        "id": 11694166515,
        "lat": 12.9753427,
        "lon": 77.6255211,
        "tags": {
          "amenity": "restaurant",
          "check_date": "2024-03-05",
          "internet_access": "no",
          "name": "Sri Krishna Foodline",
          "payment:cards": "no",
          "payment:cash": "yes",
          "payment:credit_cards": "no",
          "payment:debit_cards": "no",
          "phone": "+91 95380 88881",
          "wheelchair": "no"
        }
      },
      {
        "type": "node",
        "id": 11694166516,
        "lat": 12.9753224,
        "lon": 77.6255177,
        "tags": {
          "amenity": "fast_food",
          "check_date": "2024-03-05",
          "cuisine": "juice",
          "internet_access": "no",
          "name": "Juicy Creamz",
          "payment:cards": "no",
          "payment:cash": "yes",
          "payment:credit_cards": "no",
          "payment:debit_cards": "no",
          "wheelchair": "no"
        }
      },
      {
        "type": "node",
        "id": 11694188673,
        "lat": 12.9760589,
        "lon": 77.6248726,
        "tags": {
          "amenity": "restaurant",
          "check_date": "2024-03-05",
          "cuisine": "chinese",
          "internet_access": "no",
          "name": "Kaati King",
          "payment:cards": "no",
          "payment:cash": "yes",
          "payment:credit_cards": "no",
          "payment:debit_cards": "no",
          "wheelchair": "no"
        }
      },
      {
        "type": "node",
        "id": 11694214521,
        "lat": 12.9761609,
        "lon": 77.6244665,
        "tags": {
          "amenity": "pharmacy",
          "check_date": "2024-03-05",
          "healthcare": "pharmacy",
          "name": "Sri Sai Med Pharma",
          "phone": "+91 98443 85199"
        }
      },
      {
        "type": "node",
        "id": 11694214522,
        "lat": 12.9761193,
        "lon": 77.6242848,
        "tags": {
          "amenity": "doctors",
          "check_date": "2024-03-05",
          "healthcare": "doctor",
          "healthcare:speciality": "dermatology",
          "name": "Dr. Sahana's Skin & Hair Clinic",
          "phone": "+91 70196 43144"
        }
      },
      {
        "type": "node",
        "id": 11694239927,
        "lat": 12.9757077,
        "lon": 77.6259807,
        "tags": {
          "amenity": "bank",
          "brand": "ESAF Small Finance Bank",
          "brand:wikidata": "Q28173964",
          "check_date": "2024-03-05",
          "internet_access": "no",
          "name": "ESAF Small Finance Bank",
          "payment:cash": "yes",
          "payment:credit_cards": "yes",
          "payment:debit_cards": "yes",
          "wheelchair": "no"
        }
      },
      {
        "type": "node",
        "id": 11694248757,
        "lat": 12.9771934,
        "lon": 77.6270227,
        "tags": {
          "amenity": "restaurant",
          "check_date": "2024-03-05",
          "name": "Samutara Restaurant"
        }
      },
      {
        "type": "node",
        "id": 11694248758,
        "lat": 12.9772272,
        "lon": 77.6270474,
        "tags": {
          "amenity": "restaurant",
          "check_date": "2024-03-05",
          "internet_access": "no",
          "name": "New Taj",
          "payment:cards": "no",
          "payment:cash": "yes",
          "payment:credit_cards": "no",
          "payment:debit_cards": "no",
          "wheelchair": "no"
        }
      },
      {
        "type": "node",
        "id": 11699347751,
        "lat": 12.9782892,
        "lon": 77.6288056,
        "tags": {
          "amenity": "atm",
          "cash_in": "no",
          "check_date": "2024-03-07",
          "currency:INR": "yes",
          "operator": "Axis Bank ATM"
        }
      },
      {
        "type": "node",
        "id": 11707891107,
        "lat": 12.9785518,
        "lon": 77.6294482,
        "tags": {
          "amenity": "fast_food",
          "check_date": "2024-03-09",
          "cuisine": "fish_and_chips",
          "internet_access": "no",
          "name": "Sri Vinayaka Hot Chips",
          "payment:cards": "no",
          "payment:cash": "yes",
          "payment:credit_cards": "no",
          "payment:debit_cards": "no",
          "wheelchair": "no"
        }
      },
      {
        "type": "node",
        "id": 11708674465,
        "lat": 12.978571,
        "lon": 77.6292671,
        "tags": {
          "amenity": "atm",
          "brand": "Karur Vysya Bank",
          "brand:wikidata": "Q6373724",
          "cash_in": "no",
          "check_date": "2024-03-09",
          "currency:INR": "yes",
          "operator": "Karur Vysya Bank",
          "operator:wikidata": "Q6373724"
        }
      },
      {
        "type": "node",
        "id": 11710491602,
        "lat": 12.9778346,
        "lon": 77.6282837,
        "tags": {
          "amenity": "hospital",
          "check_date": "2024-03-10",
          "description": "Multi-speciality hospital",
          "healthcare": "hospital",
          "name": "Uvin Care Hospital"
        }
      },
      {
        "type": "node",
        "id": 11710500779,
        "lat": 12.9780328,
        "lon": 77.6295292,
        "tags": {
          "amenity": "atm",
          "brand": "ICICI Bank",
          "brand:wikidata": "Q1653258",
          "cash_in": "no",
          "check_date": "2024-03-10",
          "currency:INR": "yes",
          "operator": "ICICI Bank",
          "operator:wikidata": "Q1653258",
          "short_name": "ICICI"
        }
      },
      {
        "type": "node",
        "id": 11896917266,
        "lat": 12.9759242,
        "lon": 77.622773,
        "tags": {
          "amenity": "atm",
          "brand": "Canara Bank",
          "brand:en": "Canara Bank",
          "brand:hi": "\u0915\u0947\u0928\u0930\u093e \u092c\u0948\u0902\u0915",
          "brand:kn": "\u0c95\u0cc6\u0ca8\u0cb0\u0cbe \u0cac\u0ccd\u0caf\u0cbe\u0c82\u0c95\u0ccd",
          "brand:pa": "\u0a15\u0a47\u0a28\u0a30\u0a3e \u0a2c\u0a48\u0a02\u0a15",
          "brand:pnb": "\u06a9\u06cc\u0646\u0631\u0627 \u0628\u06cc\u0646\u06a9",
          "brand:ur": "\u06a9\u06cc\u0646\u0631\u0627 \u0628\u06cc\u0646\u06a9",
          "brand:wikidata": "Q2003777",
          "name": "Canara Bank",
          "name:en": "Canara Bank",
          "name:hi": "\u0915\u0947\u0928\u0930\u093e \u092c\u0948\u0902\u0915",
          "name:kn": "\u0c95\u0cc6\u0ca8\u0cb0\u0cbe \u0cac\u0ccd\u0caf\u0cbe\u0c82\u0c95\u0ccd",
          "name:pa": "\u0a15\u0a47\u0a28\u0a30\u0a3e \u0a2c\u0a48\u0a02\u0a15",
          "name:pnb": "\u06a9\u06cc\u0646\u0631\u0627 \u0628\u06cc\u0646\u06a9",
          "name:ur": "\u06a9\u06cc\u0646\u0631\u0627 \u0628\u06cc\u0646\u06a9",
          "operator": "Canara Bank",
          "operator:wikidata": "Q2003777"
        }
      },
      {
        "type": "node",
        "id": 11896935868,
        "lat": 12.9762403,
        "lon": 77.6227329,
        "tags": {
          "amenity": "atm",
          "name": "Union Bank ATM"
        }
      },
      {
        "type": "node",
        "id": 11896939309,
        "lat": 12.9765152,
        "lon": 77.6230761,
        "tags": {
          "amenity": "atm",
          "brand": "ICICI Bank",
          "brand:wikidata": "Q1653258",
          "name": "ICICI Bank",
          "operator": "ICICI Bank",
          "operator:wikidata": "Q1653258",
          "short_name": "ICICI"
        }
      },
      {
        "type": "node",
        "id": 11896951311,
        "lat": 12.9758961,
        "lon": 77.6227691,
        "tags": {
          "amenity": "atm",
          "name": "TMB"
        }
      },
      {
        "type": "node",
        "id": 12006381722,
        "lat": 12.9725727,
        "lon": 77.6205365,
        "tags": {
          "amenity": "fast_food",
          "brand": "Domino's",
          "brand:wikidata": "Q839466",
          "cuisine": "pizza",
          "name": "Domino's",
          "name:kn": "\u0ca1\u0cbe\u0cae\u0cbf\u0ca8\u0ccb\u0cb8\u0ccd",
          "takeaway": "yes"
        }
      },
      {
        "type": "node",
        "id": 12006381723,
        "lat": 12.9725636,
        "lon": 77.6207712,
        "tags": {
          "amenity": "fast_food",
          "name": "IDC"
        }
      },
      {
        "type": "node",
        "id": 12287375450,
        "lat": 12.9717604,
        "lon": 77.6275714,
        "tags": {
          "addr:housenumber": "12/36",
          "addr:street": "Cambridge Road",
          "amenity": "restaurant",
          "check_date": "2024-10-25",
          "contact:instagram": "https://www.instagram.com/guerilladiner",
          "cuisine": "burger;mexican",
          "name": "Guerilla Diner"
        }
      },
      {
        "type": "node",
        "id": 12318821671,
        "lat": 12.9772724,
        "lon": 77.6314306,
        "tags": {
          "amenity": "restaurant",
          "check_date": "2024-11-06",
          "cuisine": "chinese",
          "name": "Tribe Roots"
        }
      },
      {
        "type": "node",
        "id": 12404254558,
        "lat": 12.9764897,
        "lon": 77.6269565,
        "tags": {
          "amenity": "restaurant",
          "check_date": "2024-12-08",
          "name": "Murugan Cafe"
        }
      },
      {
        "type": "node",
        "id": 12492736707,
        "lat": 12.9742285,
        "lon": 77.6198097,
        "tags": {
          "brand": "Nature's Basket",
          "brand:wikidata": "Q28174237",
          "name": "Nature's Basket",
          "shop": "supermarket"
        }
      },
      {
        "type": "node",
        "id": 12526232547,
        "lat": 12.974056,
        "lon": 77.6195173,
        "tags": {
          "amenity": "restaurant",
          "name": "Italia"
        }
      },
      {
        "type": "node",
        "id": 12574343636,
        "lat": 12.9725668,
        "lon": 77.6208704,
        "tags": {
          "amenity": "restaurant",
          "check_date": "2025-02-10",
          "name": "New Kudla"
        }
      },
      {
        "type": "node",
        "id": 12632042172,
        "lat": 12.972464,
        "lon": 77.6203034,
        "tags": {
          "amenity": "cafe",
          "cuisine": "bubble_tea",
          "delivery": "yes",
          "email": "info@yoyotea.in",
          "name": "YOYO! Fresh Tea Bar",
          "opening_hours": "11:00-23:00",
          "phone": "+91 97401 72610",
          "takeaway": "yes",
          "website": "https://yoyofreshtea.in/"
        }
      },
      {
        "type": "node",
        "id": 12853586157,
        "lat": 12.9722075,
        "lon": 77.6184168,
        "tags": {
          "addr:floor": "1",
          "amenity": "restaurant",
          "check_date": "2025-05-21",
          "level": "1",
          "name": "Kerala Pavilion",
          "name:en": "Kerala Pavilion"
        }
      },
      {
        "type": "node",
        "id": 12988984439,
        "lat": 12.9711634,
        "lon": 77.6343582,
        "tags": {
          "amenity": "fast_food",
          "name": "Tronic Rolls"
        }
      },
      {
        "type": "node",
        "id": 13114667051,
        "lat": 12.9777179,
        "lon": 77.6306728,
        "tags": {
          "amenity": "pharmacy",
          "name": "Revive Janata",
          "panoramax": "79f2bf3c-3de5-4988-ae0e-9fb07b69e622"
        }
      }
    ]
  },
  "pois_2_5km": {
    "version": 0.6,
    "generator": "Overpass API 0.7.62.8 e802775f",
    "osm3s": {
      "timestamp_osm_base": "2025-09-06T08:02:01Z",
      "copyright": "The data included in this document is from www.openstreetmap.org. The data is made available under ODbL."
    },
    "elements": [
      {
        "type": "node",
        "id": 60952264,
        "lat": 12.9698611,
        "lon": 77.6029825,
        "tags": {
          "bus": "yes",
          "name": "St. Joseph's College",
          "name:en": "St. Joseph's College",
          "name:kn": "\u0cb8\u0cc7\u0c82\u0c9f\u0ccd \u0c9c\u0ccb\u0cb8\u0cc6\u0cab\u0ccd\u0cb8\u0ccd \u0c95\u0cbe\u0cb2\u0cc7\u0c9c\u0cc1",
          "network": "BMTC",
          "operator": "BMTC",
          "public_transport": "stop_position"
        }
      },
      {
        "type": "node",
        "id": 251146210,
        "lat": 12.9669876,
        "lon": 77.6210343,
        "tags": {
          "bus": "yes",
          "name": "Military Accounts Office",
          "name:en": "Military Accounts Office",
          "network": "BMTC",
          "operator": "BMTC",
          "public_transport": "stop_position"
        }
      },
      {
        "type": "node",
        "id": 298815411,
        "lat": 12.9604628,
        "lon": 77.6435762,
        "tags": {
          "bus": "yes",
          "name": "Domlur Flyover",
          "name:en": "Domlur Flyover",
          "name:kn": "\u0ca6\u0cca\u0cae\u0ccd\u0cae\u0cb2\u0cc2\u0cb0\u0cc1 \u0cae\u0cc7\u0cb2\u0ccd\u0cb8\u0cc7\u0ca4\u0cc1\u0cb5\u0cc6",
          "network": "BMTC",
          "operator": "BMTC",
          "public_transport": "stop_position"
        }
      },
      {
        "type": "node",
        "id": 428847118,
        "lat": 12.9729953,
        "lon": 77.617013,
        "tags": {
          "code": "TTY",
          "name": "Trinity",
          "name:hi": "\u091f\u094d\u0930\u093f\u0928\u093f\u091f\u0940",
          "name:kn": "\u0c9f\u0ccd\u0cb0\u0cbf\u0ca8\u0cbf\u0c9f\u0cbf",
          "network": "Namma Metro",
          "note": "Contributors are requested to not edit the \"network\" and the \"operator\" tags. (2023/11/08)",
          "operator": "Bangalore Metro Rail Corporation Limited",
          "platforms": "2",
          "public_transport": "stop_position",
          "public_transport:version": "2",
          "railway": "stop",
          "source": "http://www.bmrc.co.in/English/Network.htm",
          "subway": "yes",
          "wheelchair": "yes",
          "wikidata": "Q5539214",
          "wikipedia": "en:Trinity metro station"
        }
      },
      {
        "type": "node",
        "id": 431524247,
        "lat": 12.9764915,
        "lon": 77.626705,
        "tags": {
          "code": "HLRU",
          "name": "Halasuru",
          "name:kn": "\u0cb9\u0cb2\u0cb8\u0cc2\u0cb0\u0cc1",
          "network": "Namma Metro",
          "note": "Contributors are requested to not edit the \"network\" and the \"operator\" tags. (2023/11/08)",
          "operator": "Bangalore Metro Rail Corporation Limited",
          "platforms": "2",
          "public_transport": "stop_position",
          "public_transport:version": "2",
          "railway": "stop",
          "source": "http://www.bmrc.co.in/English/Network.htm",
          "subway": "yes",
          "wheelchair": "yes",
          "wikidata": "Q5641098",
          "wikipedia": "en:Halasuru metro station"
        }
      },
      {
        "type": "node",
        "id": 850782876,
        "lat": 12.9756285,
        "lon": 77.6062979,
        "tags": {
          "alt_name": "Plaza Theatre Metro Station",
          "code": "MAGR",
          "int_name": "Mahatma Gandhi Road Metro",
          "local_ref": "2",
          "name": "Mahatma Gandhi Road",
          "name:etymology:wikidata": "Q1001",
          "name:kn": "\u0cae\u0cb9\u0cbe\u0ca4\u0ccd\u0cae \u0c97\u0cbe\u0c82\u0ca7\u0cbf \u0cb0\u0cb8\u0ccd\u0ca4\u0cc6",
          "network": "Namma Metro",
          "note": "Contributors are requested to not edit the \"network\" and the \"operator\" tags. (2023/11/08)",
          "operator": "Bangalore Metro Rail Corporation Limited",
          "public_transport": "stop_position",
          "public_transport:version": "2",
          "railway": "stop",
          "short_name": "MG Road",
          "source": "http://www.bmrc.co.in/English/Network.htm",
          "start_date": "20-10-2011",
          "subway": "yes",
          "to": "Challaghatta",
          "wheelchair": "yes"
        }
      },
      {
        "type": "node",
        "id": 850782880,
        "lat": 12.9783079,
        "lon": 77.6386592,
        "tags": {
          "alt_name": "CMH Road",
          "code": "IDN",
          "name": "Indiranagar",
          "name:hi": "\u0907\u0902\u0926\u093f\u0930\u093e\u0928\u0917\u0930",
          "name:kn": "\u0c87\u0c82\u0ca6\u0cbf\u0cb0\u0cbe\u0ca8\u0c97\u0cb0",
          "network": "Namma Metro",
          "note": "Contributors are requested to not edit the \"network\" and the \"operator\" tags. (2023/11/08)",
          "operator": "Bangalore Metro Rail Corporation Limited",
          "platforms": "2",
          "public_transport": "stop_position",
          "public_transport:version": "2",
          "railway": "stop",
          "source": "http://www.bmrc.co.in/English/Network.htm",
          "subway": "yes",
          "wheelchair": "yes"
        }
      },
      {
        "type": "node",
        "id": 1065137172,
        "lat": 12.9698334,
        "lon": 77.6098091,
        "tags": {
          "addr:housename": "Garuda Mall",
          "addr:street": "Commissariat Road",
          "amenity": "cinema",
          "brand": "INOX Leisure",
          "brand:wikidata": "Q5972349",
          "drive_in": "no",
          "name": "INOX Garuda Mall",
          "screen": "5",
          "short_name": "INOX"
        }
      },
      {
        "type": "node",
        "id": 1809856714,
        "lat": 12.9744138,
        "lon": 77.6095784,
        "tags": {
          "amenity": "cinema",
          "check_date": "2024-08-19",
          "name": "Swagath ShankarNag Chitramandira"
        }
      },
      {
        "type": "node",
        "id": 2396420234,
        "lat": 12.9702144,
        "lon": 77.6051485,
        "tags": {
          "bus": "yes",
          "highway": "bus_stop",
          "name": "St Patrick's Church",
          "name:en": "St Patrick's Church",
          "name:kn": "\u0cb8\u0cc7\u0c82\u0c9f\u0ccd \u0caa\u0cbe\u0c9f\u0ccd\u0cb0\u0cbf\u0c95\u0ccd\u0cb8\u0ccd \u0c9a\u0cb0\u0ccd\u0c9a\u0ccd",
          "network": "BMTC",
          "network:wikidata": "Q3345039",
          "operator": "BMTC",
          "public_transport": "stop_position"
        }
      },
      {
        "type": "node",
        "id": 2475421200,
        "lat": 12.984982,
        "lon": 77.6431751,
        "tags": {
          "bus": "yes",
          "name": "Isolation Hospital",
          "name:en": "Isolation Hospital",
          "name:kn": "\u0c90\u0cb8\u0cca\u0cb2\u0cc7\u0cb6\u0ca8\u0ccd \u0c86\u0cb8\u0ccd\u0caa\u0ca4\u0ccd\u0cb0\u0cc6",
          "network": "BMTC",
          "operator": "BMTC",
          "public_transport": "stop_position"
        }
      },
      {
        "type": "node",
        "id": 2475421201,
        "lat": 12.9850895,
        "lon": 77.6431664,
        "tags": {
          "bus": "yes",
          "name": "Isolation Hospital",
          "name:en": "Isolation Hospital",
          "name:kn": "\u0c90\u0cb8\u0cca\u0cb2\u0cc7\u0cb6\u0ca8\u0ccd \u0c86\u0cb8\u0ccd\u0caa\u0ca4\u0ccd\u0cb0\u0cc6",
          "network": "BMTC",
          "operator": "BMTC",
          "public_transport": "stop_position"
        }
      },
      {
        "type": "node",
        "id": 3170033034,
        "lat": 12.9777027,
        "lon": 77.6278944,
        "tags": {
          "bus": "yes",
          "name": "Halasuru",
          "name:en": "Halasuru",
          "name:kn": "\u0cb9\u0cb2\u0cb8\u0cc2\u0cb0\u0cc1",
          "network": "BMTC",
          "operator": "BMTC",
          "public_transport": "stop_position"
        }
      },
      {
        "type": "node",
        "id": 3370028601,
        "lat": 12.978257,
        "lon": 77.6443355,
        "tags": {
          "addr:street": "Chinmaya Mission Hospital Road",
          "amenity": "theatre",
          "name": "Max Muller Bhavan",
          "name:kn": "\u0cae\u0cbe\u0c95\u0ccd\u0cb8\u0ccd \u0cae\u0cc1\u0cb2\u0ccd\u0cb2\u0cb0\u0ccd \u0cad\u0cb5\u0ca8"
        }
      },
      {
        "type": "node",
        "id": 4548893289,
        "lat": 12.9568773,
        "lon": 77.6194613,
        "tags": {
          "amenity": "cinema",
          "name": "Sri Balaji",
          "name:en": "Sri Balaji"
        }
      },
      {
        "type": "node",
        "id": 4559461283,
        "lat": 12.9637741,
        "lon": 77.6377518,
        "tags": {
          "amenity": "theatre",
          "name": "TERI Auditorium"
        }
      },
      {
        "type": "node",
        "id": 5760197792,
        "lat": 12.9783526,
        "lon": 77.638658,
        "tags": {
          "alt_name": "CMH Road",
          "code": "IDN",
          "name": "Indiranagar",
          "name:hi": "\u0907\u0902\u0926\u093f\u0930\u093e\u0928\u0917\u0930",
          "name:kn": "\u0c87\u0c82\u0ca6\u0cbf\u0cb0\u0cbe\u0ca8\u0c97\u0cb0",
          "network": "Namma Metro",
          "note": "Contributors are requested to not edit the \"network\" and the \"operator\" tags. (2023/11/08)",
          "operator": "Bangalore Metro Rail Corporation Limited",
          "platforms": "2",
          "public_transport": "stop_position",
          "public_transport:version": "2",
          "railway": "stop",
          "source": "http://www.bmrc.co.in/English/Network.htm",
          "subway": "yes",
          "wheelchair": "yes"
        }
      },
      {
        "type": "node",
        "id": 5760197793,
        "lat": 12.9765165,
        "lon": 77.626667,
        "tags": {
          "code": "HLRU",
          "name": "Halasuru",
          "name:kn": "\u0cb9\u0cb2\u0cb8\u0cc2\u0cb0\u0cc1",
          "network": "Namma Metro",
          "note": "Contributors are requested to not edit the \"network\" and the \"operator\" tags. (2023/11/08)",
          "operator": "Bangalore Metro Rail Corporation Limited",
          "platforms": "2",
          "public_transport": "stop_position",
          "public_transport:version": "2",
          "railway": "stop",
          "source": "http://www.bmrc.co.in/English/Network.htm",
          "subway": "yes",
          "wheelchair": "yes",
          "wikidata": "Q5641098",
          "wikipedia": "en:Halasuru metro station"
        }
      },
      {
        "type": "node",
        "id": 5760197794,
        "lat": 12.9730388,
        "lon": 77.6170235,
        "tags": {
          "code": "TTY",
          "name": "Trinity",
          "name:hi": "\u091f\u094d\u0930\u093f\u0928\u093f\u091f\u0940",
          "name:kn": "\u0c9f\u0ccd\u0cb0\u0cbf\u0ca8\u0cbf\u0c9f\u0cbf",
          "network": "Namma Metro",
          "note": "Contributors are requested to not edit the \"network\" and the \"operator\" tags. (2023/11/08)",
          "operator": "Bangalore Metro Rail Corporation Limited",
          "platforms": "2",
          "public_transport": "stop_position",
          "public_transport:version": "2",
          "railway": "stop",
          "source": "http://www.bmrc.co.in/English/Network.htm",
          "subway": "yes",
          "wheelchair": "yes",
          "wikidata": "Q5539214",
          "wikipedia": "en:Trinity metro station"
        }
      },
      {
        "type": "node",
        "id": 5760197795,
        "lat": 12.9754288,
        "lon": 77.6072648,
        "tags": {
          "alt_name": "Plaza Theatre Metro Station",
          "code": "MAGR",
          "int_name": "Mahatma Gandhi Road Metro",
          "local_ref": "1",
          "name": "Mahatma Gandhi Road",
          "name:etymology:wikidata": "Q1001",
          "name:kn": "\u0cae\u0cb9\u0cbe\u0ca4\u0ccd\u0cae \u0c97\u0cbe\u0c82\u0ca7\u0cbf \u0cb0\u0cb8\u0ccd\u0ca4\u0cc6",
          "network": "Namma Metro",
          "note": "Contributors are requested to not edit the \"network\" and the \"operator\" tags. (2023/11/08)",
          "operator": "Bangalore Metro Rail Corporation Limited",
          "public_transport": "stop_position",
          "public_transport:version": "2",
          "railway": "stop",
          "short_name": "MG Road",
          "source": "http://www.bmrc.co.in/English/Network.htm",
          "start_date": "20-10-2011",
          "subway": "yes",
          "to": "Whitefield (Kadugodi)",
          "wheelchair": "yes"
        }
      },
      {
        "type": "node",
        "id": 6182576273,
        "lat": 12.9783131,
        "lon": 77.6402096,
        "tags": {
          "bus": "yes",
          "name": "Police Station Indiranagara",
          "name:en": "Police Station Indiranagara",
          "name:kn": "\u0c87\u0c82\u0ca6\u0cbf\u0cb0\u0ca8\u0c97\u0cb0",
          "network": "BMTC",
          "operator": "BMTC",
          "public_transport": "stop_position"
        }
      },
      {
        "type": "node",
        "id": 6400857551,
        "lat": 12.9783325,
        "lon": 77.6386612,
        "tags": {
          "code": "IDN",
          "layer": "1",
          "lit": "yes",
          "name": "Indiranagar",
          "name:hi": "\u0907\u0902\u0926\u093f\u0930\u093e\u0928\u0917\u0930",
          "name:kn": "\u0c87\u0c82\u0ca6\u0cbf\u0cb0\u0cbe\u0ca8\u0c97\u0cb0",
          "name:ml": "\u0d07\u0d28\u0d4d\u0d26\u0d3f\u0d30\u0d3e\u0d28\u0d17\u0d7c",
          "network": "Namma Metro",
          "note": "Contributors are requested to not edit the \"network\" and the \"operator\" tags. (2023/11/08)",
          "operator": "Bangalore Metro Rail Corporation Limited",
          "platforms": "2",
          "public_transport": "station",
          "public_transport:version": "2",
          "railway": "station",
          "shelter": "yes",
          "station": "subway",
          "subway": "yes",
          "website": "https://english.brmc.co.in",
          "wheelchair": "yes"
        }
      },
      {
        "type": "node",
        "id": 6400857552,
        "lat": 12.9764992,
        "lon": 77.626686,
        "tags": {
          "code": "HLRU",
          "layer": "1",
          "lit": "yes",
          "name": "Halasuru",
          "name:kn": "\u0cb9\u0cb2\u0cb8\u0cc2\u0cb0\u0cc1",
          "name:ml": "\u0d39\u0d32\u0d38\u0d41\u0d30\u0d41",
          "network": "Namma Metro",
          "note": "Contributors are requested to not edit the \"network\" and the \"operator\" tags. (2023/11/08)",
          "operator": "Bangalore Metro Rail Corporation Limited",
          "platforms": "2",
          "public_transport": "station",
          "public_transport:version": "2",
          "railway": "station",
          "shelter": "yes",
          "station": "subway",
          "subway": "yes",
          "website": "https://english.brmc.co.in",
          "wheelchair": "yes"
        }
      },
      {
        "type": "node",
        "id": 6400857553,
        "lat": 12.9730218,
        "lon": 77.6170205,
        "tags": {
          "code": "TTY",
          "layer": "1",
          "lit": "yes",
          "name": "Trinity",
          "name:hi": "\u091f\u094d\u0930\u093f\u0928\u093f\u091f\u0940",
          "name:kn": "\u0c9f\u0ccd\u0cb0\u0cbf\u0ca8\u0cbf\u0c9f\u0cbf \u0cae\u0cc6\u0c9f\u0ccd\u0cb0\u0cca \u0ca8\u0cbf\u0cb2\u0ccd\u0ca6\u0cbe\u0ca3",
          "name:ml": "\u0d1f\u0d4d\u0d30\u0d3f\u0d28\u0d3f\u0d31\u0d4d\u0d31\u0d3f",
          "network": "Namma Metro",
          "note": "Contributors are requested to not edit the \"network\" and the \"operator\" tags. (2023/11/08)",
          "operator": "Bangalore Metro Rail Corporation Limited",
          "platforms": "2",
          "public_transport": "station",
          "public_transport:version": "2",
          "railway": "station",
          "shelter": "yes",
          "station": "subway",
          "subway": "yes",
          "website": "https://english.brmc.co.in",
          "wheelchair": "yes"
        }
      },
      {
        "type": "node",
        "id": 6400857554,
        "lat": 12.9755264,
        "lon": 77.6067902,
        "tags": {
          "alt_name": "Plaza Theatre Metro Station",
          "code": "MAGR",
          "layer": "1",
          "lit": "yes",
          "name": "Mahatma Gandhi Road",
          "name:kn": "\u0cae\u0cb9\u0cbe\u0ca4\u0ccd\u0cae \u0c97\u0cbe\u0c82\u0ca7\u0cbf \u0cb0\u0cb8\u0ccd\u0ca4\u0cc6",
          "name:ta": "\u0bae\u0b95\u0bbe\u0ba4\u0bcd\u0bae\u0bbe \u0b95\u0bbe\u0ba8\u0bcd\u0ba4\u0bbf \u0b9a\u0bbe\u0bb2\u0bc8",
          "network": "Namma Metro",
          "note": "Contributors are requested to not edit the \"network\" and the \"operator\" tags. (2023/11/08)",
          "operator": "Bangalore Metro Rail Corporation Limited",
          "platforms": "2",
          "public_transport": "station",
          "public_transport:version": "2",
          "railway": "station",
          "shelter": "yes",
          "short_name": "MG Road",
          "start_date": "20-10-2011",
          "station": "subway",
          "subway": "yes",
          "website": "https://english.brmc.co.in",
          "wheelchair": "yes",
          "wikidata": "Q5539354",
          "wikipedia": "en:Mahatma Gandhi Road metro station (Bangalore)"
        }
      },
      {
        "type": "node",
        "id": 6545576539,
        "lat": 12.9670947,
        "lon": 77.6351897,
        "tags": {
          "alt_name": "BIC Auditorium",
          "amenity": "theatre",
          "check_date": "2025-03-14",
          "level": "0;1",
          "name": "Sarah Kailath Auditorium"
        }
      },
      {
        "type": "node",
        "id": 6631824071,
        "lat": 12.9569623,
        "lon": 77.641363,
        "tags": {
          "bus": "yes",
          "name": "Domlur Flyover",
          "network": "BMTC",
          "operator": "BMTC",
          "public_transport": "stop_position"
        }
      },
      {
        "type": "node",
        "id": 6645712421,
        "lat": 12.9611004,
        "lon": 77.6379709,
        "tags": {
          "bus": "yes",
          "name": "Domlur (Towards HAL)",
          "name:en": "Domlur (Towards HAL)",
          "network": "BMTC",
          "operator": "BMTC",
          "public_transport": "stop_position"
        }
      },
      {
        "type": "node",
        "id": 7108562599,
        "lat": 12.989717,
        "lon": 77.6154009,
        "tags": {
          "bus": "yes",
          "name": "Sivanchetty Gardens",
          "name:en": "Sivanchetty Gardens",
          "network": "BMTC",
          "operator": "BMTC",
          "public_transport": "stop_position"
        }
      },
      {
        "type": "node",
        "id": 7108562601,
        "lat": 12.9862261,
        "lon": 77.6155621,
        "tags": {
          "bus": "yes",
          "name": "Lavanya Talkies",
          "name:en": "Lavanya Talkies",
          "name:kn": "\u0cb2\u0cb5\u0cbe\u0ca3\u0ccd\u0caf",
          "network": "BMTC",
          "operator": "BMTC",
          "public_transport": "stop_position"
        }
      },
      {
        "type": "node",
        "id": 7108562602,
        "lat": 12.9808605,
        "lon": 77.6106852,
        "tags": {
          "bus": "yes",
          "name": "Dickenson Road",
          "name:en": "Dickenson Road",
          "name:kn": "\u0ca1\u0cbf\u0c95\u0cbf\u0ca8\u0ccd\u0cb8\u0ca8\u0ccd \u0cb0\u0cb8\u0ccd\u0ca4\u0cc6",
          "network": "BMTC",
          "operator": "BMTC",
          "public_transport": "stop_position"
        }
      },
      {
        "type": "node",
        "id": 7108562604,
        "lat": 12.9775288,
        "lon": 77.6079252,
        "tags": {
          "bus": "yes",
          "name": "Manikshaw Parade Ground",
          "name:en": "Manikshaw Parade Ground",
          "network": "BMTC",
          "operator": "BMTC",
          "public_transport": "stop_position"
        }
      },
      {
        "type": "node",
        "id": 7131511281,
        "lat": 12.9643457,
        "lon": 77.6104145,
        "tags": {
          "bus": "yes",
          "name": "Philomenas Hospital",
          "name:en": "Philomenas Hospital",
          "name:kn": "\u0cab\u0cbf\u0cb2\u0ccb\u0cae\u0cc6\u0ca8 \u0c86\u0cb8\u0ccd\u0caa\u0ca4\u0ccd\u0cb0\u0cc6",
          "network": "BMTC",
          "operator": "BMTC",
          "public_transport": "stop_position"
        }
      },
      {
        "type": "node",
        "id": 7131511282,
        "lat": 12.9615362,
        "lon": 77.6144865,
        "tags": {
          "bus": "yes",
          "name": "Austin Town",
          "name:en": "Austin Town",
          "name:kn": "\u0c86\u0cb8\u0ccd\u0c9f\u0cbf\u0ca8\u0ccd \u0c9f\u0ccc\u0ca8\u0ccd",
          "network": "BMTC",
          "operator": "BMTC",
          "public_transport": "stop_position"
        }
      },
      {
        "type": "node",
        "id": 7131511283,
        "lat": 12.9622589,
        "lon": 77.6189861,
        "tags": {
          "bus": "yes",
          "name": "ASC Center",
          "name:en": "ASC Center",
          "network": "BMTC",
          "operator": "BMTC",
          "public_transport": "stop_position"
        }
      },
      {
        "type": "node",
        "id": 7131511284,
        "lat": 12.95639,
        "lon": 77.6210339,
        "tags": {
          "bus": "yes",
          "name": "Vannarapete",
          "name:en": "Vannarapete",
          "name:kn": "\u0cb5\u0ca8\u0ccd\u0ca8\u0cb0\u0caa\u0cc7\u0c9f\u0cc6",
          "network": "BMTC",
          "operator": "BMTC",
          "public_transport": "stop_position"
        }
      },
      {
        "type": "node",
        "id": 7131541685,
        "lat": 12.9541943,
        "lon": 77.6227375,
        "tags": {
          "bus": "yes",
          "name": "Vivekanagara",
          "name:en": "Vivekanagara",
          "name:kn": "\u0cb5\u0cbf\u0cb5\u0cc7\u0c95\u0ca8\u0c97\u0cb0",
          "network": "BMTC",
          "operator": "BMTC",
          "public_transport": "stop_position"
        }
      },
      {
        "type": "node",
        "id": 7132452572,
        "lat": 12.9733493,
        "lon": 77.6098914,
        "tags": {
          "bus": "yes",
          "name": "Mayo Hall",
          "name:en": "Mayo Hall",
          "name:kn": "\u0cae\u0cbe\u0caf\u0cca \u0cb9\u0cbe\u0cb2\u0ccd",
          "network": "BMTC",
          "operator": "BMTC",
          "public_transport": "stop_position"
        }
      },
      {
        "type": "node",
        "id": 7132452574,
        "lat": 12.9754287,
        "lon": 77.6065055,
        "tags": {
          "bus": "yes",
          "name": "MG Road Metro Station",
          "name:en": "MG Road Metro Station",
          "name:kn": "\u0cae\u0cb9\u0cbe\u0ca4\u0ccd\u0cae \u0c97\u0cbe\u0c82\u0ca7\u0cbf \u0cb0\u0cb8\u0ccd\u0ca4\u0cc6",
          "network": "BMTC",
          "operator": "BMTC",
          "public_transport": "stop_position"
        }
      },
      {
        "type": "node",
        "id": 7132452576,
        "lat": 12.954546,
        "lon": 77.6206762,
        "tags": {
          "bus": "yes",
          "name": "Vivekanagara",
          "name:en": "Vivekanagara",
          "name:kn": "\u0cb5\u0cbf\u0cb5\u0cc7\u0c95\u0ca8\u0c97\u0cb0",
          "network": "BMTC",
          "operator": "BMTC",
          "public_transport": "stop_position"
        }
      },
      {
        "type": "node",
        "id": 7132452578,
        "lat": 12.9514379,
        "lon": 77.6220795,
        "tags": {
          "alt_name": "Vivek Nagar Police Station",
          "bus": "yes",
          "name": "Ravi Tent",
          "name:en": "Ravi Tent",
          "network": "BMTC",
          "operator": "BMTC",
          "public_transport": "stop_position"
        }
      },
      {
        "type": "node",
        "id": 7132452580,
        "lat": 12.9506229,
        "lon": 77.624224,
        "tags": {
          "bus": "yes",
          "name": "Shine Bakery",
          "name:en": "Shine Bakery",
          "network": "BMTC",
          "operator": "BMTC",
          "public_transport": "stop_position"
        }
      },
      {
        "type": "node",
        "id": 7132452582,
        "lat": 12.9496896,
        "lon": 77.6265998,
        "tags": {
          "bus": "yes",
          "name": "Fairland Shop",
          "name:en": "Fairland Shop",
          "network": "BMTC",
          "operator": "BMTC",
          "public_transport": "stop_position"
        }
      },
      {
        "type": "node",
        "id": 7132495619,
        "lat": 12.9576576,
        "lon": 77.6143934,
        "tags": {
          "bus": "yes",
          "name": "Neelasandra Bus Stand",
          "name:en": "Neelasandra Bus Stand",
          "name:kn": "\u0ca8\u0cc0\u0cb2\u0cb8\u0c82\u0ca6\u0ccd\u0cb0",
          "network": "BMTC",
          "operator": "BMTC",
          "public_transport": "stop_position"
        }
      },
      {
        "type": "node",
        "id": 7132495621,
        "lat": 12.9536998,
        "lon": 77.61752,
        "tags": {
          "bus": "yes",
          "name": "Neelasandra Rose Garden",
          "name:en": "Neelasandra Rose Garden",
          "network": "BMTC",
          "operator": "BMTC",
          "public_transport": "stop_position"
        }
      },
      {
        "type": "node",
        "id": 7132495623,
        "lat": 12.9537945,
        "lon": 77.6173101,
        "tags": {
          "bus": "yes",
          "name": "Neelasandra Rose Garden",
          "name:en": "Neelasandra Rose Garden",
          "network": "BMTC",
          "operator": "BMTC",
          "public_transport": "stop_position"
        }
      },
      {
        "type": "node",
        "id": 7132495624,
        "lat": 12.9576094,
        "lon": 77.6143892,
        "tags": {
          "bus": "yes",
          "name": "Neelasandra Bus Stand",
          "name:en": "Neelasandra Bus Stand",
          "name:kn": "\u0ca8\u0cc0\u0cb2\u0cb8\u0c82\u0ca6\u0ccd\u0cb0",
          "network": "BMTC",
          "operator": "BMTC",
          "public_transport": "stop_position"
        }
      },
      {
        "type": "node",
        "id": 7132495625,
        "lat": 12.9615623,
        "lon": 77.6134178,
        "tags": {
          "bus": "yes",
          "name": "Austin Town",
          "name:en": "Austin Town",
          "name:kn": "\u0c86\u0cb8\u0ccd\u0c9f\u0cbf\u0ca8\u0ccd \u0cb0\u0cb8\u0ccd\u0ca4\u0cc6",
          "network": "BMTC",
          "operator": "BMTC",
          "public_transport": "stop_position"
        }
      },
      {
        "type": "node",
        "id": 7132495627,
        "lat": 12.9648691,
        "lon": 77.6100878,
        "tags": {
          "bus": "yes",
          "name": "Philomenas Hospital",
          "name:en": "Philomenas Hospital",
          "network": "BMTC",
          "operator": "BMTC",
          "public_transport": "stop_position"
        }
      },
      {
        "type": "node",
        "id": 7132495628,
        "lat": 12.9675822,
        "lon": 77.6110504,
        "tags": {
          "bus": "yes",
          "name": "D'Souza Circle",
          "name:en": "D'Souza Circle",
          "name:kn": "\u0ca1\u0cb8\u0cc2\u0c9d \u0cb5\u0cc3\u0ca4\u0ccd\u0ca4",
          "network": "BMTC",
          "operator": "BMTC",
          "public_transport": "stop_position"
        }
      },
      {
        "type": "node",
        "id": 7132495630,
        "lat": 12.9667187,
        "lon": 77.6090563,
        "tags": {
          "alt_name": "D'Souza Circle",
          "bus": "yes",
          "name": "Lifestyle",
          "name:en": "Lifestyle",
          "network": "BMTC",
          "operator": "BMTC",
          "public_transport": "stop_position"
        }
      },
      {
        "type": "node",
        "id": 7132495631,
        "lat": 12.9696871,
        "lon": 77.6104167,
        "tags": {
          "bus": "yes",
          "name": "Garuda Mall",
          "name:en": "Garuda Mall",
          "name:kn": "\u0c97\u0cb0\u0cc1\u0ca1 \u0cae\u0cbe\u0cb2\u0ccd",
          "network": "BMTC",
          "operator": "BMTC",
          "public_transport": "stop_position"
        }
      },
      {
        "type": "node",
        "id": 7132495633,
        "lat": 12.971811,
        "lon": 77.6105403,
        "tags": {
          "bus": "yes",
          "name": "Mayo Hall",
          "name:en": "Mayo Hall",
          "name:kn": "\u0cae\u0cbe\u0caf\u0cca \u0cb9\u0cbe\u0cb2\u0ccd",
          "network": "BMTC",
          "operator": "BMTC",
          "public_transport": "stop_position"
        }
      },
      {
        "type": "node",
        "id": 7133498156,
        "lat": 12.9641253,
        "lon": 77.6261607,
        "tags": {
          "bus": "yes",
          "name": "Command Hospital",
          "name:en": "Command Hospital",
          "network": "BMTC",
          "operator": "BMTC",
          "public_transport": "stop_position"
        }
      },
      {
        "type": "node",
        "id": 7133498158,
        "lat": 12.969826,
        "lon": 77.6117838,
        "tags": {
          "bus": "yes",
          "name": "Hosmat Hospital",
          "name:en": "Hosmat Hospital",
          "name:kn": "\u0cb9\u0cca\u0cb8\u0cae\u0ca4\u0ccd \u0c86\u0cb8\u0ccd\u0caa\u0ca4\u0ccd\u0cb0\u0cc6",
          "network": "BMTC",
          "operator": "BMTC",
          "public_transport": "stop_position"
        }
      },
      {
        "type": "node",
        "id": 7140560432,
        "lat": 12.9500222,
        "lon": 77.6261783,
        "tags": {
          "bus": "yes",
          "name": "Fairland Shop",
          "name:en": "Fairland Shop",
          "network": "BMTC",
          "operator": "BMTC",
          "public_transport": "stop_position"
        }
      },
      {
        "type": "node",
        "id": 7140560434,
        "lat": 12.9506781,
        "lon": 77.6239625,
        "tags": {
          "bus": "yes",
          "name": "Shine Bakery",
          "name:en": "Shine Bakery",
          "network": "BMTC",
          "operator": "BMTC",
          "public_transport": "stop_position"
        }
      },
      {
        "type": "node",
        "id": 7140560436,
        "lat": 12.9624367,
        "lon": 77.6189999,
        "tags": {
          "bus": "yes",
          "name": "ASC Center",
          "name:en": "ASC Center",
          "network": "BMTC",
          "operator": "BMTC",
          "public_transport": "stop_position"
        }
      },
      {
        "type": "node",
        "id": 7140560437,
        "lat": 12.9633386,
        "lon": 77.6066495,
        "tags": {
          "bus": "yes",
          "name": "Johnson Market",
          "name:en": "Johnson Market",
          "name:kn": "\u0c9c\u0cbe\u0ca8\u0ccd\u0cb8\u0ca8\u0ccd \u0cae\u0cbe\u0cb0\u0ccd\u0c95\u0cc6\u0c9f\u0ccd",
          "network": "BMTC",
          "operator": "BMTC",
          "public_transport": "stop_position"
        }
      },
      {
        "type": "node",
        "id": 7141213461,
        "lat": 12.9636456,
        "lon": 77.6067133,
        "tags": {
          "bus": "yes",
          "name": "Johnson Market",
          "name:en": "Johnson Market",
          "name:kn": "\u0c9c\u0cbe\u0ca8\u0ccd\u0cb8\u0ca8\u0ccd \u0cae\u0cbe\u0cb0\u0ccd\u0c95\u0cc6\u0c9f\u0ccd",
          "network": "BMTC",
          "operator": "BMTC",
          "public_transport": "stop_position"
        }
      },
      {
        "type": "node",
        "id": 7141213463,
        "lat": 12.9657057,
        "lon": 77.6068318,
        "tags": {
          "alt_name": "Shoolay Circle",
          "bus": "yes",
          "name": "Vellara Junction",
          "name:en": "Vellara Junction",
          "name:kn": "\u0cb5\u0cc6\u0cb2\u0ccd\u0cb2\u0cbe\u0cb0 \u0c9c\u0c82\u0c95\u0ccd\u0cb7\u0ca8\u0ccd",
          "network": "BMTC",
          "operator": "BMTC",
          "public_transport": "stop_position"
        }
      },
      {
        "type": "node",
        "id": 7141213464,
        "lat": 12.9714805,
        "lon": 77.6067531,
        "tags": {
          "bus": "yes",
          "name": "Brigade Road",
          "name:en": "Brigade Road",
          "name:kn": "\u0cac\u0ccd\u0cb0\u0cbf\u0c97\u0cc7\u0ca1\u0ccd \u0cb0\u0cb8\u0ccd\u0ca4\u0cc6",
          "network": "BMTC",
          "operator": "BMTC",
          "public_transport": "stop_position"
        }
      },
      {
        "type": "node",
        "id": 7156942402,
        "lat": 12.9777052,
        "lon": 77.6069712,
        "tags": {
          "bus": "yes",
          "name": "Maniksha Parade Ground",
          "name:en": "Maniksha Parade Ground",
          "network": "BMTC",
          "operator": "BMTC",
          "public_transport": "stop_position"
        }
      },
      {
        "type": "node",
        "id": 7156942403,
        "lat": 12.9807778,
        "lon": 77.6106751,
        "tags": {
          "bus": "yes",
          "name": "Dickenson Road",
          "name:en": "Dickenson Road",
          "name:kn": "\u0ca1\u0cbf\u0c95\u0cc6\u0ca8\u0ccd\u0cb8\u0ca8\u0ccd \u0cb0\u0cb8\u0ccd\u0ca4\u0cc6",
          "network": "BMTC",
          "operator": "BMTC",
          "public_transport": "stop_position"
        }
      },
      {
        "type": "node",
        "id": 7156942404,
        "lat": 12.979429,
        "lon": 77.6142741,
        "tags": {
          "bus": "yes",
          "name": "Hasanath College",
          "name:en": "Hasanath College",
          "name:kn": "\u0cb9\u0cb8\u0ca8\u0cbe\u0ca5\u0ccd \u0c95\u0cbe\u0cb2\u0cc7\u0c9c\u0cc1",
          "network": "BMTC",
          "operator": "BMTC",
          "public_transport": "stop_position"
        }
      },
      {
        "type": "node",
        "id": 7156942406,
        "lat": 12.9728436,
        "lon": 77.621435,
        "tags": {
          "bus": "yes",
          "name": "Lido Talkies",
          "name:en": "Lido Talkies",
          "network": "BMTC",
          "operator": "BMTC",
          "public_transport": "stop_position"
        }
      },
      {
        "type": "node",
        "id": 7156942407,
        "lat": 12.97496,
        "lon": 77.6252824,
        "tags": {
          "bus": "yes",
          "name": "Halasur Police Station",
          "name:en": "Halasur Police Station",
          "name:kn": "\u0cb9\u0cb2\u0cb8\u0cc2\u0cb0\u0cc1 \u0c86\u0cb0\u0c95\u0ccd\u0cb7\u0c95 \u0ca0\u0cbe\u0ca3\u0cc6",
          "network": "BMTC",
          "operator": "BMTC",
          "public_transport": "stop_position"
        }
      },
      {
        "type": "node",
        "id": 7156942408,
        "lat": 12.9781418,
        "lon": 77.6320722,
        "tags": {
          "bus": "yes",
          "name": "Lakshmipura Ulsoor",
          "name:en": "Lakshmipura Ulsoor",
          "name:kn": "\u0cb2\u0c95\u0ccd\u0cb7\u0ccd\u0cae\u0cbf\u0caa\u0cc1\u0cb0 \u0cb9\u0cb2\u0cb8\u0cc2\u0cb0\u0cc1",
          "network": "BMTC",
          "operator": "BMTC",
          "public_transport": "stop_position"
        }
      },
      {
        "type": "node",
        "id": 7156942409,
        "lat": 12.9782082,
        "lon": 77.6362627,
        "tags": {
          "bus": "yes",
          "name": "Double Road Indiranagara",
          "name:en": "Double Road Indiranagara",
          "network": "BMTC",
          "operator": "BMTC",
          "public_transport": "stop_position"
        }
      },
      {
        "type": "node",
        "id": 7156942411,
        "lat": 12.9777293,
        "lon": 77.6466319,
        "tags": {
          "bus": "yes",
          "name": "CMH Hospital",
          "name:en": "CMH Hospital",
          "network": "BMTC",
          "operator": "BMTC",
          "public_transport": "stop_position"
        }
      },
      {
        "type": "node",
        "id": 7156942412,
        "lat": 12.9742017,
        "lon": 77.646845,
        "tags": {
          "bus": "yes",
          "name": "Thippasandra",
          "name:en": "Thippasandra",
          "name:kn": "\u0ca4\u0cbf\u0caa\u0ccd\u0caa\u0cb8\u0c82\u0ca6\u0ccd\u0cb0",
          "network": "BMTC",
          "operator": "BMTC",
          "public_transport": "stop_position"
        }
      },
      {
        "type": "node",
        "id": 7157889187,
        "lat": 12.9804923,
        "lon": 77.6098757,
        "tags": {
          "bus": "yes",
          "name": "Commercial Street",
          "name:en": "Commercial Street",
          "network": "BMTC",
          "operator": "BMTC",
          "public_transport": "stop_position"
        }
      },
      {
        "type": "node",
        "id": 7157895260,
        "lat": 12.9658163,
        "lon": 77.6042478,
        "tags": {
          "bus": "yes",
          "name": "Richmond Circle",
          "name:en": "Richmond Circle",
          "name:kn": "\u0cb0\u0cbf\u0c9a\u0ccd\u0cae\u0c82\u0ca1\u0ccd \u0cb5\u0cc3\u0ca4\u0ccd\u0ca4",
          "network": "BMTC",
          "operator": "BMTC",
          "public_transport": "stop_position"
        }
      },
      {
        "type": "node",
        "id": 7157895261,
        "lat": 12.9694725,
        "lon": 77.6161015,
        "tags": {
          "bus": "yes",
          "name": "Hosmat Hospital",
          "name:en": "Hosmat Hospital",
          "name:kn": "\u0cb9\u0cca\u0cb8\u0cae\u0ca4\u0ccd \u0c86\u0cb8\u0ccd\u0caa\u0ca4\u0ccd\u0cb0\u0cc6",
          "network": "BMTC",
          "operator": "BMTC",
          "public_transport": "stop_position"
        }
      },
      {
        "type": "node",
        "id": 9202909866,
        "lat": 12.975668,
        "lon": 77.6413089,
        "tags": {
          "access": "yes",
          "amenity": "charging_station",
          "capacity": "8",
          "name": "Ather Charging Grid",
          "operator": "Ather Energy"
        }
      },
      {
        "type": "node",
        "id": 9796232707,
        "lat": 12.9792762,
        "lon": 77.6148087,
        "tags": {
          "bus": "yes",
          "name": "Hasanath College",
          "name:en": "Hasanath College",
          "name:kn": "\u0cb9\u0cb8\u0ca8\u0cbe\u0ca5\u0ccd \u0c95\u0cbe\u0cb2\u0cc7\u0c9c\u0cc1",
          "network": "BMTC",
          "operator": "BMTC",
          "public_transport": "stop_position"
        }
      },
      {
        "type": "node",
        "id": 9811371626,
        "lat": 12.9819363,
        "lon": 77.6240467,
        "tags": {
          "bus": "yes",
          "name": "The Millenia",
          "name:en": "The Millenia",
          "network": "BMTC",
          "operator": "BMTC",
          "public_transport": "stop_position"
        }
      },
      {
        "type": "node",
        "id": 9811371639,
        "lat": 12.9752388,
        "lon": 77.6201517,
        "tags": {
          "bus": "yes",
          "name": "Begum Mahal Ulsoor",
          "name:en": "Begum Mahal Ulsoor",
          "network": "BMTC",
          "operator": "BMTC",
          "public_transport": "stop_position"
        }
      },
      {
        "type": "node",
        "id": 9811396097,
        "lat": 12.9775829,
        "lon": 77.6389895,
        "tags": {
          "access": "yes",
          "amenity": "charging_station",
          "fixme": "Operator and EV Charger Details"
        }
      },
      {
        "type": "node",
        "id": 9814659992,
        "lat": 12.978183,
        "lon": 77.640926,
        "tags": {
          "bus": "yes",
          "name": "Police Station Indiranagara",
          "name:en": "Police Station Indiranagara",
          "network": "BMTC",
          "operator": "BMTC",
          "public_transport": "stop_position"
        }
      },
      {
        "type": "node",
        "id": 9917415768,
        "lat": 12.9733967,
        "lon": 77.6357561,
        "tags": {
          "amenity": "charging_station",
          "bicycle": "yes",
          "motorcycle": "yes",
          "scooter": "yes"
        }
      },
      {
        "type": "node",
        "id": 9917415769,
        "lat": 12.9733738,
        "lon": 77.6357554,
        "tags": {
          "amenity": "charging_station",
          "bicycle": "yes",
          "motorcycle": "yes",
          "scooter": "yes"
        }
      },
      {
        "type": "node",
        "id": 9927786375,
        "lat": 12.9645072,
        "lon": 77.6258,
        "tags": {
          "bus": "yes",
          "name": "Command Hospital",
          "name:en": "Command Hospital",
          "network": "BMTC",
          "operator": "BMTC",
          "public_transport": "stop_position"
        }
      },
      {
        "type": "node",
        "id": 9930197124,
        "lat": 12.9634978,
        "lon": 77.6416701,
        "tags": {
          "bus": "yes",
          "name": "HAL 2nd Stage",
          "name:en": "HAL 2nd Stage",
          "network": "BMTC",
          "operator": "BMTC",
          "public_transport": "stop_position"
        }
      },
      {
        "type": "node",
        "id": 10183737566,
        "lat": 12.9707551,
        "lon": 77.6196818,
        "tags": {
          "bus": "yes",
          "name": "Trinity Circle",
          "name:en": "Trinity Circle",
          "name:kn": "\u0c9f\u0ccd\u0cb0\u0cbf\u0ca8\u0cbf\u0c9f\u0cbf \u0cb5\u0cc3\u0ca4\u0ccd\u0ca4",
          "network": "BMTC",
          "operator": "BMTC",
          "public_transport": "stop_position"
        }
      },
      {
        "type": "node",
        "id": 10234922550,
        "lat": 12.9726543,
        "lon": 77.6066925,
        "tags": {
          "addr:city": "Bangalore",
          "addr:country": "IN",
          "addr:district": "Bangalore Urban",
          "addr:hamlet": "Shanthala Nagar",
          "addr:housename": "Forum Rex Walk",
          "addr:housenumber": "202",
          "addr:postcode": "560001",
          "addr:state": "Karnataka",
          "addr:street": "Brigade Road",
          "addr:suburb": "Ashok Nagar",
          "amenity": "cinema",
          "brand": "PVR Cinemas",
          "brand:wikidata": "Q3359908",
          "check_date": "2024-08-19",
          "level": "3",
          "name": "PVR Director's Cut",
          "operator": "PVR Cinemas",
          "short_name": "PVR",
          "source": "https://www.cnbctv18.com/business/companies/pvr-unveils-south-indias-first-directors-cut-in-bangaluru-15318581.htm"
        }
      },
      {
        "type": "node",
        "id": 10293872605,
        "lat": 12.9712776,
        "lon": 77.6078832,
        "tags": {
          "amenity": "charging_station",
          "name": "inGO"
        }
      },
      {
        "type": "node",
        "id": 10294506356,
        "lat": 12.9764825,
        "lon": 77.6268299,
        "tags": {
          "amenity": "charging_station",
          "brand": "Yulu",
          "note": "This is a battery swapping station of e-bikes."
        }
      },
      {
        "type": "node",
        "id": 10296978073,
        "lat": 12.9664765,
        "lon": 77.6414332,
        "tags": {
          "bus": "yes",
          "name": "New Horizon School",
          "name:en": "New Horizon School",
          "network": "BMTC",
          "operator": "BMTC",
          "public_transport": "stop_position"
        }
      },
      {
        "type": "node",
        "id": 10775678439,
        "lat": 12.9515611,
        "lon": 77.6213725,
        "tags": {
          "alt_name": "Ejipura Bus Stand",
          "bus": "yes",
          "loc_name": "Church Stop",
          "name": "Ravi Tent",
          "name:en": "Ravi Tent",
          "network": "BMTC",
          "old_name": "Ejipura Junction",
          "operator": "BMTC",
          "public_transport": "stop_position"
        }
      },
      {
        "type": "node",
        "id": 10775678440,
        "lat": 12.9514989,
        "lon": 77.6214411,
        "tags": {
          "alt_name": "Ejipura Bus Stand",
          "bus": "yes",
          "loc_name": "Church Stop",
          "name": "Ravi Tent",
          "name:en": "Ravi Tent",
          "name:kn": "\u0cb0\u0cb5\u0cbf \u0c9a\u0cbf\u0ca4\u0ccd\u0cb0\u0cae\u0c82\u0ca6\u0cbf\u0cb0",
          "network": "BMTC",
          "old_name": "Ejipura Junction",
          "operator": "BMTC",
          "public_transport": "stop_position"
        }
      },
      {
        "type": "node",
        "id": 10979409717,
        "lat": 12.9875977,
        "lon": 77.6222821,
        "tags": {
          "bus": "yes",
          "name": "Ulsoor",
          "name:en": "Halasuru",
          "network": "BMTC",
          "operator": "BMTC",
          "public_transport": "stop_position"
        }
      },
      {
        "type": "node",
        "id": 10979409718,
        "lat": 12.9872591,
        "lon": 77.622517,
        "tags": {
          "alt_name": "Kalahalli",
          "bus": "yes",
          "name": "Ulsoor",
          "name:en": "Ulsoor",
          "name:kn": "\u0cb9\u0cb2\u0cb8\u0cc2\u0cb0\u0cc1",
          "network": "BMTC",
          "operator": "BMTC",
          "public_transport": "stop_position"
        }
      },
      {
        "type": "node",
        "id": 11125567288,
        "lat": 12.9743818,
        "lon": 77.6469076,
        "tags": {
          "alt_name": "Indiranagar 80 Feet Road",
          "bus": "yes",
          "name": "New Tippasandra Main Road",
          "name:en": "New Tippasandra Main Road",
          "network": "BMTC",
          "operator": "BMTC",
          "public_transport": "stop_position"
        }
      },
      {
        "type": "node",
        "id": 11506418985,
        "lat": 12.9706249,
        "lon": 77.6196167,
        "tags": {
          "bus": "yes",
          "name": "Trinity Circle",
          "name:en": "Trinity Circle",
          "name:kn": "\u0c9f\u0ccd\u0cb0\u0cbf\u0ca8\u0cbf\u0c9f\u0cbf \u0cb5\u0cc3\u0ca4\u0ccd\u0ca4",
          "network": "BMTC",
          "operator": "BMTC",
          "public_transport": "stop_position"
        }
      },
      {
        "type": "node",
        "id": 11607132689,
        "lat": 12.9782056,
        "lon": 77.632504,
        "tags": {
          "bus": "yes",
          "name": "Lakshmipura Ulsoor",
          "name:en": "Lakshmipura Ulsoor",
          "name:kn": "\u0cb2\u0c95\u0ccd\u0cb7\u0ccd\u0cae\u0cc0\u0caa\u0cc1\u0cb0 \u0cb9\u0cb3\u0cb8\u0cc2\u0cb0\u0cc1",
          "network": "BMTC",
          "operator": "BMTC",
          "public_transport": "stop_position"
        }
      },
      {
        "type": "node",
        "id": 12125802596,
        "lat": 12.9781045,
        "lon": 77.6389105,
        "tags": {
          "amenity": "charging_station",
          "charging_station:battery_swapping": "yes",
          "fee": "yes",
          "level": "0",
          "motorcar": "no",
          "motorcycle": "yes",
          "name": "Honda e:swap",
          "operator": "Honda e:swap"
        }
      },
      {
        "type": "node",
        "id": 12144229557,
        "lat": 12.9835537,
        "lon": 77.6406446,
        "tags": {
          "bus": "yes",
          "name": "Binnamangala",
          "name:en": "Binnamangala",
          "network": "BMTC",
          "operator": "BMTC",
          "public_transport": "stop_position"
        }
      },
      {
        "type": "node",
        "id": 12328467545,
        "lat": 12.9775919,
        "lon": 77.6467168,
        "tags": {
          "bus": "yes",
          "name": "CMH Hospital",
          "name:en": "CMH Hospital",
          "network": "BMTC",
          "operator": "BMTC",
          "public_transport": "stop_position"
        }
      },
      {
        "type": "node",
        "id": 12328467547,
        "lat": 12.9784436,
        "lon": 77.6414352,
        "tags": {
          "bus": "yes",
          "name": "Indiranagar Police Station",
          "name:en": "Indiranagar Police Station",
          "network": "BMTC",
          "operator": "BMTC",
          "public_transport": "stop_position"
        }
      },
      {
        "type": "node",
        "id": 12328481701,
        "lat": 12.9673099,
        "lon": 77.6414861,
        "tags": {
          "bus": "yes",
          "name": "New Horizon School Indiranagar",
          "name:en": "New Horizon School Indiranagar",
          "network": "BMTC",
          "operator": "BMTC",
          "public_transport": "stop_position"
        }
      },