{
  "pois_1km": {
    "version": 0.6,
    "generator": "Overpass API 0.7.62.8 e802775f",
    "osm3s": {
      "timestamp_osm_base": "2025-09-06T07:50:45Z",
      "copyright": "The data included in this document is from www.openstreetmap.org. The data is made available under ODbL."
    },
    "elements": [
      {
        "type": "node",
        "id": 245653876,
        "lat": 18.927571,
        "lon": 72.8325747,
        "tags": {
          "amenity": "restaurant",
          "name": "Copper Chimney",
          "source": "AND"
        }
      },
      {
        "type": "node",
        "id": 488208617,
        "lat": 18.9231497,
        "lon": 72.8325111,
        "tags": {
          "addr:city": "Mumbai",
          "addr:country": "IN",
          "addr:housename": "Apollo Bunder",
          "addr:place": "Colaba",
          "addr:postcode": "400005",
          "addr:street": "Tullock Road",
          "amenity": "fast_food",
          "name": "Bademiya Seekh Kebab Stall",
          "opening_hours": "Mo-Su 17:00-04:00",
          "phone": "+91-2265-5657",
          "phone2": "2265 5658",
          "phone3": "2265 5659",
          "wikidata": "Q24895746",
          "wikimedia_commons": "Category:Bademiya",
          "wikipedia": "en:Bademiya"
        }
      },
      {
        "type": "node",
        "id": 623344544,
        "lat": 18.9186212,
        "lon": 72.8295185,
        "tags": {
          "amenity": "restaurant",
          "name": "New Martin Hotel"
        }
      },
      {
        "type": "node",
        "id": 669259659,
        "lat": 18.9240421,
        "lon": 72.8321786,
        "tags": {
          "addr:street": "Chhatrapati Shivaji Maharaj Road",
          "amenity": "cafe",
          "name": "Cafe Mondegar",
          "opening_hours": "Mo-Su 08:00-23:30",
          "phone": "22020591"
        }
      },
      {
        "type": "node",
        "id": 670270299,
        "lat": 18.9215278,
        "lon": 72.8312063,
        "tags": {
          "amenity": "restaurant",
          "name": "Kamat Restaurant"
        }
      },
      {
        "type": "node",
        "id": 683777920,
        "lat": 18.9306421,
        "lon": 72.8323368,
        "tags": {
          "amenity": "restaurant",
          "name": "Ankur",
          "phone": "+91 22 2265 4194 / 2263 0393"
        }
      },
      {
        "type": "node",
        "id": 683779184,
        "lat": 18.9239059,
        "lon": 72.8332921,
        "tags": {
          "addr:city": "Mumbai",
          "addr:postcode": "400001",
          "addr:street": "Chhatrapati Shivaji Maharaj Road",
          "amenity": "restaurant",
          "name": "Indigo Deli"
        }
      },
      {
        "type": "node",
        "id": 704468160,
        "lat": 18.9254094,
        "lon": 72.8304996,
        "tags": {
          "addr:housenumber": "60",
          "addr:postcode": "400039",
          "addr:street": "Madame Cama Road",
          "amenity": "restaurant",
          "cuisine": "italian",
          "name": "Villa 39",
          "phone": "+91 22 6657 3939",
          "source": "survey",
          "url": "www.villa39.com"
        }
      },
      {
        "type": "node",
        "id": 858938542,
        "lat": 18.9286576,
        "lon": 72.8323932,
        "tags": {
          "amenity": "restaurant",
          "cuisine": "seafood",
          "name": "Trishna"
        }
      },
      {
        "type": "node",
        "id": 870447440,
        "lat": 18.9226052,
        "lon": 72.8312806,
        "tags": {
          "addr:postcode": "400039",
          "addr:street": "Shahid Bhagat Singh Marg",
          "amenity": "restaurant",
          "name": "Olympia Coffee House",
          "opening_hours": "Mo-Su 07:00-24:00",
          "phone": "022 2202 1043"
        }
      },
      {
        "type": "node",
        "id": 870447661,
        "lat": 18.9222725,
        "lon": 72.8320651,
        "tags": {
          "addr:street": "Mandlik Road",
          "amenity": "restaurant",
          "name": "Indigo",
          "website": "www.foodindigo.com"
        }
      },
      {
        "type": "node",
        "id": 870448041,
        "lat": 18.9228307,
        "lon": 72.832167,
        "tags": {
          "amenity": "pharmacy",
          "healthcare": "pharmacy",
          "name": "Sheetal Medical & General Stores"
        }
      },
      {
        "type": "node",
        "id": 1704905149,
        "lat": 18.9308083,
        "lon": 72.8350511,
        "tags": {
          "amenity": "restaurant",
          "name": "Jimmy Boy"
        }
      },
      {
        "type": "node",
        "id": 1973402579,
        "lat": 18.9243285,
        "lon": 72.83175,
        "tags": {
          "name": "Sahakari Bhandar",
          "shop": "supermarket",
          "source": "local_knowledge"
        }
      },
      {
        "type": "node",
        "id": 1973521830,
        "lat": 18.9186498,
        "lon": 72.8284971,
        "tags": {
          "addr:street": "1st Pasta Lane",
          "amenity": "restaurant",
          "diet:vegetarian": "only",
          "name": "Kailash Parbat",
          "source": "local_knowledge"
        }
      },
      {
        "type": "node",
        "id": 2167547605,
        "lat": 18.92813,
        "lon": 72.8343471,
        "tags": {
          "amenity": "bank",
          "brand": "Canara Bank",
          "brand:en": "Canara Bank",
          "brand:hi": "\u0915\u0947\u0928\u0930\u093e \u092c\u0948\u0902\u0915",
          "brand:kn": "\u0c95\u0cc6\u0ca8\u0cb0\u0cbe \u0cac\u0ccd\u0caf\u0cbe\u0c82\u0c95\u0ccd",
          "brand:pa": "\u0a15\u0a47\u0a28\u0a30\u0a3e \u0a2c\u0a48\u0a02\u0a15",
          "brand:pnb": "\u06a9\u06cc\u0646\u0631\u0627 \u0628\u06cc\u0646\u06a9",
          "brand:ur": "\u06a9\u06cc\u0646\u0631\u0627 \u0628\u06cc\u0646\u06a9",
          "brand:wikidata": "Q2003777",
          "brand:wikipedia": "en:Canara Bank",
          "brand:wikipedia:pa": "\u0a15\u0a47\u0a28\u0a30\u0a3e \u0a2c\u0a48\u0a02\u0a15",
          "name": "Canara Bank",
          "name:en": "Canara Bank",
          "name:hi": "\u0915\u0947\u0928\u0930\u093e \u092c\u0948\u0902\u0915",
          "name:kn": "\u0c95\u0cc6\u0ca8\u0cb0\u0cbe \u0cac\u0ccd\u0caf\u0cbe\u0c82\u0c95\u0ccd",
          "name:pa": "\u0a15\u0a47\u0a28\u0a30\u0a3e \u0a2c\u0a48\u0a02\u0a15",
          "name:pnb": "\u06a9\u06cc\u0646\u0631\u0627 \u0628\u06cc\u0646\u06a9",
          "name:ur": "\u06a9\u06cc\u0646\u0631\u0627 \u0628\u06cc\u0646\u06a9",
          "website": "https://www.canarabank.com/"
        }
      },
      {
        "type": "node",
        "id": 2168597681,
        "lat": 18.9305587,
        "lon": 72.8341517,
        "tags": {
          "amenity": "bank",
          "brand": "Bank of Maharashtra",
          "brand:wikidata": "Q2004304",
          "brand:wikipedia": "en:Bank of Maharashtra",
          "name": "Bank of Maharashtra",
          "name:en": "Bank of Maharashtra",
          "website": "https://www.bankofmaharashtra.in/"
        }
      },
      {
        "type": "node",
        "id": 2168597692,
        "lat": 18.9310454,
        "lon": 72.8346779,
        "tags": {
          "amenity": "bank",
          "brand": "State Bank of India",
          "brand:wikidata": "Q1340361",
          "brand:wikipedia": "en:State Bank of India",
          "name": "State Bank of India",
          "short_name": "SBI"
        }
      },
      {
        "type": "node",
        "id": 2168597698,
        "lat": 18.9310858,
        "lon": 72.834342,
        "tags": {
          "amenity": "bank",
          "brand": "State Bank of India",
          "brand:wikidata": "Q1340361",
          "brand:wikipedia": "en:State Bank of India",
          "name": "State Bank of India",
          "short_name": "SBI"
        }
      },
      {
        "type": "node",
        "id": 3229085249,
        "lat": 18.9303365,
        "lon": 72.833002,
        "tags": {
          "amenity": "cafe"
        }
      },
      {
        "type": "node",
        "id": 3290997483,
        "lat": 18.9189746,
        "lon": 72.8320493,
        "tags": {
          "amenity": "cafe",
          "name": "Marina"
        }
      },
      {
        "type": "node",
        "id": 3306535077,
        "lat": 18.9248221,
        "lon": 72.8324272,
        "tags": {
          "amenity": "bank",
          "atm": "yes",
          "brand": "HDFC Bank",
          "brand:wikidata": "Q631047",
          "brand:wikipedia": "en:HDFC Bank",
          "name": "HDFC Bank",
          "short_name": "HDFC",
          "website": "https://www.hdfcbank.com"
        }
      },
      {
        "type": "node",
        "id": 3306535084,
        "lat": 18.9246487,
        "lon": 72.8329667,
        "tags": {
          "amenity": "atm",
          "brand": "Axis Bank",
          "brand:wikidata": "Q2003549",
          "operator": "Axis Bank",
          "operator:wikidata": "Q2003549"
        }
      },
      {
        "type": "node",
        "id": 3306535108,
        "lat": 18.9245845,
        "lon": 72.8318581,
        "tags": {
          "amenity": "restaurant",
          "diet:vegetarian": "yes",
          "name": "Sahakari Bhandar"
        }
      },
      {
        "type": "node",
        "id": 3366405791,
        "lat": 18.928482,
        "lon": 72.8323116,
        "tags": {
          "addr:city": "Mumbai",
          "addr:housenumber": "10",
          "addr:postcode": "400001",
          "addr:street": "Rope Walk Street",
          "amenity": "cafe",
          "capacity": "85",
          "cuisine": "cafe;wine_bar",
          "delivery": "yes",
          "name": "Kala Ghoda Cafe",
          "opening_hours": "08:00-23:45",
          "opening_hours:covid19": "08:00 to 23:00",
          "phone": "+91 22 2265 0195",
          "smoking": "outside",
          "takeaway": "yes",
          "website": "https://kgcafe.in/"
        }
      },
      {
        "type": "node",
        "id": 3366405792,
        "lat": 18.9285235,
        "lon": 72.8324143,
        "tags": {
          "amenity": "restaurant",
          "cuisine": "italian",
          "name": "La Folie"
        }
      },
      {
        "type": "node",
        "id": 3366415293,
        "lat": 18.928798,
        "lon": 72.8323316,
        "tags": {
          "amenity": "restaurant",
          "cuisine": "asian",
          "name": "Mamagoto"
        }
      },
      {
        "type": "node",
        "id": 3366416121,
        "lat": 18.9289343,
        "lon": 72.8338049,
        "tags": {
          "amenity": "bank",
          "atm": "no",
          "brand": "Corporation Bank",
          "brand:wikidata": "Q2003387",
          "brand:wikipedia": "en:Corporation Bank",
          "name": "Corporation Bank",
          "name:en": "Corporation Bank",
          "website": "https://corpbank.com/"
        }
      },
      {
        "type": "node",
        "id": 3366416123,
        "lat": 18.9287859,
        "lon": 72.8339813,
        "tags": {
          "amenity": "restaurant",
          "name": "Nico Bombay"
        }
      },
      {
        "type": "node",
        "id": 3366416124,
        "lat": 18.9290532,
        "lon": 72.8337851,
        "tags": {
          "amenity": "bank",
          "atm": "yes",
          "brand": "Canara Bank",
          "brand:en": "Canara Bank",
          "brand:hi": "\u0915\u0947\u0928\u0930\u093e \u092c\u0948\u0902\u0915",
          "brand:kn": "\u0c95\u0cc6\u0ca8\u0cb0\u0cbe \u0cac\u0ccd\u0caf\u0cbe\u0c82\u0c95\u0ccd",
          "brand:pa": "\u0a15\u0a47\u0a28\u0a30\u0a3e \u0a2c\u0a48\u0a02\u0a15",
          "brand:pnb": "\u06a9\u06cc\u0646\u0631\u0627 \u0628\u06cc\u0646\u06a9",
          "brand:ur": "\u06a9\u06cc\u0646\u0631\u0627 \u0628\u06cc\u0646\u06a9",
          "brand:wikidata": "Q2003777",
          "brand:wikipedia": "en:Canara Bank",
          "brand:wikipedia:pa": "\u0a15\u0a47\u0a28\u0a30\u0a3e \u0a2c\u0a48\u0a02\u0a15",
          "name": "Canara Bank",
          "name:en": "Canara Bank",
          "name:hi": "\u0915\u0947\u0928\u0930\u093e \u092c\u0948\u0902\u0915",
          "name:kn": "\u0c95\u0cc6\u0ca8\u0cb0\u0cbe \u0cac\u0ccd\u0caf\u0cbe\u0c82\u0c95\u0ccd",
          "name:pa": "\u0a15\u0a47\u0a28\u0a30\u0a3e \u0a2c\u0a48\u0a02\u0a15",
          "name:pnb": "\u06a9\u06cc\u0646\u0631\u0627 \u0628\u06cc\u0646\u06a9",
          "name:ur": "\u06a9\u06cc\u0646\u0631\u0627 \u0628\u06cc\u0646\u06a9",
          "website": "https://www.canarabank.com/"
        }
      },
      {
        "type": "node",
        "id": 3366422124,
        "lat": 18.9282162,
        "lon": 72.8328878,
        "tags": {
          "amenity": "restaurant",
          "cuisine": "indian",
          "name": "Ayub's"
        }
      },
      {
        "type": "node",
        "id": 3366422125,
        "lat": 18.9282794,
        "lon": 72.8333622,
        "tags": {
          "amenity": "restaurant",
          "name": "Carter's Blue"
        }
      },
      {
        "type": "node",
        "id": 3366427603,
        "lat": 18.9283524,
        "lon": 72.8336264,
        "tags": {
          "amenity": "restaurant",
          "name": "Nutcracker"
        }
      },
      {
        "type": "node",
        "id": 3366427604,
        "lat": 18.9285401,
        "lon": 72.8337873,
        "tags": {
          "addr:city": "Mumbai",
          "addr:housename": "Bharat House",
          "addr:postcode": "400023",
          "addr:street": "Mumbai Samachar Marg",
          "amenity": "bank",
          "brand:wikidata": "Q6479935",
          "brand:wikipedia": "en:Lakshmi Vilas Bank",
          "name": "Lakshmi Vilas Bank",
          "name:en": "Lakshmi Vilas Bank",
          "website": "https://www.lvbank.com"
        }
      },
      {
        "type": "node",
        "id": 3408261570,
        "lat": 18.9226349,
        "lon": 72.8320844,
        "tags": {
          "addr:city": "Mumbai",
          "addr:housename": "Ram Mansion",
          "addr:housenumber": "19-A",
          "addr:place": "Colaba",
          "addr:postcode": "400001",
          "addr:street": "Nowroji Ferdonji Street",
          "amenity": "fast_food",
          "name": "Bademiya Restaurant",
          "phone": "22021447",
          "wikidata": "Q24895746",
          "wikimedia_commons": "Category:Bademiya",
          "wikipedia": "en:Bademiya"
        }
      },
      {
        "type": "node",
        "id": 3826266891,
        "lat": 18.9286085,
        "lon": 72.8320128,
        "tags": {
          "amenity": "cafe",
          "name": "Malido cafe"
        }
      },
      {
        "type": "node",
        "id": 4099677900,
        "lat": 18.9238699,
        "lon": 72.8333287,
        "tags": {
          "addr:city": "Mumbai",
          "addr:postcode": "400001",
          "addr:street": "Chhatrapati Shivaji Maharaj Road",
          "amenity": "restaurant",
          "cuisine": "lebanese",
          "name": "Cafe Mosh\u00e9",
          "smoking": "no"
        }
      },
      {
        "type": "node",
        "id": 4099677901,
        "lat": 18.9241821,
        "lon": 72.8330843,
        "tags": {
          "addr:city": "Mumbai",
          "addr:postcode": "400001",
          "addr:street": "Chhatrapati Shivaji Maharaj Road",
          "amenity": "restaurant",
          "name": "The Table"
        }
      },
      {
        "type": "node",
        "id": 4099677902,
        "lat": 18.9240286,
        "lon": 72.8335791,
        "tags": {
          "addr:city": "Mumbai",
          "addr:postcode": "400001",
          "addr:street": "Chhatrapati Shivaji Maharaj Road",
          "amenity": "cafe",
          "brand": "Le Pain Quotidien",
          "brand:wikidata": "Q2046903",
          "cuisine": "coffee_shop",
          "name": "Le Pain Quotidien",
          "takeaway": "yes"
        }
      },
      {
        "type": "node",
        "id": 4099677903,
        "lat": 18.9239309,
        "lon": 72.8335563,
        "tags": {
          "addr:city": "Mumbai",
          "addr:postcode": "400001",
          "addr:street": "Chhatrapati Shivaji Maharaj Road",
          "amenity": "restaurant",
          "brand": "PizzaExpress",
          "brand:wikidata": "Q662845",
          "cuisine": "pizza",
          "name": "PizzaExpress"
        }
      },
      {
        "type": "node",
        "id": 4342167989,
        "lat": 18.9214742,
        "lon": 72.8324799,
        "tags": {
          "addr:city": "Mumbai",
          "addr:postcode": "4000020",
          "addr:street": "Ram mahal,Dinshaw Vacha Road",
          "amenity": "cafe",
          "brand": "Starbucks",
          "brand:wikidata": "Q37158",
          "cuisine": "coffee_shop",
          "internet_access": "wlan",
          "internet_access:fee": "no",
          "name": "Starbucks",
          "name:en": "Starbucks",
          "official_name": "Starbucks Coffee",
          "opening_hours": "Mo-Su 07:00-01:00",
          "takeaway": "yes"
        }
      },
      {
        "type": "node",
        "id": 4561291577,
        "lat": 18.9250842,
        "lon": 72.8318941,
        "tags": {
          "amenity": "restaurant",
          "name": "Caf\u00e9 Royal",
          "website": "https://www.caferoyal.in/"
        }
      },
      {
        "type": "node",
        "id": 4574503391,
        "lat": 18.9206952,
        "lon": 72.8264532,
        "tags": {
          "amenity": "bank",
          "name:en": "State bank of Patalai"
        }
      },
      {
        "type": "node",
        "id": 4605376504,
        "lat": 18.918775,
        "lon": 72.829293,
        "tags": {
          "amenity": "pharmacy",
          "healthcare": "pharmacy"
        }
      },
      {
        "type": "node",
        "id": 4605376505,
        "lat": 18.9251132,
        "lon": 72.8319074,
        "tags": {
          "amenity": "restaurant",
          "name": "Caf\u00e9 Royal",
          "website": "https://www.caferoyal.in/"
        }
      },
      {
        "type": "node",
        "id": 4663402302,
        "lat": 18.9291288,
        "lon": 72.8343712,
        "tags": {
          "amenity": "fast_food",
          "name:en": "1441 Pizzeria"
        }
      },
      {
        "type": "node",
        "id": 4839324924,
        "lat": 18.9241786,
        "lon": 72.8327904,
        "tags": {
          "amenity": "atm",
          "brand": "ICICI Bank",
          "brand:wikidata": "Q1653258",
          "operator": "ICICI Bank",
          "operator:wikidata": "Q1653258",
          "short_name": "ICICI"
        }
      },
      {
        "type": "node",
        "id": 4839324926,
        "lat": 18.9206019,
        "lon": 72.8314591,
        "tags": {
          "amenity": "bank",
          "brand": "Western Union",
          "brand:wikidata": "Q861042",
          "name": "Western Union",
          "name:en": "Western Union"
        }
      },
      {
        "type": "node",
        "id": 4839324928,
        "lat": 18.9184536,
        "lon": 72.8312752,
        "tags": {
          "amenity": "pharmacy",
          "healthcare": "pharmacy",
          "name:en": "Darbar"
        }
      },
      {
        "type": "node",
        "id": 4841690923,
        "lat": 18.9242153,
        "lon": 72.8327681,
        "tags": {
          "amenity": "fast_food",
          "brand": "Subway",
          "brand:wikidata": "Q244457",
          "cuisine": "sandwich",
          "name": "Subway",
          "name:en": "Subway",
          "takeaway": "yes"
        }
      },
      {
        "type": "node",
        "id": 4841690924,
        "lat": 18.9187299,
        "lon": 72.8304224,
        "tags": {
          "amenity": "cafe",
          "name:en": "Cafe basilico"
        }
      },
      {
        "type": "node",
        "id": 4841690925,
        "lat": 18.9188451,
        "lon": 72.8295077,
        "tags": {
          "amenity": "pharmacy",
          "name:en": "Gen medical 24hrs"
        }
      },
      {
        "type": "node",
        "id": 4841695622,
        "lat": 18.9185279,
        "lon": 72.830327,
        "tags": {
          "amenity": "cafe",
          "brand": "Cafe Coffee Day",
          "brand:wikidata": "Q5017235",
          "cuisine": "coffee_shop",
          "name": "Cafe Coffee Day",
          "takeaway": "yes"
        }
      },
      {
        "type": "node",
        "id": 4841695627,
        "lat": 18.9184241,
        "lon": 72.8309379,
        "tags": {
          "amenity": "restaurant",
          "name": "Mezban",
          "payment:credit_cards": "yes",
          "payment:debit_cards": "yes"
        }
      },
      {
        "type": "node",
        "id": 4841716121,
        "lat": 18.9186785,
        "lon": 72.8296476,
        "tags": {
          "amenity": "restaurant",
          "name:en": "Food plaza"
        }
      },
      {
        "type": "node",
        "id": 4841716421,
        "lat": 18.9238234,
        "lon": 72.8332917,
        "tags": {
          "amenity": "fast_food",
          "name:en": "Kebab and juices"
        }
      },
      {
        "type": "node",
        "id": 4841716621,
        "lat": 18.9241821,
        "lon": 72.8333567,
        "tags": {
          "amenity": "restaurant",
          "name:en": "Alibaba"
        }
      },
      {
        "type": "node",
        "id": 4841716622,
        "lat": 18.9214456,
        "lon": 72.8322791,
        "tags": {
          "amenity": "restaurant",
          "name": "Papaya bistro",
          "name:en": "Papaya bistro"
        }
      },
      {
        "type": "node",
        "id": 4841716623,
        "lat": 18.9184628,
        "lon": 72.8307994,
        "tags": {
          "amenity": "restaurant",
          "name:en": "Mezban"
        }
      },
      {
        "type": "node",
        "id": 5209844942,
        "lat": 18.9229102,
        "lon": 72.8324423,
        "tags": {
          "amenity": "restaurant",
          "cuisine": "chicken;indian;local",
          "name": "\u092c\u0917\u0926\u093e\u0926\u0940 \u0930\u0947\u0938\u094d\u091f\u094b\u0930\u0947\u0902\u091f",
          "name:ar": "\u0645\u0637\u0639\u0645 \u0627\u0644\u0628\u063a\u062f\u0627\u062f\u0649",
          "name:en": "Bagdadi",
          "name:es": "Bagdadi",
          "name:km": "\u1794\u1780\u17cb\u178a\u178c\u17b8",
          "opening_hours": "Mo-Su 07:00-14:00",
          "phone": "+91-22-2202-8027"
        }
      },
      {
        "type": "node",
        "id": 5287626235,
        "lat": 18.9280874,
        "lon": 72.8324624,
        "tags": {
          "amenity": "cafe",
          "name": "Bake House Cafe"
        }
      },
      {
        "type": "node",
        "id": 5300321221,
        "lat": 18.9236808,
        "lon": 72.8324278,
        "tags": {
          "addr:housenumber": "19/21",
          "addr:postcode": "400001",
          "addr:street": "Mahakavi Bhushan Road (Lansdowne Road)",
          "amenity": "restaurant",
          "cuisine": "chinese",
          "name": "Ling's Pavilion",
          "name:en": "Ling's Pavilion",
          "opening_hours": "Mo-Su 12:00-18:00"
        }
      },
      {
        "type": "node",
        "id": 5330860952,
        "lat": 18.9246548,
        "lon": 72.8304766,
        "tags": {
          "addr:city": "Mumbai",
          "addr:housenumber": "Dr Ambedkar Statue Chowk Area",
          "addr:postcode": "400001",
          "addr:street": "Nathalal M. Parikh Road",
          "addr:unit": "Colaba",
          "leisure": "park",
          "name": "Sabina Chandrashekhar Memorial Municipal Garden and Playground"
        }
      },
      {
        "type": "node",
        "id": 5331030022,
        "lat": 18.9310618,
        "lon": 72.8319436,
        "tags": {
          "amenity": "restaurant",
          "cuisine": "indian",
          "diet:vegetarian": "only",
          "name:en": "Welcome Restaurant - Pure veg"
        }
      },
      {
        "type": "node",
        "id": 5331030222,
        "lat": 18.9308151,
        "lon": 72.8330445,
        "tags": {
          "amenity": "restaurant",
          "cuisine": "indian",
          "diet:vegetarian": "only",
          "name:en": "Blossom - Pure veg"
        }
      },
      {
        "type": "node",
        "id": 5437335622,
        "lat": 18.9183846,
        "lon": 72.8284883,
        "tags": {
          "amenity": "restaurant",
          "cuisine": "indian",
          "name:en": "Madras Caffee",
          "opening_hours": "Mo-Su 09:00-23:00"
        }
      },
      {
        "type": "node",
        "id": 5874674527,
        "lat": 18.9279453,
        "lon": 72.8321691,
        "tags": {
          "amenity": "restaurant",
          "brand": "Punjab Grill",
          "brand:wikidata": "Q124374761",
          "cuisine": "north_indian",
          "delivery": "yes",
          "name": "Punjab Grill",
          "takeaway": "yes"
        }
      },
      {
        "type": "node",
        "id": 6052692792,
        "lat": 18.9228431,
        "lon": 72.8320789,
        "tags": {
          "amenity": "restaurant",
          "name:en": "New Apollo"
        }
      },
      {
        "type": "node",
        "id": 6221009336,
        "lat": 18.9239696,
        "lon": 72.8318052,
        "tags": {
          "amenity": "cafe",
          "check_date": "2023-10-21",
          "name": "Think Juice"
        }
      },
      {
        "type": "node",
        "id": 6369776385,
        "lat": 18.9288942,
        "lon": 72.8321102,
        "tags": {
          "amenity": "cafe",
          "name:en": "Pantry Caf\u00e9"
        }
      },
      {
        "type": "node",
        "id": 6369776585,
        "lat": 18.9302963,
        "lon": 72.8314545,
        "tags": {
          "amenity": "restaurant",
          "name:en": "Kandeel"
        }
      },
      {
        "type": "node",
        "id": 6428467286,
        "lat": 18.9175909,
        "lon": 72.8292105,
        "tags": {
          "amenity": "atm",
          "brand": "Central Bank of India",
          "brand:wikidata": "Q2007090",
          "operator": "Central Bank of India",
          "operator:wikidata": "Q2007090"
        }
      },
      {
        "type": "node",
        "id": 6428468685,
        "lat": 18.9181719,
        "lon": 72.829326,
        "tags": {
          "amenity": "fast_food",
          "brand": "Domino's",
          "brand:wikidata": "Q839466",
          "cuisine": "pizza",
          "name": "Domino's",
          "name:en": "Domino's Pizza",
          "takeaway": "yes"
        }
      },
      {
        "type": "node",
        "id": 6428491685,
        "lat": 18.9177853,
        "lon": 72.8292742,
        "tags": {
          "amenity": "restaurant",
          "name:en": "Shubh Sagar"
        }
      },
      {
        "type": "node",
        "id": 6622437085,
        "lat": 18.9238065,
        "lon": 72.8326183,
        "tags": {
          "amenity": "cafe",
          "cuisine": "coffee_shop;sandwich;international",
          "internet_access": "wlan",
          "name:en": "Le 15 Caf\u00e9 Colaba"
        }
      },
      {
        "type": "node",
        "id": 6994530085,
        "lat": 18.9226347,
        "lon": 72.8316118,
        "tags": {
          "name:en": "Miniso",
          "shop": "department_store"
        }
      },
      {
        "type": "node",
        "id": 7043574603,
        "lat": 18.9230941,
        "lon": 72.8276074,
        "tags": {
          "addr:district": "Mumbai",
          "addr:full": "9th Floor, Room No-91, Lady Ratan Tata Medical & Research Centre 31, Maharshi Karve Road, Cooperage",
          "addr:postcode": "400021",
          "addr:state": "Maharashtra",
          "amenity": "hospital",
          "name": "Vinod Sharma Memorial Medical Centre",
          "source": "OpenGovernmentData"
        }
      },
      {
        "type": "node",
        "id": 7068194983,
        "lat": 18.923141,
        "lon": 72.8275739,
        "tags": {
          "addr:district": "Mumbai",
          "addr:full": "81-84 Lady R.T.Med.&Reserch Cntre",
          "addr:postcode": "400049",
          "addr:state": "Maharashtra",
          "amenity": "hospital",
          "name": "Spectrum Health Care",
          "source": "OpenGovernmentData"
        }
      },
      {
        "type": "node",
        "id": 7070857462,
        "lat": 18.9241039,
        "lon": 72.8242117,
        "tags": {
          "addr:district": "Mumbai",
          "addr:full": "901-902,Tulsani Chambers,9Th Floor,212 Free Press Journal Marg",
          "addr:postcode": "400071",
          "addr:state": "Maharashtra",
          "amenity": "clinic",
          "healthcare": "clinic",
          "name": "Dr. Amins Clinic",
          "source": "OpenGovernmentData"
        }
      },
      {
        "type": "node",
        "id": 7073949831,
        "lat": 18.9190084,
        "lon": 72.8295433,
        "tags": {
          "addr:district": "Mumbai",
          "addr:full": "103,Kartar Bhavan,Colaba M",
          "addr:postcode": "400006",
          "addr:state": "Maharashtra",
          "amenity": "clinic",
          "healthcare": "clinic",
          "name": "Kataria Eye Clinic",
          "source": "OpenGovernmentData"
        }
      },
      {
        "type": "node",
        "id": 7082720985,
        "lat": 18.9190437,
        "lon": 72.8305233,
        "tags": {
          "amenity": "cafe",
          "cuisine": "indian",
          "internet_access": "wlan",
          "name:en": "Cloud 9"
        }
      },
      {
        "type": "node",
        "id": 7083190122,
        "lat": 18.9230674,
        "lon": 72.8275497,
        "tags": {
          "addr:district": "Mumbai",
          "addr:full": "74/78/Lady Ratan Tata M R C Karve Road, Cooperage",
          "addr:postcode": "400021",
          "addr:state": "Maharashtra",
          "amenity": "hospital",
          "name": "Abhishek Day Care Institute and Medical Research Centre",
          "source": "OpenGovernmentData"
        }
      },
      {
        "type": "node",
        "id": 7138467185,
        "lat": 18.922207,
        "lon": 72.832129,
        "tags": {
          "amenity": "atm",
          "brand": "State Bank of India",
          "brand:wikidata": "Q1340361",
          "opening_hours": "24/7",
          "operator": "State Bank of India",
          "operator:wikidata": "Q1340361",
          "short_name": "SBI"
        }
      },
      {
        "type": "node",
        "id": 7139457486,
        "lat": 18.9220889,
        "lon": 72.8313971,
        "tags": {
          "addr:district": "Mumbai City",
          "addr:housenumber": "61-A",
          "addr:postcode": "400001",
          "addr:street": "Colaba Causeway",
          "air_conditioning": "yes",
          "amenity": "restaurant",
          "contact:phone": "+91 22040195",
          "cuisine": "local;indian",
          "name": "Food Inn",
          "name:en": "Food Inn",
          "phone": "+91 22872881",
          "website": "https://www.tripadvisor.in/Restaurant_Review-g304554-d5901125-Reviews-Food_Inn-Mumbai_Maharashtra.html"
        }
      },
      {
        "type": "node",
        "id": 7152142887,
        "lat": 18.9240323,
        "lon": 72.8327958,
        "tags": {
          "amenity": "restaurant",
          "name:es": "Pancham Pureewala"
        }
      },
      {
        "type": "node",
        "id": 7249314185,
        "lat": 18.9285172,
        "lon": 72.832754,
        "tags": {
          "amenity": "cafe",
          "cuisine": "pancake",
          "name:en": "99 Pancakes"
        }
      },
      {
        "type": "node",
        "id": 7293746571,
        "lat": 18.9311988,
        "lon": 72.8316669,
        "tags": {
          "addr:city": "Mumbai",
          "addr:housenumber": "57 Fort, opp. HSBC Bank",
          "addr:postcode": "400023",
          "addr:street": "Mahatma Gandhi Road",
          "air_conditioning": "yes",
          "amenity": "restaurant",
          "cuisine": "italian;thai;chinese;seafood;salad;salads;soup;sandwich;dessert;tea;coffee",
          "delivery": "yes",
          "diet:gluten_free": "yes",
          "diet:meat": "yes",
          "diet:vegan": "yes",
          "diet:vegetarian": "yes",
          "name": "Fountain Sizzlers",
          "opening_hours": "Mo-Su 12:00-23:30",
          "outdoor_seating": "no",
          "phone": "+91 22 40647777",
          "smoking": "no"
        }
      },
      {
        "type": "node",
        "id": 7664032193,
        "lat": 18.923038,
        "lon": 72.832811,
        "tags": {
          "addr:district": "Mumbai City",
          "addr:full": "Devidas Mansion, 4, Behind Taj Hotel, Apollo Bandar, Colaba, Mumbai",
          "addr:postcode": "400005",
          "addr:state": "Maharastra",
          "amenity": "hospital",
          "name": "Kalajot Hospital",
          "source": "Local Knowledge"
        }
      },
      {
        "type": "node",
        "id": 7664032229,
        "lat": 18.923164,
        "lon": 72.831908,
        "tags": {
          "addr:district": "Mumbai City",
          "addr:full": "Colaba Causeway, Apollo Bandar, Colaba, Mumbai",
          "addr:postcode": "400001",
          "addr:state": "Maharastra",
          "amenity": "clinic",
          "healthcare": "clinic",
          "name": "R&R Eye Care Clinic",
          "source": "Local Knowledge"
        }
      },
      {
        "type": "node",
        "id": 8084252878,
        "lat": 18.9282899,
        "lon": 72.832771,
        "tags": {
          "addr:postcode": "400001",
          "addr:street": "Dr V B Gandhi Road (Forbes Street)",
          "amenity": "cafe",
          "food": "health food, organic, vegan, vegetarian",
          "name": "Sequel"
        }
      },
      {
        "type": "node",
        "id": 8084321640,
        "lat": 18.9287539,
        "lon": 72.8316226,
        "tags": {
          "addr:housenumber": "137 Jeroo Building",
          "addr:postcode": "400001",
          "addr:street": "Mahatma Gandhi Road",
          "amenity": "cafe",
          "food": "Indian, local, innovative, healthy, fusion",
          "name": "Fabcaf\u00e9"
        }
      },
      {
        "type": "node",
        "id": 9574721718,
        "lat": 18.9307521,
        "lon": 72.8320601,
        "tags": {
          "amenity": "restaurant",
          "name": "Cafe Military"
        }
      },
      {
        "type": "node",
        "id": 9915112218,
        "lat": 18.9179234,
        "lon": 72.8292664,
        "tags": {
          "amenity": "restaurant",
          "name:en": "SHUBH SAGAR PURE VEG"
        }
      },
      {
        "type": "node",
        "id": 9918827615,
        "lat": 18.9296368,
        "lon": 72.827438,
        "tags": {
          "addr:city": "Mumbai",
          "addr:housenumber": "123",
          "addr:postcode": "400020",
          "addr:street": "Dinshaw Wachha Road",
          "amenity": "bank",
          "brand": "Bank of Baroda",
          "brand:wikidata": "Q2003797",
          "name": "Bank of Baroda",
          "opening_hours": "Mo-Fr 10:00-17:00"
        }
      },
      {
        "type": "node",
        "id": 9918837074,
        "lat": 18.929549,
        "lon": 72.8274022,
        "tags": {
          "addr:city": "Mumbai",
          "addr:housenumber": "123",
          "addr:postcode": "400020",
          "addr:street": "Dinshaw Wachha Road",
          "amenity": "bank",
          "atm": "yes",
          "brand": "Bank of Baroda",
          "brand:wikidata": "Q2003797",
          "drive_through": "no",
          "name": "Bank of Baroda",
          "opening_hours": "Mo-Fr 10:00-17:00; Sa-Su off",
          "phone": "18002584455",
          "website": "www.bankofbaroda.in"
        }
      },
      {
        "type": "node",
        "id": 9918846975,
        "lat": 18.9295514,
        "lon": 72.8274013,
        "tags": {
          "addr:city": "Mumbai",
          "addr:housenumber": "123",
          "addr:postcode": "400020",
          "addr:street": "Dinshaw Wachha Road",
          "amenity": "bank",
          "atm": "yes",
          "brand": "Bank of Baroda",
          "brand:wikidata": "Q2003797",
          "name": "Bank of Baroda",
          "opening_hours": "Mo-Su 10:00-17:00"
        }
      },
      {
        "type": "node",
        "id": 10538700178,
        "lat": 18.9291169,
        "lon": 72.826709,
        "tags": {
          "amenity": "fast_food",
          "name": "Raju Rolls"
        }
      },
      {
        "type": "node",
        "id": 11145671977,
        "lat": 18.9294782,
        "lon": 72.827528,
        "tags": {
          "air_conditioning": "yes",
          "name": "Nature Basket",
          "shop": "supermarket"
        }
      },
      {
        "type": "node",
        "id": 11270821396,
        "lat": 18.9184098,
        "lon": 72.8308924,
        "tags": {
          "amenity": "cafe",
          "name": "Kuckeliku Breakfast House",
          "payment:credit_cards": "yes",
          "payment:debit_cards": "yes"
        }
      },
      {
        "type": "node",
        "id": 11273550694,
        "lat": 18.9276732,
        "lon": 72.8329819,
        "tags": {
          "amenity": "cafe",
          "name": "Zen Cafe",
          "payment:credit_cards": "yes",
          "payment:debit_cards": "yes"
        }
      },
      {
        "type": "node",
        "id": 11348920897,
        "lat": 18.9279659,
        "lon": 72.832941,
        "tags": {
          "addr:city": "Mumbai",
          "addr:district": "Maharashtra",
          "addr:housenumber": "14",
          "addr:postcode": "400001",
          "addr:street": "14, New Bakehouse, Lane, Kala Ghoda, Fort",
          "amenity": "restaurant",
          "delivery": "yes",
          "diet:non-vegetarian": "yes",
          "diet:vegan": "yes",
          "diet:vegetarian": "yes",
          "name": "Folk",
          "opening_hours": "Mo-Su 12:00-23:00",
          "phone": "09820453001"
        }
      },
      {
        "type": "node",
        "id": 11407167469,
        "lat": 18.9240823,
        "lon": 72.8322655,
        "tags": {
          "alt_name": "Kentucky Fried Chicken",
          "alt_name:en": "Kentucky Fried Chicken",
          "alt_name:hi": "\u0915\u0947\u0902\u091f\u0941\u0915\u0940 \u092b\u094d\u0930\u093e\u0907\u0921 \u091a\u093f\u0915\u0928",
          "alt_name:pa": "\u0a15\u0a48\u0a02\u0a1f\u0a41\u0a15\u0a40 \u0a2b\u0a4d\u0a30\u0a3e\u0a08\u0a21 \u0a1a\u0a3f\u0a15\u0a28",
          "alt_name:pnb": "\u06a9\u06cc\u0646\u0679\u06a9\u06cc \u0641\u0631\u0627\u0626\u06cc\u0688 \u0686\u06a9\u0646",
          "alt_name:ur": "\u06a9\u06cc\u0646\u0679\u06a9\u06cc \u0641\u0631\u0627\u0626\u06cc\u0688 \u0686\u06a9\u0646",
          "amenity": "fast_food",
          "brand": "KFC",
          "brand:en": "KFC",
          "brand:hi": "\u0915\u0947\u090f\u092b\u0938\u0940",
          "brand:pa": "\u0a15\u0a47\u0a10\u0a2b\u0a38\u0a40",
          "brand:pnb": "\u06a9\u06d2 \u0627\u06cc\u0641 \u0633\u06cc",
          "brand:ur": "\u06a9\u06d2 \u0627\u06cc\u0641 \u0633\u06cc",
          "brand:wikidata": "Q524757",
          "cuisine": "chicken",
          "name": "KFC",
          "name:en": "KFC",
          "name:hi": "\u0915\u0947\u090f\u092b\u0938\u0940",
          "name:pa": "\u0a15\u0a47\u0a10\u0a2b\u0a38\u0a40",
          "name:pnb": "\u06a9\u06d2 \u0627\u06cc\u0641 \u0633\u06cc",
          "name:ur": "\u06a9\u06d2 \u0627\u06cc\u0641 \u0633\u06cc",
          "opening_hours": "Mo-Su 11:00-23:00",
          "takeaway": "yes"
        }
      },
      {
        "type": "node",
        "id": 11504138769,
        "lat": 18.9239778,
        "lon": 72.8322357,
        "tags": {
          "amenity": "cafe"
        }
      },
      {
        "type": "node",
        "id": 11504139369,
        "lat": 18.9241568,
        "lon": 72.8324007,
        "tags": {
          "amenity": "restaurant"
        }
      },
      {
        "type": "node",
        "id": 11542372406,
        "lat": 18.9290226,
        "lon": 72.8343431,
        "tags": {
          "addr:housenumber": "5",
          "amenity": "restaurant",
          "name": "Gateway Taproom",
          "website": "https://gatewaytaprooms.com/kalaghoda.html"
        }
      },
      {
        "type": "node",
        "id": 11542420692,
        "lat": 18.9237378,
        "lon": 72.8327082,
        "tags": {
          "amenity": "cafe",
          "name": "Subko Mini at Abode Bombay",
          "opening_hours": "Mo-Su 10:00-20:00",
          "website": "https://www.subko.coffee/"
        }
      },
      {
        "type": "node",
        "id": 11964902109,
        "lat": 18.9283232,
        "lon": 72.8316572,
        "tags": {
          "amenity": "restaurant",
          "cuisine": "indian",
          "name": "Khyber",
          "name:en": "Khyber",
          "name:hi": "\u0916\u0948\u092c\u0930",
          "name:mr": "\u0916\u0948\u092c\u0930"
        }
      },
      {
        "type": "node",
        "id": 12299747088,
        "lat": 18.9282444,
        "lon": 72.8339658,
        "tags": {
          "amenity": "bank",
          "brand": "Bank of Maharashtra",
          "brand:wikidata": "Q2004304",
          "name": "Bank of Maharashtra"
        }
      },
      {
        "type": "node",
        "id": 12560946823,
        "lat": 18.923332,
        "lon": 72.8313177,
        "tags": {
          "amenity": "bank",
          "brand": "Bank of Baroda",
          "brand:wikidata": "Q2003797",
          "name": "Bank of Baroda"
        }
      },
      {
        "type": "node",
        "id": 12560946824,
        "lat": 18.9232674,
        "lon": 72.831386,
        "tags": {
          "amenity": "hospital",
          "healthcare": "hospital",
          "name": "Apollo Hospitals",
          "operator": "Apollo Hospitals",
          "operator:type": "private",
          "operator:wikidata": "Q4780321"
        }
      },
      {
        "type": "node",
        "id": 12573856473,
        "lat": 18.9231434,
        "lon": 72.8274992,
        "tags": {
          "addr:city": "Mumbai",
          "addr:postcode": "400021",
          "addr:street": "Maharshi Karve Rd, Nariman Point",
          "amenity": "hospital",
          "healthcare": "hospital",
          "name": "Indian Cancer Society"
        }
      },
      {
        "type": "node",
        "id": 12595233301,
        "lat": 18.9236148,
        "lon": 72.8319942,
        "tags": {
          "addr:street": "Shahid Bhagat Singh Road (Colaba Causeway)",
          "amenity": "fast_food",
          "brand": "McDonald's",
          "brand:wikidata": "Q38076",
          "cuisine": "burger",
          "name": "McDonald's",
          "opening_hours": "Mo-Su 09:00-23:45",
          "takeaway": "yes",
          "website": "https://mcdelivery.co.in/"
        }
      },
      {
        "type": "node",
        "id": 12672424001,
        "lat": 18.9239527,
        "lon": 72.832473,
        "tags": {
          "addr:housenumber": "22",
          "addr:postcode": "400001",
          "addr:street": "Mahakavi Bhushan Road (Lansdowne Road)",
          "amenity": "restaurant",
          "cuisine": "asian",
          "name": "\u091c\u093f\u092f\u093e - \u0913\u0930\u093f\u090f\u0928\u094d\u091f\u0932 \u0915\u093f\u091a\u0928",
          "name:en": "Jia the Oriental Kitchen",
          "opening_hours": "Mo-Su 12:00-15:30, 19:00-23:30",
          "phone": "097699 48929",
          "self_service": "no"
        }
      },
      {
        "type": "node",
        "id": 13099965213,
        "lat": 18.9183644,
        "lon": 72.8277234,
        "tags": {
          "amenity": "cafe",
          "name": "Cacao mill"
        }
      }
    ]
  },
  "pois_2_5km": {
    "version": 0.6,
    "generator": "Overpass API 0.7.62.8 e802775f",
    "osm3s": {
      "timestamp_osm_base": "2025-09-06T07:50:45Z",
      "copyright": "The data included in this document is from www.openstreetmap.org. The data is made available under ODbL."
    },
    "elements": [
      {
        "type": "node",
        "id": 316306549,
        "lat": 18.9406037,
        "lon": 72.8350795,
        "tags": {
          "level": "0",
          "name": "Mumbai CSMT (Suburban)",
          "official_name": "Mumbai Chhatrapati Shivaji Maharaj Terminus (Suburban)",
          "public_transport": "stop_position",
          "railway": "stop",
          "ref": "1",
          "source": "Esri World imagery (2024-09-14)",
          "tactile_paving": "yes",
          "train": "yes"
        }
      },
      {
        "type": "node",
        "id": 619293646,
        "lat": 18.9406335,
        "lon": 72.8353869,
        "tags": {
          "level": "0",
          "name": "Mumbai CSMT (Suburban)",
          "official_name": "Mumbai Chhatrapati Shivaji Maharaj Terminus (Suburban)",
          "public_transport": "stop_position",
          "railway": "stop",
          "ref": "4",
          "source": "Esri World imagery (2024-09-14)",
          "tactile_paving": "yes",
          "train": "yes"
        }
      },
      {
        "type": "node",
        "id": 621948374,
        "lat": 18.9343947,
        "lon": 72.8272055,
        "tags": {
          "local_ref": "1",
          "name": "Churchgate",
          "name:hi": "\u091a\u0930\u094d\u091a\u0917\u0947\u091f",
          "public_transport": "stop_position",
          "railway": "stop",
          "ref": "CCG",
          "train": "yes"
        }
      },
      {
        "type": "node",
        "id": 623431009,
        "lat": 18.9111715,
        "lon": 72.826847,
        "tags": {
          "amenity": "ferry_terminal",
          "ferry": "yes",
          "public_transport": "station"
        }
      },
      {
        "type": "node",
        "id": 666064621,
        "lat": 18.9367891,
        "lon": 72.8396991,
        "tags": {
          "amenity": "fuel",
          "brand": "Bharat Petroleum",
          "brand:wikidata": "Q854826",
          "name": "Bharat Petroleum",
          "operator": "Bharat Petroleum",
          "source": "GPS"
        }
      },
      {
        "type": "node",
        "id": 669259757,
        "lat": 18.9245934,
        "lon": 72.8325192,
        "tags": {
          "amenity": "cinema",
          "name": "Regal Cinema"
        }
      },
      {
        "type": "node",
        "id": 870449150,
        "lat": 18.9229191,
        "lon": 72.8345228,
        "tags": {
          "amenity": "ferry_terminal",
          "ferry": "yes",
          "name": "Gateway of India - Mandwa Rewas Ferry Terminal",
          "public_transport": "station"
        }
      },
      {
        "type": "node",
        "id": 870449764,
        "lat": 18.9217835,
        "lon": 72.8347226,
        "tags": {
          "amenity": "ferry_terminal",
          "ferry": "yes",
          "name": "Gateway of India - Elephanta Island ferry service",
          "name:ar": "\u0628\u0648\u0627\u0628\u0629 \u0627\u0644\u0647\u0646\u062f",
          "name:zh": "\u5370\u5ea6\u95e8 - \u8c61\u5c9b\u6e21\u8f6e\u7ad9",
          "public_transport": "station"
        }
      },
      {
        "type": "node",
        "id": 1234805938,
        "lat": 18.9408204,
        "lon": 72.836017,
        "tags": {
          "level": "0",
          "name": "Mumbai CSMT (Suburban)",
          "official_name": "Mumbai Chhatrapati Shivaji Maharaj Terminus (Suburban)",
          "public_transport": "stop_position",
          "railway": "stop",
          "ref": "9",
          "source": "Esri World imagery (2024-09-14)",
          "tactile_paving": "yes",
          "train": "yes"
        }
      },
      {
        "type": "node",
        "id": 1234805948,
        "lat": 18.94081,
        "lon": 72.8359068,
        "tags": {
          "level": "0",
          "name": "Mumbai CSMT (Suburban)",
          "official_name": "Mumbai Chhatrapati Shivaji Maharaj Terminus (Suburban)",
          "public_transport": "stop_position",
          "railway": "stop",
          "ref": "8",
          "source": "Esri World imagery (2024-09-14)",
          "tactile_paving": "yes",
          "train": "yes"
        }
      },
      {
        "type": "node",
        "id": 1234815591,
        "lat": 18.9408811,
        "lon": 72.8362973,
        "tags": {
          "name": "CSMT",
          "public_transport": "stop_position",
          "railway": "stop",
          "ref": "CSTM:11",
          "train": "yes"
        }
      },
      {
        "type": "node",
        "id": 1234815595,
        "lat": 18.9417555,
        "lon": 72.8367595,
        "tags": {
          "name": "CSMT",
          "public_transport": "stop_position",
          "railway": "stop",
          "ref": "CSTM:15",
          "train": "yes"
        }
      },
      {
        "type": "node",
        "id": 1234815598,
        "lat": 18.9408763,
        "lon": 72.8361599,
        "tags": {
          "name": "CSMT",
          "public_transport": "stop_position",
          "railway": "stop",
          "ref": "CSTM:10",
          "train": "yes"
        }
      },
      {
        "type": "node",
        "id": 1234823928,
        "lat": 18.9406221,
        "lon": 72.8352693,
        "tags": {
          "level": "0",
          "name": "Mumbai CSMT (Suburban)",
          "official_name": "Mumbai Chhatrapati Shivaji Maharaj Terminus (Suburban)",
          "public_transport": "stop_position",
          "railway": "stop",
          "ref": "3",
          "source": "Esri World imagery (2024-09-14)",
          "tactile_paving": "yes",
          "train": "yes"
        }
      },
      {
        "type": "node",
        "id": 1236334975,
        "lat": 18.9344455,
        "lon": 72.8275534,
        "tags": {
          "local_ref": "4",
          "name": "Churchgate",
          "name:hi": "\u091a\u0930\u094d\u091a\u0917\u0947\u091f",
          "public_transport": "stop_position",
          "railway": "stop",
          "ref": "CCG",
          "train": "yes"
        }
      },
      {
        "type": "node",
        "id": 1236335031,
        "lat": 18.9344286,
        "lon": 72.8274374,
        "tags": {
          "local_ref": "3",
          "name": "Churchgate",
          "name:hi": "\u091a\u0930\u094d\u091a\u0917\u0947\u091f",
          "public_transport": "stop_position",
          "railway": "stop",
          "ref": "CCG",
          "train": "yes"
        }
      },
      {
        "type": "node",
        "id": 1236335056,
        "lat": 18.9344117,
        "lon": 72.8273215,
        "tags": {
          "local_ref": "2",
          "name": "Churchgate",
          "name:hi": "\u091a\u0930\u094d\u091a\u0917\u0947\u091f",
          "public_transport": "stop_position",
          "railway": "stop",
          "ref": "CCG",
          "train": "yes"
        }
      },
      {
        "type": "node",
        "id": 1236589832,
        "lat": 18.935965,
        "lon": 72.8406767,
        "tags": {
          "amenity": "fuel",
          "cmt": "14-FEB-10 15:55:59",
          "description": "14-FEB-10 15:55:59",
          "ele": "18.150513",
          "name": "Fuel",
          "source": "GPS",
          "sym": "Gas Station"
        }
      },
      {
        "type": "node",
        "id": 1332570741,
        "lat": 18.9322385,
        "lon": 72.8279388,
        "tags": {
          "amenity": "cinema",
          "name": "Eros Cinema"
        }
      },
      {
        "type": "node",
        "id": 1541857832,
        "lat": 18.9267067,
        "lon": 72.8273901,
        "tags": {
          "amenity": "fuel",
          "brand": "Hindustan Petroleum",
          "brand:wikidata": "Q1619375",
          "name": "HP",
          "official_name": "Hindustan Petroleum",
          "operator": "Bharat Petroleum"
        }
      },
      {
        "type": "node",
        "id": 2166796345,
        "lat": 18.9376728,
        "lon": 72.8332185,
        "tags": {
          "addr:postcode": "400001",
          "addr:street": "Amit Keshav Nayak Marg",
          "amenity": "cinema",
          "name": "New Excelsior Cinema",
          "name:de": "New Excelsior Cinema",
          "name:en": "New Excelsior Cinema",
          "phone": "022 2207 3830"
        }
      },
      {
        "type": "node",
        "id": 2166817451,
        "lat": 18.9406445,
        "lon": 72.8355003,
        "tags": {
          "level": "0",
          "name": "Mumbai CSMT (Suburban)",
          "official_name": "Mumbai Chhatrapati Shivaji Maharaj Terminus (Suburban)",
          "public_transport": "stop_position",
          "railway": "stop",
          "ref": "5",
          "source": "Esri World imagery (2024-09-14)",
          "tactile_paving": "yes",
          "train": "yes"
        }
      },
      {
        "type": "node",
        "id": 2166817452,
        "lat": 18.9406128,
        "lon": 72.8351737,
        "tags": {
          "level": "0",
          "name": "Mumbai CSMT (Suburban)",
          "official_name": "Mumbai Chhatrapati Shivaji Maharaj Terminus (Suburban)",
          "public_transport": "stop_position",
          "railway": "stop",
          "ref": "2",
          "source": "Esri World imagery (2024-09-14)",
          "tactile_paving": "yes",
          "train": "yes"
        }
      },
      {
        "type": "node",
        "id": 2166817453,
        "lat": 18.9406523,
        "lon": 72.8355803,
        "tags": {
          "level": "0",
          "name": "Mumbai CSMT (Suburban)",
          "official_name": "Mumbai Chhatrapati Shivaji Maharaj Terminus (Suburban)",
          "public_transport": "stop_position",
          "railway": "stop",
          "ref": "6",
          "source": "Esri World imagery (2024-09-14)",
          "tactile_paving": "yes",
          "train": "yes"
        }
      },
      {
        "type": "node",
        "id": 2166865878,
        "lat": 18.9341053,
        "lon": 72.8324982,
        "tags": {
          "name": "Hutatma Chowk/Siddharth College",
          "public_transport": "station",
          "ref": "01091"
        }
      },
      {
        "type": "node",
        "id": 2166865879,
        "lat": 18.9342003,
        "lon": 72.8325717,
        "tags": {
          "name": "Hutatma Chowk/Siddharth College",
          "public_transport": "station",
          "ref": "01090"
        }
      },
      {
        "type": "node",
        "id": 2175658375,
        "lat": 18.9408662,
        "lon": 72.8364907,
        "tags": {
          "name": "CSMT",
          "public_transport": "stop_position",
          "railway": "stop",
          "ref": "CSTM:13",
          "train": "yes"
        }
      },
      {
        "type": "node",
        "id": 2175658376,
        "lat": 18.9408787,
        "lon": 72.8363407,
        "tags": {
          "name": "CSMT",
          "public_transport": "stop_position",
          "railway": "stop",
          "ref": "CSTM:12",
          "train": "yes"
        }
      },
      {
        "type": "node",
        "id": 2175658385,
        "lat": 18.9417671,
        "lon": 72.8366107,
        "tags": {
          "name": "CSMT",
          "public_transport": "stop_position",
          "railway": "stop",
          "ref": "CSTM:14",
          "train": "yes"
        }
      },
      {
        "type": "node",
        "id": 2177554643,
        "lat": 18.9376489,
        "lon": 72.8343146,
        "tags": {
          "name": "Khadi Bhandar",
          "public_transport": "station",
          "ref": "01114"
        }
      },
      {
        "type": "node",
        "id": 2629682524,
        "lat": 18.9331079,
        "lon": 72.8285954,
        "tags": {
          "amenity": "bus_station",
          "bus": "yes",
          "name": "Churchgate",
          "public_transport": "station"
        }
      },
      {
        "type": "node",
        "id": 3306535083,
        "lat": 18.9243367,
        "lon": 72.8328758,
        "tags": {
          "amenity": "fuel",
          "brand": "Bharat Petroleum",
          "brand:wikidata": "Q854826",
          "compressed_air": "yes",
          "name": "Bharat Petroleum"
        }
      },
      {
        "type": "node",
        "id": 4260136290,
        "lat": 18.9354797,
        "lon": 72.8271741,
        "tags": {
          "IR:zone": "WR:CCG",
          "internet_access": "wlan",
          "name": "Churchgate",
          "name:hi": "\u091a\u0930\u094d\u091a\u0917\u0947\u091f",
          "name:ml": "\u0d1a\u0d7c\u0d1a\u0d4d\u0d1a\u0d4d\u0d17\u0d47\u0d31\u0d4d\u0d31\u0d4d",
          "name:mr": "\u091a\u0930\u094d\u091a\u0917\u0947\u091f",
          "name:zh": "\u6559\u5802\u95e8\u603b\u7ad9",
          "network": "Mumbai Suburban Railway",
          "network:wikidata": "Q3273422",
          "old_ref": "C",
          "operator": "WR",
          "public_transport": "station",
          "railway": "station",
          "ref": "CCG",
          "start_date": "1867-04-12",
          "train": "yes",
          "wikidata": "Q5118143",
          "wikipedia": "en:Churchgate railway station"
        }
      },
      {
        "type": "node",
        "id": 4362556096,
        "lat": 18.9253281,
        "lon": 72.8204171,
        "tags": {
          "amenity": "theatre",
          "name": "Little Theatre"
        }
      },
      {
        "type": "node",
        "id": 4695310999,
        "lat": 18.9384231,
        "lon": 72.8329457,
        "tags": {
          "amenity": "cinema",
          "name:de": "Sterling",
          "name:en": "Sterling Theatre",
          "wikidata": "Q7611381",
          "wikipedia": "en:Sterling Cineplex"
        }
      },
      {
        "type": "node",
        "id": 10257874073,
        "lat": 18.9209635,
        "lon": 72.8305483,
        "tags": {
          "amenity": "bus_station",
          "bus": "yes",
          "name": "Colaba Bus Depot",
          "public_transport": "station"
        }
      },
      {
        "type": "node",
        "id": 11456230010,
        "lat": 18.9378435,
        "lon": 72.8274982,
        "tags": {
          "amenity": "fuel",
          "brand": "Bharat Petroleum",
          "brand:wikidata": "Q854826",
          "name": "Bharat Petroleum"
        }
      },
      {
        "type": "node",
        "id": 12176277888,
        "lat": 18.9404925,
        "lon": 72.8357856,
        "tags": {
          "addr:city": "Mumbai",
          "addr:postcode": "400001",
          "addr:street": "Dr Dadabhai Naoroji Road",
          "internet_access": "wlan",
          "internet_access:ssid": "RailWire Wi-Fi",
          "name": "Mumbai CSMT",
          "name:hi": "\u092e\u0941\u0902\u092c\u0908 \u0938\u0940\u090f\u0938\u090f\u092e\u091f\u0940",
          "name:ur": "\u0645\u0645\u0628\u0626\u06cc \u0633\u06cc \u0627\u06cc\u0633 \u0627\u06cc\u0645 \u0679\u06cc \u0679\u0631\u0645\u06cc\u0646\u0644",
          "network": "CR",
          "operator": "Central Railway",
          "public_transport": "station",
          "railway": "station",
          "ref": "CSMT",
          "train": "yes",
          "wheelchair": "yes",
          "wikidata": "Q235884",
          "wikipedia": "en:Chhatrapati Shivaji Terminus railway station"
        }
      },
      {
        "type": "node",
        "id": 12176277892,
        "lat": 18.9408905,
        "lon": 72.8357077,
        "tags": {
          "level": "0",
          "name": "Mumbai CSMT (Suburban)",
          "official_name": "Mumbai Chhatrapati Shivaji Maharaj Terminus (Suburban)",
          "public_transport": "stop_position",
          "railway": "stop",
          "ref": "7",
          "source": "Esri World imagery (2024-09-14)",
          "tactile_paving": "yes",
          "train": "yes"
        }
      },
      {
        "type": "node",
        "id": 12299107686,
        "lat": 18.926054,
        "lon": 72.8331427,
        "tags": {
          "amenity": "theatre",
          "name": "Childrens Museum Amphitheathre"
        }
      }
    ]
  }
}