{
  "pois_1km": {
    "version": 0.6,
    "generator": "Overpass API 0.7.62.8 e802775f",
    "osm3s": {
      "timestamp_osm_base": "2025-09-06T07:30:11Z",
      "copyright": "The data included in this document is from www.openstreetmap.org. The data is made available under ODbL."
    },
    "elements": [
      {
        "type": "node",
        "id": 1437249360,
        "lat": 19.1071141,
        "lon": 72.8843234,
        "tags": {
          "addr:postcode": "400072",
          "addr:street": "Andheri Kurla Road",
          "amenity": "restaurant",
          "cuisine": "seafood",
          "name": "Mahesh Lunch Home"
        }
      },
      {
        "type": "node",
        "id": 3548939845,
        "lat": 19.1129799,
        "lon": 72.8791787,
        "tags": {
          "addr:city": "mumbai",
          "addr:street": "Marol Village Rd",
          "amenity": "fast_food",
          "cuisine": "regional",
          "name": "shivkrupa",
          "opening_hours": "16hrs"
        }
      },
      {
        "type": "node",
        "id": 4326441991,
        "lat": 19.10144,
        "lon": 72.8879711,
        "tags": {
          "addr:postcode": "400072",
          "addr:street": "90 Feet Road",
          "amenity": "restaurant",
          "cuisine": "chicken;fish;indian",
          "name": "Anil Lunch Home"
        }
      },
      {
        "type": "node",
        "id": 4326830390,
        "lat": 19.1072105,
        "lon": 72.8823702,
        "tags": {
          "amenity": "cafe",
          "brand": "Cafe Coffee Day",
          "brand:wikidata": "Q5017235",
          "cuisine": "coffee_shop",
          "name": "Cafe Coffee Day",
          "takeaway": "yes"
        }
      },
      {
        "type": "node",
        "id": 4326830691,
        "lat": 19.1069599,
        "lon": 72.8823159,
        "tags": {
          "amenity": "fast_food",
          "brand": "Domino's",
          "brand:ks": "\u0688\u0648\u0645\u06cc\u0646\u0648\u0632",
          "brand:pa": "\u0a21\u0a4b\u0a2e\u0a40\u0a28\u0a4b\u0a1c\u0a3c",
          "brand:ur": "\u0688\u0648\u0645\u06cc\u0646\u0648\u0632",
          "brand:wikidata": "Q839466",
          "brand:wikipedia": "en:Domino's Pizza",
          "name": "Domino's",
          "name:ks": "\u0688\u0648\u0645\u06cc\u0646\u0648\u0632",
          "name:pa": "\u0a21\u0a4b\u0a2e\u0a40\u0a28\u0a4b\u0a1c\u0a3c",
          "name:ur": "\u0688\u0648\u0645\u06cc\u0646\u0648\u0632"
        }
      },
      {
        "type": "node",
        "id": 4326867189,
        "lat": 19.1070575,
        "lon": 72.8823087,
        "tags": {
          "amenity": "restaurant",
          "name": "Kanchi Veg"
        }
      },
      {
        "type": "node",
        "id": 4326893991,
        "lat": 19.1039038,
        "lon": 72.8869689,
        "tags": {
          "addr:city": "Mumbai",
          "addr:district": "Mumbai",
          "addr:postcode": "400072",
          "addr:street": "Pipeline Road",
          "amenity": "restaurant",
          "cuisine": "chicken;kebab;indian",
          "delivery": "yes",
          "diet:vegetarian": "yes",
          "level": "1",
          "name": "Deep Punjab Dhaba",
          "opening_hours": "Mo-Su 10:00-21:00",
          "reservation": "yes"
        }
      },
      {
        "type": "node",
        "id": 4326907789,
        "lat": 19.1072479,
        "lon": 72.8818341,
        "tags": {
          "amenity": "bank",
          "brand:wikidata": "Q2004304",
          "brand:wikipedia": "en:Bank of Maharashtra",
          "name": "Bank of Maharashtra",
          "name:en": "Bank of Maharashtra",
          "website": "https://www.bankofmaharashtra.in/"
        }
      },
      {
        "type": "node",
        "id": 4333491591,
        "lat": 19.114089,
        "lon": 72.887468,
        "tags": {
          "amenity": "restaurant",
          "name": "Eva's Pizza"
        }
      },
      {
        "type": "node",
        "id": 4396299596,
        "lat": 19.1060211,
        "lon": 72.8848117,
        "tags": {
          "amenity": "fast_food",
          "name:en": "McDonalds"
        }
      },
      {
        "type": "node",
        "id": 4724820293,
        "lat": 19.1098005,
        "lon": 72.8755362,
        "tags": {
          "addr:postcode": "400059",
          "addr:street": "Mathuradas Vasanji Road (Andheri Kurla Road)",
          "amenity": "restaurant",
          "contact:instagram": "newairportrestaurant",
          "name": "New Airport Restaurant",
          "name:en": "New Airport Restaurant",
          "phone": "+91 22-29255552"
        }
      },
      {
        "type": "node",
        "id": 7048498776,
        "lat": 19.113127,
        "lon": 72.8810625,
        "tags": {
          "addr:district": "Mumbai",
          "addr:full": "No.001, Aztec Appt.,Near Jalaram Store,Behind N.K.Foot Wear,Marol Maroshi Road,Andheri (East)",
          "addr:postcode": "400069",
          "addr:state": "Maharashtra",
          "amenity": "clinic",
          "name": "Dr. M.C.Desai Eye Clinic and Microsurgury Eye Centre",
          "source": "OpenGovernmentData"
        }
      },
      {
        "type": "node",
        "id": 7049454051,
        "lat": 19.1079061,
        "lon": 72.888,
        "tags": {
          "addr:district": "Mumbai",
          "addr:full": "1st Floor, Jalaram Commercial Centre, Next To Hotel Shiv Sagar-Ansa Industrial, Saki Vihar Road, Saki Naka, Andheri East",
          "addr:postcode": "400072",
          "addr:state": "Maharashtra",
          "amenity": "hospital",
          "name": "Balaji Speciality Hospital",
          "source": "OpenGovernmentData"
        }
      },
      {
        "type": "node",
        "id": 7051069997,
        "lat": 19.1064919,
        "lon": 72.8877814,
        "tags": {
          "addr:district": "Mumbai",
          "addr:full": "305/306 Ruby Monarch, 3Road Floor , Opp Post Office, Saki Vihar Road , Saki Naka, Andheri East",
          "addr:postcode": "400072",
          "addr:state": "Maharashtra",
          "amenity": "hospital",
          "name": "Ashirwad Children and Surgical Hospital",
          "source": "OpenGovernmentData"
        }
      },
      {
        "type": "node",
        "id": 7052525501,
        "lat": 19.1012531,
        "lon": 72.8853004,
        "tags": {
          "addr:district": "Mumbai",
          "addr:full": "J.P House, Sakinaka,Andheri Kurla Road,Andheri East",
          "addr:postcode": "400072",
          "addr:state": "Maharashtra",
          "amenity": "hospital",
          "name": "J.P Hospital, Mumbai",
          "source": "OpenGovernmentData"
        }
      },
      {
        "type": "node",
        "id": 7073949883,
        "lat": 19.1038168,
        "lon": 72.886899,
        "tags": {
          "addr:district": "Mumbai",
          "addr:full": "1st & 2nd Floor Laxmi Commarcial Premises Saki Naka Junction Andheri ( E)",
          "addr:postcode": "400059",
          "addr:state": "Maharashtra",
          "amenity": "hospital",
          "name": "Paramount General Hospital and Icu",
          "source": "OpenGovernmentData"
        }
      },
      {
        "type": "node",
        "id": 7073961725,
        "lat": 19.103614,
        "lon": 72.8870398,
        "tags": {
          "addr:district": "Mumbai",
          "addr:full": "Laxmi Commercial Premises, Near Sakinaka Junction, Andheri Kurla Road, Andheri East",
          "addr:postcode": "400072",
          "addr:state": "Maharashtra",
          "amenity": "hospital",
          "email": "clinics2hospitals@gmail.com",
          "name": "Paramount General Hospital and ICCU",
          "operator:type": "private",
          "source": "OpenGovernmentData",
          "website": "https://parakhhospital.com/"
        }
      },
      {
        "type": "node",
        "id": 7225067170,
        "lat": 19.1108771,
        "lon": 72.8781592,
        "tags": {
          "addr:district": "Mumbai",
          "addr:full": "Marol Village Road, Near Miljul Housing Society, Marol",
          "addr:postcode": "400059",
          "addr:state": "Maharashtra",
          "amenity": "hospital",
          "name": "Marol Maternity Home",
          "source": "OpenGovernmentData"
        }
      },
      {
        "type": "node",
        "id": 7663961402,
        "lat": 19.108448,
        "lon": 72.877743,
        "tags": {
          "addr:district": "Mumbai Suburban",
          "addr:full": "Near Petrol Pump, Marol Naka, Andheri Kurla Road, Andheri East, Mumbai",
          "addr:postcode": "400059",
          "addr:state": "Maharastra",
          "amenity": "hospital",
          "name": "Medicare Hospital",
          "source": "Local Knowledge"
        }
      },
      {
        "type": "node",
        "id": 7663961482,
        "lat": 19.1002971,
        "lon": 72.8829976,
        "tags": {
          "addr:district": "Mumbai Suburban",
          "addr:full": "Behind Sakinaka Telephone Exchange, Safed Pul, Saki Naka, Mumbai",
          "addr:postcode": "400072",
          "addr:state": "Maharastra",
          "amenity": "hospital",
          "name": "Central Hospital & Child Care Centre",
          "source": "Local Knowledge"
        }
      },
      {
        "type": "node",
        "id": 8798069854,
        "lat": 19.1053464,
        "lon": 72.887139,
        "tags": {
          "addr:district": "Mumbai",
          "addr:full": "5th Floor, 'A' Wing, Pranik Chamber, Marol, Andheri East, Mumbai",
          "addr:postcode": "400072",
          "addr:state": "Maharashtra",
          "amenity": "hospital",
          "name": "Axon Hospital & Dialysis Center",
          "source": "Local Knowledge"
        }
      },
      {
        "type": "node",
        "id": 9065988146,
        "lat": 19.1110775,
        "lon": 72.8787758,
        "tags": {
          "amenity": "restaurant",
          "cuisine": "indian",
          "name": "Minks Sayaji"
        }
      },
      {
        "type": "node",
        "id": 10214630217,
        "lat": 19.1037431,
        "lon": 72.8861241,
        "tags": {
          "amenity": "restaurant",
          "cuisine": "indian",
          "name:en": "Chakra"
        }
      },
      {
        "type": "node",
        "id": 11210055937,
        "lat": 19.1058374,
        "lon": 72.8880671,
        "tags": {
          "amenity": "cafe",
          "name:en": "Chanda Milk Centre"
        }
      },
      {
        "type": "node",
        "id": 11400932418,
        "lat": 19.1077781,
        "lon": 72.8825395,
        "tags": {
          "amenity": "cafe",
          "brand": "Starbucks",
          "brand:wikidata": "Q37158",
          "cuisine": "coffee_shop",
          "name": "Starbucks",
          "official_name": "Starbucks Coffee",
          "takeaway": "yes"
        }
      },
      {
        "type": "node",
        "id": 11400932419,
        "lat": 19.1078563,
        "lon": 72.8825816,
        "tags": {
          "amenity": "cafe",
          "name": "Hybrid Theory"
        }
      },
      {
        "type": "node",
        "id": 11422979822,
        "lat": 19.1095946,
        "lon": 72.8813845,
        "tags": {
          "amenity": "restaurant",
          "name": "Bombay to Barcelona Cafe"
        }
      },
      {
        "type": "node",
        "id": 11445670131,
        "lat": 19.1037873,
        "lon": 72.8867394,
        "tags": {
          "amenity": "restaurant",
          "name": "KFC"
        }
      },
      {
        "type": "node",
        "id": 11445747451,
        "lat": 19.1047449,
        "lon": 72.8864514,
        "tags": {
          "amenity": "restaurant",
          "name": "Asia Kitchen"
        }
      },
      {
        "type": "node",
        "id": 11445781265,
        "lat": 19.1076776,
        "lon": 72.8833001,
        "tags": {
          "amenity": "restaurant",
          "name": "Chimichurri"
        }
      },
      {
        "type": "node",
        "id": 11445787300,
        "lat": 19.1043253,
        "lon": 72.887046,
        "tags": {
          "amenity": "atm",
          "name": "Kotak Mahindra bank ATM"
        }
      },
      {
        "type": "node",
        "id": 11445789940,
        "lat": 19.1024353,
        "lon": 72.8855741,
        "tags": {
          "amenity": "bank",
          "brand": "Yes Bank",
          "brand:wikidata": "Q2040394",
          "name": "YES Bank"
        }
      },
      {
        "type": "node",
        "id": 11445794599,
        "lat": 19.1025201,
        "lon": 72.8857349,
        "tags": {
          "amenity": "bank",
          "name": "IndusInd Bank"
        }
      },
      {
        "type": "node",
        "id": 11464621028,
        "lat": 19.1076768,
        "lon": 72.8833929,
        "tags": {
          "amenity": "restaurant",
          "check_date": "2023-12-28",
          "cuisine": "indian;chinese",
          "diet:halal": "yes",
          "name": "Persian Darbar",
          "payment:cash": "yes",
          "payment:credit_cards": "yes",
          "payment:debit_cards": "yes"
        }
      },
      {
        "type": "node",
        "id": 11464742832,
        "lat": 19.1024687,
        "lon": 72.8859029,
        "tags": {
          "amenity": "bank",
          "brand": "ICICI Bank",
          "brand:wikidata": "Q1653258",
          "check_date": "2023-12-28",
          "name": "ICICI Bank",
          "short_name": "ICICI"
        }
      },
      {
        "type": "node",
        "id": 11464742833,
        "lat": 19.1027989,
        "lon": 72.8861669,
        "tags": {
          "amenity": "bank",
          "brand": "Axis Bank",
          "brand:wikidata": "Q2003549",
          "check_date": "2023-12-28",
          "name": "Axis Bank"
        }
      },
      {
        "type": "node",
        "id": 11464742834,
        "lat": 19.1028484,
        "lon": 72.8862483,
        "tags": {
          "amenity": "bank",
          "brand": "Bank of India",
          "brand:wikidata": "Q2004439",
          "check_date": "2023-12-28",
          "name": "Bank of India"
        }
      },
      {
        "type": "node",
        "id": 11698434177,
        "lat": 19.103578,
        "lon": 72.88747,
        "tags": {
          "amenity": "fast_food",
          "brand": "Domino's",
          "brand:wikidata": "Q839466",
          "cuisine": "pizza;burger;cake",
          "name": "Domino's Pizza",
          "operator": "Dominos",
          "takeaway": "yes"
        }
      },
      {
        "type": "node",
        "id": 12222194221,
        "lat": 19.1015804,
        "lon": 72.8864507,
        "tags": {
          "leisure": "park",
          "opening_hours": "Mo-Su 09:00-21:00",
          "operator": "FOREST",
          "operator:type": "government"
        }
      },
      {
        "type": "node",
        "id": 12821436601,
        "lat": 19.1076969,
        "lon": 72.8829792,
        "tags": {
          "amenity": "fast_food",
          "brand": "Burger King",
          "brand:wikidata": "Q177054",
          "cuisine": "burger",
          "name": "Burger King",
          "opening_hours": "Mo-Su 07:00-23:00",
          "takeaway": "yes"
        }
      },
      {
        "type": "node",
        "id": 12959313155,
        "lat": 19.1103218,
        "lon": 72.8742611,
        "tags": {
          "amenity": "cafe",
          "brand": "Chaayos",
          "brand:wikidata": "Q117235235",
          "cuisine": "tea",
          "name": "Chaayos",
          "takeaway": "yes"
        }
      },
      {
        "type": "node",
        "id": 12959313156,
        "lat": 19.1103519,
        "lon": 72.8743002,
        "tags": {
          "amenity": "fast_food",
          "cuisine": "burger",
          "drive_through": "no",
          "name": "Good flippin' burgers"
        }
      },
      {
        "type": "node",
        "id": 12959313157,
        "lat": 19.1103863,
        "lon": 72.8743366,
        "tags": {
          "amenity": "cafe",
          "name": "Blue Tokai Coffee Roasters"
        }
      },
      {
        "type": "node",
        "id": 12960843831,
        "lat": 19.1118525,
        "lon": 72.8751802,
        "tags": {
          "brand": "DMart",
          "brand:wikidata": "Q5203271",
          "name": "DMart",
          "shop": "supermarket"
        }
      },
      {
        "type": "node",
        "id": 13090094140,
        "lat": 19.1098173,
        "lon": 72.8754841,
        "tags": {
          "amenity": "restaurant",
          "contact:facebook": "alnizamidarbarrestaurant",
          "email": "contact@alnizamidarbar.com",
          "name": "Al Nizami Darbar",
          "name:en": "Al Nizami Darbar",
          "opening_hours": "Mo-Su 11:00-01:30",
          "phone": "+91 70457 20000;+91 70457 30000",
          "website": "https://alnizamidarbar.com/"
        }
      }
    ]
  },
  "pois_2_5km": {
    "version": 0.6,
    "generator": "Overpass API 0.7.62.8 e802775f",
    "osm3s": {
      "timestamp_osm_base": "2025-09-06T07:30:11Z",
      "copyright": "The data included in this document is from www.openstreetmap.org. The data is made available under ODbL."
    },
    "elements": [
      {
        "type": "node",
        "id": 623883811,
        "lat": 19.1121886,
        "lon": 72.867001,
        "tags": {
          "name": "Chakala - J.B. Nagar",
          "name:mr": "\u091a\u0915\u093e\u0932\u093e - \u091c\u0947. \u092c\u0940. \u0928\u0917\u0930",
          "name:ru": "\u0427\u0430\u043a\u0430\u043b\u0430 (\u0414\u0436\u0430\u043c\u043d\u0430\u043b\u0430\u043b \u0411\u0430\u0434\u0436\u0430\u0434\u0436 \u041d\u0430\u0433\u0430\u0440)",
          "network": "Mumbai Metro",
          "operator": "MMRDA",
          "public_transport": "stop_position",
          "railway": "stop",
          "subway": "yes"
        }
      },
      {
        "type": "node",
        "id": 623884121,
        "lat": 19.1038458,
        "lon": 72.8874199,
        "tags": {
          "name": "Saki Naka",
          "name:mr": "\u0938\u093e\u0915\u0940 \u0928\u093e\u0915\u093e",
          "name:ru": "\u0421\u0430\u043a\u0438 \u041d\u0430\u043a\u0430",
          "network": "Mumbai Metro",
          "operator": "MMRDA",
          "public_transport": "stop_position",
          "railway": "stop",
          "subway": "yes"
        }
      },
      {
        "type": "node",
        "id": 1241793068,
        "lat": 19.09544,
        "lon": 72.8660044,
        "tags": {
          "aeroway": "terminal",
          "ele": "15.747192",
          "name": "Cargo Terminal",
          "source": "GPS",
          "sym": "Civil"
        }
      },
      {
        "type": "node",
        "id": 1345350832,
        "lat": 19.1147257,
        "lon": 72.8596325,
        "tags": {
          "addr:city": "Mumbai",
          "addr:street": "Mathuradas Vasanji Road",
          "amenity": "fuel",
          "brand": "Hindustan Petroleum",
          "brand:wikidata": "Q1619375",
          "brand:wikipedia": "en:Hindustan Petroleum",
          "name": "HP",
          "official_name": "Hindustan Petroleum"
        }
      },
      {
        "type": "node",
        "id": 1348867392,
        "lat": 19.1179082,
        "lon": 72.8657206,
        "tags": {
          "amenity": "bus_station",
          "bus": "yes",
          "name": "Marol Depot",
          "public_transport": "station"
        }
      },
      {
        "type": "node",
        "id": 1648195662,
        "lat": 19.0975373,
        "lon": 72.8652877,
        "tags": {
          "amenity": "bus_station",
          "bus": "yes",
          "name": "Sahar Cargo Complex",
          "public_transport": "station"
        }
      },
      {
        "type": "node",
        "id": 2188851345,
        "lat": 19.1121647,
        "lon": 72.8647228,
        "tags": {
          "amenity": "cinema",
          "name": "Sangam Big Cinema"
        }
      },
      {
        "type": "node",
        "id": 2913182920,
        "lat": 19.0967391,
        "lon": 72.894326,
        "tags": {
          "name": "Asalpha",
          "name:mr": "\u0905\u0938\u0932\u094d\u092b\u093e",
          "name:ru": "\u0410\u0441\u0430\u043b\u044c\u0444\u0430",
          "network": "Mumbai Metro",
          "operator": "MMRDA",
          "public_transport": "stop_position",
          "railway": "stop",
          "subway": "yes"
        }
      },
      {
        "type": "node",
        "id": 3175794769,
        "lat": 19.1099146,
        "lon": 72.8747968,
        "tags": {
          "name": "Airport Road",
          "name:mr": "\u0935\u093f\u092e\u093e\u0928\u0924\u0933 \u0930\u0938\u094d\u0924\u093e",
          "name:ru": "\u042d\u0439\u0440\u043f\u043e\u0440\u0442-\u0420\u043e\u0443\u0434",
          "network": "Mumbai Metro",
          "operator": "MMRDA",
          "public_transport": "stop_position",
          "railway": "stop",
          "subway": "yes"
        }
      },
      {
        "type": "node",
        "id": 3175794770,
        "lat": 19.1103264,
        "lon": 72.8735321,
        "tags": {
          "name": "Airport Road",
          "name:mr": "\u0935\u093f\u092e\u093e\u0928\u0924\u0933 \u0930\u0938\u094d\u0924\u093e",
          "name:ru": "\u042d\u0439\u0440\u043f\u043e\u0440\u0442-\u0420\u043e\u0443\u0434",
          "network": "Mumbai Metro",
          "operator": "MMRDA",
          "public_transport": "stop_position",
          "railway": "stop",
          "subway": "yes"
        }
      },
      {
        "type": "node",
        "id": 3175794775,
        "lat": 19.1079463,
        "lon": 72.8801094,
        "tags": {
          "name": "Marol Naka (Line 1)",
          "name:mr": "\u092e\u0930\u094b\u0933 \u0928\u093e\u0915\u093e",
          "name:ru": "\u041c\u0430\u0440\u043e\u043b \u041d\u0430\u043a\u0430",
          "network": "Mumbai Metro",
          "operator": "MMRDA",
          "public_transport": "stop_position",
          "railway": "stop",
          "subway": "yes"
        }
      },
      {
        "type": "node",
        "id": 3175794776,
        "lat": 19.1083663,
        "lon": 72.8788727,
        "tags": {
          "name": "Marol Naka (Line 1)",
          "name:mr": "\u092e\u0930\u094b\u0933 \u0928\u093e\u0915\u093e",
          "name:ru": "\u041c\u0430\u0440\u043e\u043b \u041d\u0430\u043a\u0430",
          "network": "Mumbai Metro",
          "operator": "MMRDA",
          "public_transport": "stop_position",
          "railway": "stop",
          "subway": "yes"
        }
      },
      {
        "type": "node",
        "id": 3389210700,
        "lat": 19.1119069,
        "lon": 72.8682423,
        "tags": {
          "name": "Chakala - J.B. Nagar",
          "name:mr": "\u091a\u0915\u093e\u0932\u093e - \u091c\u0947. \u092c\u0940. \u0928\u0917\u0930",
          "name:ru": "\u0427\u0430\u043a\u0430\u043b\u0430 (\u0414\u0436\u0430\u043c\u043d\u0430\u043b\u0430\u043b \u0411\u0430\u0434\u0436\u0430\u0434\u0436 \u041d\u0430\u0433\u0430\u0440)",
          "network": "Mumbai Metro",
          "operator": "MMRDA",
          "public_transport": "stop_position",
          "railway": "stop",
          "subway": "yes"
        }
      },
      {
        "type": "node",
        "id": 3389210701,
        "lat": 19.1032172,
        "lon": 72.8885094,
        "tags": {
          "name": "Saki Naka",
          "name:mr": "\u0938\u093e\u0915\u0940 \u0928\u093e\u0915\u093e",
          "name:ru": "\u0421\u0430\u043a\u0438 \u041d\u0430\u043a\u0430",
          "network": "Mumbai Metro",
          "operator": "MMRDA",
          "public_transport": "stop_position",
          "railway": "stop",
          "subway": "yes"
        }
      },
      {
        "type": "node",
        "id": 3389249957,
        "lat": 19.0960972,
        "lon": 72.895413,
        "tags": {
          "name": "Asalpha",
          "name:mr": "\u0905\u0938\u0932\u094d\u092b\u093e",
          "name:ru": "\u0410\u0441\u0430\u043b\u044c\u0444\u0430",
          "network": "Mumbai Metro",
          "operator": "MMRDA",
          "public_transport": "stop_position",
          "railway": "stop",
          "subway": "yes"
        }
      },
      {
        "type": "node",
        "id": 3518529216,
        "lat": 19.0935612,
        "lon": 72.8837601,
        "tags": {
          "addr:city": "Mumabi",
          "addr:housenumber": "Jari Mari",
          "addr:postcode": "400072",
          "addr:street": "90 Feet Road",
          "amenity": "theatre",
          "name": "Maxus Multiplex"
        }
      },
      {
        "type": "node",
        "id": 4339870699,
        "lat": 19.105142,
        "lon": 72.8876135,
        "tags": {
          "amenity": "fuel",
          "brand": "Hindustan Petroleum",
          "brand:wikidata": "Q1619375",
          "name": "HP",
          "official_name": "Hindustan Petroleum"
        }
      },
      {
        "type": "node",
        "id": 4349254491,
        "lat": 19.1083512,
        "lon": 72.8782543,
        "tags": {
          "amenity": "fuel",
          "brand": "Hindustan Petroleum",
          "brand:wikidata": "Q1619375",
          "name": "HP",
          "official_name": "Hindustan Petroleum"
        }
      },
      {
        "type": "node",
        "id": 5219518806,
        "lat": 19.1293634,
        "lon": 72.8826453,
        "tags": {
          "construction": "stop",
          "name": "SEEPZ Station",
          "public_transport": "stop_position",
          "railway": "construction",
          "subway": "yes"
        }
      },
      {
        "type": "node",
        "id": 5219518819,
        "lat": 19.1262047,
        "lon": 72.8905142,
        "tags": {
          "construction": "stop",
          "name": "Saki Vihar Road Station",
          "public_transport": "stop_position",
          "railway": "construction",
          "subway": "yes"
        }
      },
      {
        "type": "node",
        "id": 5221297132,
        "lat": 19.1023335,
        "lon": 72.8744692,
        "tags": {
          "name": "CSMI Airport International T2",
          "name:mr": "\u091b.\u0936\u093f.\u092e.\u0906\u0902.\u0935\u093f. \u091f-\u0968",
          "network": "Mumbai Metro",
          "operator": "Mumbai Metro Rail Corporation Ltd",
          "public_transport": "station",
          "railway": "station",
          "start_date": "2024-10-05",
          "station": "subway",
          "subway": "yes"
        }
      },
      {
        "type": "node",
        "id": 5787704195,
        "lat": 19.1259985,
        "lon": 72.8737266,
        "tags": {
          "name": "SEEPZ",
          "name:mr": "\u0938\u0940\u092a\u094d\u091d",
          "network": "Mumbai Metro",
          "operator": "Mumbai Metro Rail Corporation Ltd",
          "public_transport": "station",
          "railway": "station",
          "start_date": "2024-10-05",
          "station": "subway",
          "subway": "yes"
        }
      },
      {
        "type": "node",
        "id": 5787704196,
        "lat": 19.1173537,
        "lon": 72.8735966,
        "tags": {
          "name": "MIDC - Andheri",
          "name:mr": "\u090f\u092e.\u0906\u092f.\u0921\u0940.\u0938\u0940. - \u0905\u0902\u0927\u0947\u0930\u0940",
          "network": "Mumbai Metro",
          "operator": "Mumbai Metro Rail Corporation Ltd",
          "public_transport": "station",
          "railway": "station",
          "start_date": "2024-10-05",
          "station": "subway",
          "subway": "yes"
        }
      },
      {
        "type": "node",
        "id": 5787704197,
        "lat": 19.1085041,
        "lon": 72.878578,
        "tags": {
          "name": "Marol Naka L3",
          "name:mr": "\u092e\u0930\u094b\u0933 \u0928\u093e\u0915\u093e",
          "network": "Mumbai Metro",
          "operator": "Mumbai Metro Rail Corporation Ltd",
          "public_transport": "station",
          "railway": "station",
          "start_date": "2024-10-05",
          "station": "subway",
          "subway": "yes"
        }
      },
      {
        "type": "node",
        "id": 9132708011,
        "lat": 19.1215921,
        "lon": 72.8989663,
        "tags": {
          "construction": "stop",
          "name": "Powai Udyan Station",
          "public_transport": "stop_position",
          "railway": "construction",
          "subway": "yes"
        }
      },
      {
        "type": "node",
        "id": 10102658120,
        "lat": 19.1063277,
        "lon": 72.8631392,
        "tags": {
          "addr:street": "Om Nagar Road",
          "aeroway": "terminal",
          "name": "transline air cargo servics pvt ltd unit no 17",
          "name:en": "transline air cargo services pvt ltd unit no 17"
        }
      },
      {
        "type": "node",
        "id": 10767848891,
        "lat": 19.1049951,
        "lon": 72.8863622,
        "tags": {
          "amenity": "fuel",
          "brand": "Indian Oil",
          "brand:wikidata": "Q1289348",
          "name": "Indian Oil"
        }
      },
      {
        "type": "node",
        "id": 11445747452,
        "lat": 19.0961043,
        "lon": 72.8837812,
        "tags": {
          "amenity": "fuel",
          "brand": "Hindustan Petroleum",
          "brand:wikidata": "Q1619375",
          "name": "HP",
          "official_name": "Hindustan Petroleum"
        }
      },
      {
        "type": "node",
        "id": 11445797934,
        "lat": 19.1044002,
        "lon": 72.8863288,
        "tags": {
          "amenity": "fuel",
          "brand": "Hindustan Petroleum",
          "brand:wikidata": "Q1619375",
          "name": "HP",
          "official_name": "Hindustan Petroleum"
        }
      },
      {
        "type": "node",
        "id": 11451538384,
        "lat": 19.0961553,
        "lon": 72.8838153,
        "tags": {
          "amenity": "fuel",
          "name": "HP"
        }
      },
      {
        "type": "node",
        "id": 11698425211,
        "lat": 19.1125194,
        "lon": 72.8648858,
        "tags": {
          "amenity": "theatre",
          "name": "Carnival Cinemas"
        }
      },
      {
        "type": "node",
        "id": 12070988878,
        "lat": 19.1079313,
        "lon": 72.8809709,
        "tags": {
          "amenity": "fuel",
          "brand": "Bharat Petroleum",
          "brand:wikidata": "Q854826",
          "name": "Bharat Petroleum"
        }
      },
      {
        "type": "node",
        "id": 12074903229,
        "lat": 19.1022615,
        "lon": 72.8656166,
        "tags": {
          "name": "Sahar Road",
          "name:mr": "\u0938\u0939\u093e\u0930 \u0930\u094b\u0921",
          "network": "Mumbai Metro",
          "operator": "Mumbai Metro Rail Corporation Ltd",
          "public_transport": "stop_position",
          "railway": "stop",
          "subway": "yes"
        }
      },
      {
        "type": "node",
        "id": 12074903230,
        "lat": 19.1020562,
        "lon": 72.8647115,
        "tags": {
          "name": "Sahar Road",
          "name:mr": "\u0938\u0939\u093e\u0930 \u0930\u094b\u0921",
          "network": "Mumbai Metro",
          "operator": "Mumbai Metro Rail Corporation Ltd",
          "public_transport": "stop_position",
          "railway": "stop",
          "subway": "yes"
        }
      },
      {
        "type": "node",
        "id": 12074903231,
        "lat": 19.1024452,
        "lon": 72.8752595,
        "tags": {
          "name": "CSMIA International T2",
          "name:mr": "\u091b.\u0936\u093f.\u092e.\u0906\u0902.\u0935\u093f. \u091f-\u0968",
          "network": "Mumbai Metro",
          "operator": "Mumbai Metro Rail Corporation Ltd",
          "public_transport": "stop_position",
          "railway": "stop",
          "subway": "yes"
        }
      },
      {
        "type": "node",
        "id": 12074903232,
        "lat": 19.1021572,
        "lon": 72.8736657,
        "tags": {
          "name": "CSMIA International T2",
          "name:mr": "\u091b.\u0936\u093f.\u092e.\u0906\u0902.\u0935\u093f. \u091f-\u0968",
          "network": "Mumbai Metro",
          "operator": "Mumbai Metro Rail Corporation Ltd",
          "public_transport": "stop_position",
          "railway": "stop",
          "subway": "yes"
        }
      },
      {
        "type": "node",
        "id": 12074903233,
        "lat": 19.1082762,
        "lon": 72.8786939,
        "tags": {
          "name": "Marol Naka (Line 3)",
          "name:mr": "\u092e\u0930\u094b\u0933 \u0928\u093e\u0915\u093e",
          "network": "Mumbai Metro",
          "operator": "Mumbai Metro Rail Corporation Ltd",
          "public_transport": "stop_position",
          "railway": "stop",
          "subway": "yes"
        }
      },
      {
        "type": "node",
        "id": 12074903234,
        "lat": 19.1092629,
        "lon": 72.8784321,
        "tags": {
          "name": "Marol Naka (Line 3)",
          "name:mr": "\u092e\u0930\u094b\u0933 \u0928\u093e\u0915\u093e",
          "network": "Mumbai Metro",
          "operator": "Mumbai Metro Rail Corporation Ltd",
          "public_transport": "stop_position",
          "railway": "stop",
          "subway": "yes"
        }
      },
      {
        "type": "node",
        "id": 12074903235,
        "lat": 19.1174293,
        "lon": 72.873089,
        "tags": {
          "name": "MIDC - Andheri",
          "name:mr": "\u090f\u092e.\u0906\u092f.\u0921\u0940.\u0938\u0940. - \u0905\u0902\u0927\u0947\u0930\u0940",
          "network": "Mumbai Metro",
          "operator": "Mumbai Metro Rail Corporation Ltd",
          "public_transport": "stop_position",
          "railway": "stop",
          "subway": "yes"
        }
      },
      {
        "type": "node",
        "id": 12074903236,
        "lat": 19.1172867,
        "lon": 72.8742053,
        "tags": {
          "name": "MIDC - Andheri",
          "name:mr": "\u090f\u092e.\u0906\u092f.\u0921\u0940.\u0938\u0940. - \u0905\u0902\u0927\u0947\u0930\u0940",
          "network": "Mumbai Metro",
          "operator": "Mumbai Metro Rail Corporation Ltd",
          "public_transport": "stop_position",
          "railway": "stop",
          "subway": "yes"
        }
      },
      {
        "type": "node",
        "id": 12074903237,
        "lat": 19.1262254,
        "lon": 72.8737791,
        "tags": {
          "name": "SEEPZ",
          "name:mr": "\u0938\u0940\u092a\u094d\u091d",
          "network": "Mumbai Metro",
          "operator": "Mumbai Metro Rail Corporation Ltd",
          "public_transport": "stop_position",
          "railway": "stop",
          "subway": "yes"
        }
      },
      {
        "type": "node",
        "id": 12074903238,
        "lat": 19.1252898,
        "lon": 72.8732698,
        "tags": {
          "name": "SEEPZ",
          "name:mr": "\u0938\u0940\u092a\u094d\u091d",
          "network": "Mumbai Metro",
          "operator": "Mumbai Metro Rail Corporation Ltd",
          "public_transport": "stop_position",
          "railway": "stop",
          "subway": "yes"
        }
      },
      {
        "type": "node",
        "id": 12074909132,
        "lat": 19.102196,
        "lon": 72.8652361,
        "tags": {
          "name": "Sahar Road",
          "name:mr": "\u0938\u0939\u093e\u0930 \u0930\u094b\u0921",
          "network": "Mumbai Metro",
          "operator": "Mumbai Metro Rail Corporation Ltd",
          "public_transport": "station",
          "railway": "station",
          "start_date": "2024-10-05",
          "station": "subway",
          "subway": "yes"
        }
      },
      {
        "type": "node",
        "id": 12219587493,
        "lat": 19.129412,
        "lon": 72.8826469,
        "tags": {
          "construction": "stop",
          "name": "SEEPZ Station",
          "public_transport": "stop_position",
          "railway": "construction",
          "subway": "yes"
        }
      },
      {
        "type": "node",
        "id": 12219587511,
        "lat": 19.1262483,
        "lon": 72.8905372,
        "tags": {
          "construction": "stop",
          "name": "Saki Vihar Road Station",
          "public_transport": "stop_position",
          "railway": "construction",
          "subway": "yes"
        }
      },
      {
        "type": "node",
        "id": 12219587528,
        "lat": 19.1216096,
        "lon": 72.8990144,
        "tags": {
          "construction": "stop",
          "name": "Powai Udyan Station",
          "public_transport": "stop_position",
          "railway": "construction",
          "subway": "yes"
        }
      }
    ]
  }
}