{
  "pois_1km": {
    "version": 0.6,
    "generator": "Overpass API 0.7.62.8 e802775f",
    "osm3s": {
      "timestamp_osm_base": "2025-09-06T09:15:01Z",
      "copyright": "The data included in this document is from www.openstreetmap.org. The data is made available under ODbL."
    },
    "elements": [
      {
        "type": "node",
        "id": 6936369001,
        "lat": 13.1217887,
        "lon": 80.1996361,
        "tags": {
          "addr:district": "Tiruvallur",
          "addr:full": "No: 9, 100 Feet Road, Nehru National Highway, Kolathur",
          "addr:postcode": "600099",
          "addr:state": "Tamil Nadu",
          "amenity": "hospital",
          "check_date": "2024-09-28",
          "name": "D R J Hospital P. Ltd.",
          "source": "OpenGovernmentData"
        }
      },
      {
        "type": "node",
        "id": 6936994823,
        "lat": 13.1184203,
        "lon": 80.204346,
        "tags": {
          "addr:district": "Tiruvallur",
          "addr:full": "No.52, Dayalunagar, Kolathur, Near Villirakham Railway Station",
          "addr:postcode": "600049",
          "addr:state": "Tamil Nadu",
          "amenity": "hospital",
          "name": "B B Hospital",
          "source": "OpenGovernmentData"
        }
      },
      {
        "type": "node",
        "id": 9980280797,
        "lat": 13.1242262,
        "lon": 80.2014693,
        "tags": {
          "amenity": "fast_food",
          "name": "Madhavan mess"
        }
      },
      {
        "type": "node",
        "id": 9980280802,
        "lat": 13.1256796,
        "lon": 80.2016216,
        "tags": {
          "amenity": "fast_food",
          "cuisine": "juice",
          "name": "Juice shop"
        }
      },
      {
        "type": "node",
        "id": 9980280803,
        "lat": 13.1255155,
        "lon": 80.2014918,
        "tags": {
          "name": "Venkateshwara fruit shop",
          "shop": "supermarket"
        }
      },
      {
        "type": "node",
        "id": 9980280804,
        "lat": 13.1266701,
        "lon": 80.2014392,
        "tags": {
          "amenity": "hospital",
          "healthcare": "hospital",
          "name": "Shreyas hospital"
        }
      },
      {
        "type": "node",
        "id": 9980280808,
        "lat": 13.1279965,
        "lon": 80.2015444,
        "tags": {
          "amenity": "pharmacy",
          "brand": "MedPlus",
          "brand:wikidata": "Q65684234",
          "dispensing": "yes",
          "healthcare": "pharmacy",
          "name": "MedPlus"
        }
      },
      {
        "type": "node",
        "id": 9980280810,
        "lat": 13.1277928,
        "lon": 80.2014843,
        "tags": {
          "amenity": "fast_food"
        }
      },
      {
        "type": "node",
        "id": 10013621143,
        "lat": 13.126522,
        "lon": 80.2017441,
        "tags": {
          "name": "Reliance super market",
          "shop": "supermarket"
        }
      },
      {
        "type": "node",
        "id": 10013621150,
        "lat": 13.1248648,
        "lon": 80.201448,
        "tags": {
          "amenity": "fast_food",
          "cuisine": "juice",
          "name": "Muhil soup"
        }
      },
      {
        "type": "node",
        "id": 10013621152,
        "lat": 13.1251825,
        "lon": 80.2016261,
        "tags": {
          "amenity": "atm",
          "brand": "Indian Bank",
          "brand:wikidata": "Q2003789",
          "name": "Indian Bank",
          "operator": "Indian Bank",
          "operator:wikidata": "Q2003789"
        }
      },
      {
        "type": "node",
        "id": 10013621154,
        "lat": 13.1236664,
        "lon": 80.2014737,
        "tags": {
          "amenity": "fast_food",
          "name": "kebab kings"
        }
      },
      {
        "type": "node",
        "id": 10013621155,
        "lat": 13.123587,
        "lon": 80.2015059,
        "tags": {
          "amenity": "atm",
          "brand": "Axis Bank",
          "brand:wikidata": "Q2003549",
          "name": "Axis Bank",
          "operator": "Axis Bank",
          "operator:wikidata": "Q2003549"
        }
      },
      {
        "type": "node",
        "id": 10013621156,
        "lat": 13.1236413,
        "lon": 80.2015038,
        "tags": {
          "amenity": "cafe",
          "name": "mordern cofee"
        }
      },
      {
        "type": "node",
        "id": 10013621158,
        "lat": 13.1237155,
        "lon": 80.2014673,
        "tags": {
          "amenity": "bank",
          "brand": "Indian Overseas Bank",
          "brand:wikidata": "Q2003611",
          "name": "Indian Overseas Bank"
        }
      },
      {
        "type": "node",
        "id": 10013621159,
        "lat": 13.1237761,
        "lon": 80.2015027,
        "tags": {
          "amenity": "atm",
          "brand": "Indian Overseas Bank",
          "brand:wikidata": "Q2003611",
          "name": "Indian Overseas Bank",
          "operator": "Indian Overseas Bank",
          "operator:wikidata": "Q2003611"
        }
      },
      {
        "type": "node",
        "id": 10013621161,
        "lat": 13.124311,
        "lon": 80.201478,
        "tags": {
          "amenity": "cafe",
          "name": "MM Cafe"
        }
      },
      {
        "type": "node",
        "id": 10013621163,
        "lat": 13.1245764,
        "lon": 80.201478,
        "tags": {
          "amenity": "clinic",
          "healthcare": "clinic",
          "name": "Trident medicare center"
        }
      },
      {
        "type": "node",
        "id": 11901008265,
        "lat": 13.1240104,
        "lon": 80.2014829,
        "tags": {
          "amenity": "restaurant",
          "name": "Sree balajee bhavan"
        }
      },
      {
        "type": "node",
        "id": 11901093570,
        "lat": 13.1253792,
        "lon": 80.2014453,
        "tags": {
          "addr:city": "chennai",
          "addr:district": "chennai",
          "addr:housenumber": "12",
          "addr:postcode": "600099",
          "addr:street": "Murugan koil street",
          "amenity": "fast_food",
          "cuisine": "juice;ice_cream;cutlet;regional;falooda",
          "drive_through": "no",
          "internet_access": "no",
          "name": "Island juice",
          "opening_hours": "Mo-Su 10:00-22:00",
          "smoking": "no"
        }
      },
      {
        "type": "node",
        "id": 11901093588,
        "lat": 13.1286953,
        "lon": 80.2017243,
        "tags": {
          "name": "grace supermarket",
          "shop": "supermarket"
        }
      },
      {
        "type": "node",
        "id": 11908769902,
        "lat": 13.1245244,
        "lon": 80.2016609,
        "tags": {
          "amenity": "bank",
          "brand": "Axis Bank",
          "brand:wikidata": "Q2003549",
          "name": "Axis Bank"
        }
      },
      {
        "type": "node",
        "id": 11925158541,
        "lat": 13.1240614,
        "lon": 80.2014807,
        "tags": {
          "amenity": "fast_food",
          "name": "Aariya bhavan"
        }
      },
      {
        "type": "node",
        "id": 11930811760,
        "lat": 13.1282085,
        "lon": 80.2016759,
        "tags": {
          "amenity": "fast_food",
          "name": "Ganga sweets"
        }
      },
      {
        "type": "node",
        "id": 11930811764,
        "lat": 13.1295276,
        "lon": 80.2017644,
        "tags": {
          "name": "Sivaram stores",
          "shop": "supermarket"
        }
      }
    ]
  },
  "pois_2_5km": {
    "version": 0.6,
    "generator": "Overpass API 0.7.62.8 e802775f",
    "osm3s": {
      "timestamp_osm_base": "2025-09-06T09:15:01Z",
      "copyright": "The data included in this document is from www.openstreetmap.org. The data is made available under ODbL."
    },
    "elements": [
      {
        "type": "node",
        "id": 290656624,
        "lat": 13.1054562,
        "lon": 80.2079273,
        "tags": {
          "bus": "yes",
          "name": "Villivakkam MTC Bus Terminus",
          "public_transport": "stop_position"
        }
      },
      {
        "type": "node",
        "id": 675894194,
        "lat": 13.1398634,
        "lon": 80.2056795,
        "tags": {
          "amenity": "bus_station",
          "bus": "yes",
          "internet_access": "no",
          "name": "Vinayakapuram",
          "operator": "MTC",
          "public_transport": "station"
        }
      },
      {
        "type": "node",
        "id": 4426163289,
        "lat": 13.1249043,
        "lon": 80.2176087,
        "tags": {
          "amenity": "cinema",
          "name:en": "Sri Ganga Cinemas"
        }
      },
      {
        "type": "node",
        "id": 4646203389,
        "lat": 13.1237034,
        "lon": 80.2215577,
        "tags": {
          "amenity": "fuel"
        }
      },
      {
        "type": "node",
        "id": 5274761659,
        "lat": 13.1131424,
        "lon": 80.1841521,
        "tags": {
          "internet_access": "no",
          "name": "Korattur",
          "name:ml": "\u0d15\u0d4a\u0d30\u0d1f\u0d4d\u0d1f\u0d42\u0d7c",
          "name:ta": "\u0b95\u0bca\u0bb0\u0b9f\u0bcd\u0b9f\u0bc2\u0bb0\u0bcd",
          "network": "IR",
          "operator": "SR",
          "railway": "station",
          "ref": "KOTR",
          "wikidata": "Q6431441",
          "wikipedia": "en:Korattur railway station"
        }
      },
      {
        "type": "node",
        "id": 10013621149,
        "lat": 13.1236244,
        "lon": 80.2016478,
        "tags": {
          "amenity": "fuel",
          "brand": "Indian Oil",
          "brand:wikidata": "Q1289348",
          "name": "Indian Oil"
        }
      },
      {
        "type": "node",
        "id": 10611618805,
        "lat": 13.1349361,
        "lon": 80.2155593,
        "tags": {
          "amenity": "fuel",
          "name": "Shell Retteri RTO"
        }
      },
      {
        "type": "node",
        "id": 11782112649,
        "lat": 13.1276031,
        "lon": 80.2175373,
        "tags": {
          "amenity": "fuel",
          "brand": "Hindustan Petroleum",
          "brand:wikidata": "Q1619375",
          "name": "HP",
          "official_name": "Hindustan Petroleum"
        }
      },
      {
        "type": "node",
        "id": 11832552853,
        "lat": 13.1340559,
        "lon": 80.1872518,
        "tags": {
          "amenity": "fuel",
          "brand": "Bharat Petroleum",
          "brand:wikidata": "Q854826",
          "name": "Bharat Petroleum"
        }
      },
      {
        "type": "node",
        "id": 11959766020,
        "lat": 13.1299945,
        "lon": 80.202191,
        "tags": {
          "amenity": "bus_station",
          "bus": "yes",
          "name": "Teachers Colony",
          "public_transport": "station"
        }
      },
      {
        "type": "node",
        "id": 12581525290,
        "lat": 13.1250522,
        "lon": 80.2045223,
        "tags": {
          "amenity": "fuel",
          "brand": "Indian Oil",
          "brand:wikidata": "Q1289348",
          "check_date": "2025-02-12",
          "name": "Indian Oil"
        }
      }
    ]
  }
}