{
  "pois_1km": {
    "version": 0.6,
    "generator": "Overpass API 0.7.62.8 e802775f",
    "osm3s": {
      "timestamp_osm_base": "2025-09-06T09:23:13Z",
      "copyright": "The data included in this document is from www.openstreetmap.org. The data is made available under ODbL."
    },
    "elements": [
      {
        "type": "node",
        "id": 2124734395,
        "lat": 12.9321684,
        "lon": 80.2337388,
        "tags": {
          "amenity": "hospital",
          "name": "Fourtts India Laboratories"
        }
      },
      {
        "type": "node",
        "id": 2124737402,
        "lat": 12.9278815,
        "lon": 80.2317327,
        "tags": {
          "amenity": "fast_food",
          "brand": "Domino's",
          "brand:ks": "\u0688\u0648\u0645\u06cc\u0646\u0648\u0632",
          "brand:pa": "\u0a21\u0a4b\u0a2e\u0a40\u0a28\u0a4b\u0a1c\u0a3c",
          "brand:ur": "\u0688\u0648\u0645\u06cc\u0646\u0648\u0632",
          "brand:wikidata": "Q839466",
          "brand:wikipedia": "en:Domino's Pizza",
          "cuisine": "pizza",
          "name": "Domino's",
          "name:ks": "\u0688\u0648\u0645\u06cc\u0646\u0648\u0632",
          "name:pa": "\u0a21\u0a4b\u0a2e\u0a40\u0a28\u0a4b\u0a1c\u0a3c",
          "name:ur": "\u0688\u0648\u0645\u06cc\u0646\u0648\u0632",
          "takeaway": "yes"
        }
      },
      {
        "type": "node",
        "id": 2124744016,
        "lat": 12.9274004,
        "lon": 80.2317217,
        "tags": {
          "amenity": "restaurant",
          "name": "CUC Restaurant"
        }
      },
      {
        "type": "node",
        "id": 3568386700,
        "lat": 12.9297291,
        "lon": 80.2316514,
        "tags": {
          "addr:street": "Rajiv Gandhi Salai",
          "amenity": "restaurant",
          "capacity": "50",
          "name": "Ganambal Idly Shop",
          "smoking": "no"
        }
      },
      {
        "type": "node",
        "id": 3568398403,
        "lat": 12.927839,
        "lon": 80.2317171,
        "tags": {
          "amenity": "cafe",
          "name": "Coffee Day"
        }
      },
      {
        "type": "node",
        "id": 3568403893,
        "lat": 12.9308257,
        "lon": 80.2323729,
        "tags": {
          "amenity": "restaurant",
          "name": "Ganambal Idly Shop"
        }
      },
      {
        "type": "node",
        "id": 3568406900,
        "lat": 12.9341104,
        "lon": 80.2327042,
        "tags": {
          "amenity": "atm",
          "brand": "Axis Bank",
          "brand:wikidata": "Q2003549",
          "name": "Axis Bank",
          "operator": "Axis Bank",
          "operator:wikidata": "Q2003549"
        }
      },
      {
        "type": "node",
        "id": 5672728830,
        "lat": 12.9341202,
        "lon": 80.2332305,
        "tags": {
          "addr:street": "OMR",
          "amenity": "restaurant",
          "name": "Amma Unavagam",
          "opening_hours": "Mo-Fr, Su 18:00-21:00"
        }
      },
      {
        "type": "node",
        "id": 6929266356,
        "lat": 12.9326457,
        "lon": 80.2320063,
        "tags": {
          "addr:district": "Kanchipuram",
          "addr:full": "168, Chandrasekaran Avenue, O.M.R, Thoraipakkam , Opposite To P.T.C Bus Stop",
          "addr:postcode": "600096",
          "addr:state": "Tamil Nadu",
          "amenity": "hospital",
          "healthcare": "hospital",
          "name": "Nanthini Hospital",
          "source": "OpenGovernmentData"
        }
      },
      {
        "type": "node",
        "id": 7822259989,
        "lat": 12.9347551,
        "lon": 80.2327258,
        "tags": {
          "addr:district": "Chengalpattu",
          "addr:full": "Thoraipakkam",
          "addr:postcode": "600097",
          "addr:state": "Tamil Nadu",
          "amenity": "clinic",
          "healthcare": "clinic",
          "name": "Jayadeva Fertility Centre and Women's Hospital",
          "source": "Local Knowledge"
        }
      },
      {
        "type": "node",
        "id": 7822259996,
        "lat": 12.933657,
        "lon": 80.233537,
        "tags": {
          "addr:district": "Chengalpattu",
          "addr:full": "Oggiyamduraipakkam",
          "addr:postcode": "600097",
          "addr:state": "Tamil Nadu",
          "amenity": "clinic",
          "healthcare": "clinic",
          "name": "Sara Skin Clinic",
          "source": "Local Knowledge"
        }
      },
      {
        "type": "node",
        "id": 7822259998,
        "lat": 12.9338927,
        "lon": 80.2355344,
        "tags": {
          "addr:district": "Chengalpattu",
          "addr:full": "Raj Nagar, Oggiyamduraipakkam",
          "addr:postcode": "600097",
          "addr:state": "Tamil Nadu",
          "amenity": "clinic",
          "healthcare": "clinic",
          "name": "Eashwar Multispeciality Clinic",
          "source": "Local Knowledge"
        }
      },
      {
        "type": "node",
        "id": 7822260009,
        "lat": 12.9319677,
        "lon": 80.2326252,
        "tags": {
          "addr:district": "Chengalpattu",
          "addr:full": "Bhagat Singh Nagar",
          "addr:postcode": "600097",
          "addr:state": "Tamil Nadu",
          "amenity": "hospital",
          "healthcare": "hospital",
          "name": "SV Hospital",
          "source": "Local Knowledge"
        }
      },
      {
        "type": "node",
        "id": 7822260010,
        "lat": 12.9337566,
        "lon": 80.2331464,
        "tags": {
          "addr:district": "Chengalpattu",
          "addr:postcode": "600097",
          "addr:state": "Tamil Nadu",
          "amenity": "clinic",
          "healthcare": "clinic",
          "name": "Apollo Clinic",
          "source": "Local Knowledge"
        }
      },
      {
        "type": "node",
        "id": 7822260028,
        "lat": 12.9334179,
        "lon": 80.2344666,
        "tags": {
          "addr:district": "Chengalpattu",
          "addr:full": "Oggiyamduraipakkam",
          "addr:postcode": "600097",
          "addr:state": "Tamil Nadu",
          "amenity": "clinic",
          "healthcare": "clinic",
          "name": "H.K. Clinic",
          "source": "Local Knowledge"
        }
      },
      {
        "type": "node",
        "id": 7822260046,
        "lat": 12.9330206,
        "lon": 80.2345155,
        "tags": {
          "addr:district": "Chengalpattu",
          "addr:full": "Oggiyamduraipakkam",
          "addr:postcode": "600097",
          "addr:state": "Tamil Nadu",
          "amenity": "clinic",
          "healthcare": "clinic",
          "name": "Angel Child Clinic",
          "source": "Local Knowledge"
        }
      },
      {
        "type": "node",
        "id": 11493839995,
        "lat": 12.9374466,
        "lon": 80.2365086,
        "tags": {
          "addr:housenumber": "3/927",
          "addr:street": "Pillaiyar kovil street, mettukuppam, Thoraipakkam, chennai 600097",
          "description": "department store",
          "name": "Lingam stores",
          "shop": "department_store"
        }
      },
      {
        "type": "node",
        "id": 12324896511,
        "lat": 12.9379082,
        "lon": 80.2352156,
        "tags": {
          "addr:housenumber": "38/103",
          "addr:street": "1st Floor, OMR, opp. AKDR Golf Village, next to City Union Bank, NJK Avenue, Thoraipakkam, Chennai, Tamil Nadu 600097",
          "amenity": "cafe",
          "name": "Nellai karupatti coffee",
          "opening_hours": "Mo-Su 05:00-22:00"
        }
      }
    ]
  },
  "pois_2_5km": {
    "version": 0.6,
    "generator": "Overpass API 0.7.62.8 e802775f",
    "osm3s": {
      "timestamp_osm_base": "2025-09-06T09:23:13Z",
      "copyright": "The data included in this document is from www.openstreetmap.org. The data is made available under ODbL."
    },
    "elements": [
      {
        "type": "node",
        "id": 3829225725,
        "lat": 12.9247788,
        "lon": 80.2303371,
        "tags": {
          "amenity": "fuel",
          "brand": "Bharat Petroleum",
          "brand:wikidata": "Q854826",
          "name": "Bharat Petroleum"
        }
      },
      {
        "type": "node",
        "id": 4406456567,
        "lat": 12.9132888,
        "lon": 80.2292825,
        "tags": {
          "bus": "yes",
          "public_transport": "stop_position"
        }
      },
      {
        "type": "node",
        "id": 11148087378,
        "lat": 12.9424731,
        "lon": 80.2530279,
        "tags": {
          "amenity": "fuel",
          "brand": "Indian Oil",
          "brand:wikidata": "Q1289348",
          "name": "Indian Oil"
        }
      },
      {
        "type": "node",
        "id": 11832803585,
        "lat": 12.9270116,
        "lon": 80.2515525,
        "tags": {
          "amenity": "fuel",
          "brand": "Hindustan Petroleum",
          "brand:wikidata": "Q1619375",
          "name": "HP",
          "official_name": "Hindustan Petroleum"
        }
      }
    ]
  }
}