{
  "pois_1km": {
    "version": 0.6,
    "generator": "Overpass API 0.7.62.8 e802775f",
    "osm3s": {
      "timestamp_osm_base": "2025-09-06T09:20:10Z",
      "copyright": "The data included in this document is from www.openstreetmap.org. The data is made available under ODbL."
    },
    "elements": [
      {
        "type": "node",
        "id": 320275820,
        "lat": 13.0720996,
        "lon": 80.2589871,
        "tags": {
          "amenity": "hospital",
          "healthcare": "hospital",
          "name": "Govt Maternity Hospital"
        }
      },
      {
        "type": "node",
        "id": 320275824,
        "lat": 13.0735496,
        "lon": 80.257025,
        "tags": {
          "amenity": "hospital",
          "healthcare": "hospital",
          "name": "Institute of Child Health"
        }
      },
      {
        "type": "node",
        "id": 320275839,
        "lat": 13.0735431,
        "lon": 80.2591463,
        "tags": {
          "amenity": "hospital",
          "healthcare": "hospital",
          "name": "Institute of Obstetrics and Gynaecology dd"
        }
      },
      {
        "type": "node",
        "id": 347444889,
        "lat": 13.0747305,
        "lon": 80.2626235,
        "tags": {
          "amenity": "restaurant",
          "fixme": "not found",
          "name": "Annapurna"
        }
      },
      {
        "type": "node",
        "id": 365351250,
        "lat": 13.0750359,
        "lon": 80.2581673,
        "tags": {
          "amenity": "restaurant",
          "cuisine": "Vegetarian, International (South Indian incl. )",
          "description": "Authentic Food. Affordable. Try French Onion Soup on Tuesdays",
          "name": "Mathsya",
          "opening_hours": "Mo-Su 07:00-22:00, 07:00-01:30"
        }
      },
      {
        "type": "node",
        "id": 366848592,
        "lat": 13.0686635,
        "lon": 80.2572129,
        "tags": {
          "name": "Alsa Mall Shopping Complex",
          "shop": "mall",
          "wikidata": "Q4735741",
          "wikipedia": "en:Alsa Mall"
        }
      },
      {
        "type": "node",
        "id": 623010739,
        "lat": 13.0688594,
        "lon": 80.2572278,
        "tags": {
          "amenity": "cafe",
          "name": "Cafe Caffee Day"
        }
      },
      {
        "type": "node",
        "id": 966556123,
        "lat": 13.0750719,
        "lon": 80.2717231,
        "tags": {
          "amenity": "bank",
          "atm": "yes",
          "brand": "Indian Overseas Bank",
          "brand:wikidata": "Q2003611",
          "brand:wikipedia": "en:Indian Overseas Bank",
          "name": "Indian Overseas Bank",
          "name:en": "Indian Overseas Bank",
          "short_name": "IOB",
          "website": "https://www.iob.in"
        }
      },
      {
        "type": "node",
        "id": 2296723532,
        "lat": 13.0753058,
        "lon": 80.2702977,
        "tags": {
          "amenity": "atm",
          "operator": "Karur Vysya Bank ATM"
        }
      },
      {
        "type": "node",
        "id": 2296723544,
        "lat": 13.0752954,
        "lon": 80.2703513,
        "tags": {
          "amenity": "atm",
          "brand": "HDFC Bank",
          "brand:en": "HDFC Bank",
          "brand:wikidata": "Q631047",
          "currency:INR": "yes",
          "drive_through": "no",
          "indoor": "yes",
          "note": "Contributors are requested to not edit the \"brand\", \"brand:en\", \"brand:wikidata\", \"operator\", \"operator:en\" and \"operator:wikidata\" tags. (2025/03/03)",
          "opening_hours": "24/7",
          "operator": "HDFC Bank",
          "operator:en": "HDFC Bank",
          "operator:wikidata": "Q631047",
          "short_name": "HDFC"
        }
      },
      {
        "type": "node",
        "id": 2296723598,
        "lat": 13.0755619,
        "lon": 80.2692785,
        "tags": {
          "amenity": "atm",
          "brand": "State Bank of India",
          "brand:en": "State Bank of India",
          "brand:wikidata": "Q1340361",
          "currency:INR": "yes",
          "drive_through": "no",
          "indoor": "yes",
          "note": "Contributors are requested to not edit the \"brand\", \"brand:en\", \"brand:wikidata\", \"operator\", \"operator:en\" and \"operator:wikidata\" tags. (2025/03/03)",
          "opening_hours": "24/7",
          "operator": "State Bank of India",
          "operator:en": "State Bank of India",
          "operator:wikidata": "Q1340361",
          "short_name": "SBI"
        }
      },
      {
        "type": "node",
        "id": 2296723960,
        "lat": 13.0782216,
        "lon": 80.2644773,
        "tags": {
          "amenity": "atm",
          "operator": "Axis Bank ATM"
        }
      },
      {
        "type": "node",
        "id": 2296724880,
        "lat": 13.0749608,
        "lon": 80.2567427,
        "tags": {
          "amenity": "bank",
          "atm": "yes",
          "brand": "ICICI Bank",
          "brand:wikidata": "Q1653258",
          "brand:wikipedia": "en:ICICI Bank",
          "name": "ICICI Bank",
          "name:en": "ICICI Bank",
          "opening_hours": "Mo-Sa 09:30-16:00",
          "short_name": "ICICI",
          "website": "https://www.icicibank.com"
        }
      },
      {
        "type": "node",
        "id": 2296731083,
        "lat": 13.0755331,
        "lon": 80.2693697,
        "tags": {
          "amenity": "restaurant",
          "diet:vegetarian": "only",
          "name": "Murudi's Hotel"
        }
      },
      {
        "type": "node",
        "id": 2296731456,
        "lat": 13.076782,
        "lon": 80.268345,
        "tags": {
          "amenity": "hospital",
          "healthcare": "hospital",
          "name": "Dr Venugopals' Sundaram Clini"
        }
      },
      {
        "type": "node",
        "id": 2296731781,
        "lat": 13.0768734,
        "lon": 80.2678381,
        "tags": {
          "amenity": "hospital",
          "healthcare": "hospital",
          "name": "Dr Kabir's Clinic"
        }
      },
      {
        "type": "node",
        "id": 2296732187,
        "lat": 13.0764345,
        "lon": 80.2672427,
        "tags": {
          "amenity": "hospital",
          "healthcare": "hospital",
          "name": "Dr Sridhars'Clinic"
        }
      },
      {
        "type": "node",
        "id": 2296749204,
        "lat": 13.0771372,
        "lon": 80.2657485,
        "tags": {
          "leisure": "playground"
        }
      },
      {
        "type": "node",
        "id": 4308319793,
        "lat": 13.0685113,
        "lon": 80.260596,
        "tags": {
          "addr:housenumber": "121",
          "addr:postcode": "600008",
          "addr:street": "Rukmani Lakshmipathi Road",
          "amenity": "bank",
          "name": "VIJAYA BANK & DUGAR FINANCE INDIA LTD",
          "operator": "finance"
        }
      },
      {
        "type": "node",
        "id": 4308320194,
        "lat": 13.0722106,
        "lon": 80.2600725,
        "tags": {
          "addr:postcode": "600008",
          "addr:street": "Pantheon Road",
          "amenity": "bank",
          "brand": "State Bank of India",
          "brand:wikidata": "Q1340361",
          "brand:wikipedia": "en:State Bank of India",
          "name": "State Bank of India",
          "short_name": "SBI",
          "website": "https://www.sbi.co.in"
        }
      },
      {
        "type": "node",
        "id": 4332194893,
        "lat": 13.071737,
        "lon": 80.2596746,
        "tags": {
          "addr:street": "Pantheon Road",
          "amenity": "bank",
          "brand": "Karur Vysya Bank",
          "brand:wikidata": "Q6373724",
          "brand:wikipedia": "en:Karur Vysya Bank",
          "name": "Karur Vysya Bank",
          "name:en": "Karur Vysya Bank",
          "short_name": "KVB",
          "website": "https://www.kvb.co.in"
        }
      },
      {
        "type": "node",
        "id": 4332202891,
        "lat": 13.0716039,
        "lon": 80.2594527,
        "tags": {
          "addr:street": "Pantheon Road",
          "amenity": "bank",
          "brand": "State Bank of India",
          "brand:wikidata": "Q1340361",
          "brand:wikipedia": "en:State Bank of India",
          "name": "State Bank of India",
          "short_name": "SBI"
        }
      },
      {
        "type": "node",
        "id": 4332203992,
        "lat": 13.074852,
        "lon": 80.2578717,
        "tags": {
          "addr:street": "Halls Road",
          "amenity": "bank",
          "branch": "& ATM",
          "brand": "Axis Bank",
          "brand:wikidata": "Q2003549",
          "brand:wikipedia": "en:Axis Bank",
          "name": "Axis Bank",
          "name:en": "Axis Bank",
          "opening_hours": "Mo-Sa 09:00-16:00",
          "website": "https://www.axisbank.com"
        }
      },
      {
        "type": "node",
        "id": 4332203993,
        "lat": 13.0684257,
        "lon": 80.2608673,
        "tags": {
          "addr:street": "Rukmani Lakshmipathi Road",
          "amenity": "bank",
          "name": "VIJAYA BANK"
        }
      },
      {
        "type": "node",
        "id": 4563606257,
        "lat": 13.0842887,
        "lon": 80.2625019,
        "tags": {
          "addr:street": "EVK Sampath Salai",
          "name:en": "pazhamudir",
          "shop": "department_store"
        }
      },
      {
        "type": "node",
        "id": 4563606258,
        "lat": 13.0842585,
        "lon": 80.262681,
        "tags": {
          "addr:street": "EVK Sampath Salai",
          "name:en": "Spencers daily",
          "shop": "department_store"
        }
      },
      {
        "type": "node",
        "id": 4563608405,
        "lat": 13.0831875,
        "lon": 80.2622329,
        "tags": {
          "addr:street": "EVK Sampath Salai",
          "amenity": "bank",
          "brand": "ICICI Bank",
          "brand:wikidata": "Q1653258",
          "brand:wikipedia": "en:ICICI Bank",
          "name": "ICICI Bank",
          "name:en": "ICICI Bank",
          "short_name": "ICICI"
        }
      },
      {
        "type": "node",
        "id": 4691949789,
        "lat": 13.0831918,
        "lon": 80.2623002,
        "tags": {
          "amenity": "atm"
        }
      },
      {
        "type": "node",
        "id": 4798026739,
        "lat": 13.0770838,
        "lon": 80.2609259,
        "tags": {
          "addr:city": "Chennai",
          "addr:postcode": "600008",
          "addr:street": "Gandhi Irwin Road",
          "alt_name": "A2B",
          "amenity": "restaurant",
          "brand": "Adyar Ananda Bhavan",
          "brand:wikidata": "Q15178238",
          "brand:wikipedia": "en:Adyar Ananda Bhavan",
          "cuisine": "regional",
          "diet:vegetarian": "only",
          "food": "yes",
          "name": "Adyar Ananda Bhavan",
          "operator": "Adyar Ananda Bhavan",
          "phone": "+91 44 4214 6542",
          "shop": "confectionery",
          "website": "https://www.aabsweets.in"
        }
      },
      {
        "type": "node",
        "id": 4893305721,
        "lat": 13.083969,
        "lon": 80.2625917,
        "tags": {
          "addr:street": "EVK Sampath Salai",
          "amenity": "bank",
          "brand": "Axis Bank",
          "brand:wikidata": "Q2003549",
          "brand:wikipedia": "en:Axis Bank",
          "name": "Axis Bank",
          "name:en": "Axis Bank"
        }
      },
      {
        "type": "node",
        "id": 4903254021,
        "lat": 13.0770717,
        "lon": 80.2611367,
        "tags": {
          "amenity": "restaurant",
          "name:en": "Vasanta bhavan"
        }
      },
      {
        "type": "node",
        "id": 5079356668,
        "lat": 13.0775405,
        "lon": 80.2619973,
        "tags": {
          "amenity": "cafe",
          "name": "Impala Food center"
        }
      },
      {
        "type": "node",
        "id": 5079379086,
        "lat": 13.0777234,
        "lon": 80.2615255,
        "tags": {
          "amenity": "restaurant",
          "brand": "Buhari"
        }
      },
      {
        "type": "node",
        "id": 5198139026,
        "lat": 13.0747212,
        "lon": 80.2577919,
        "tags": {
          "amenity": "restaurant",
          "diet:vegetarian": "yes",
          "name:en": "Abbirami restaurant"
        }
      },
      {
        "type": "node",
        "id": 5206090023,
        "lat": 13.0812089,
        "lon": 80.2638553,
        "tags": {
          "amenity": "atm",
          "brand": "State Bank of India",
          "brand:en": "State Bank of India",
          "brand:wikidata": "Q1340361",
          "brand:wikipedia": "en:State Bank of India",
          "currency:INR": "yes",
          "drive_through": "no",
          "indoor": "yes",
          "name": "State Bank of India",
          "note": "Contributors are requested to not edit the \"brand\", \"brand:en\", \"brand:wikidata\", \"operator\", \"operator:en\" and \"operator:wikidata\" tags. (2025/03/03)",
          "opening_hours": "24/7",
          "operator": "State Bank of India",
          "operator:en": "State Bank of India",
          "operator:wikidata": "Q1340361",
          "operator:wikipedia": "en:State Bank of India",
          "short_name": "SBI"
        }
      },
      {
        "type": "node",
        "id": 5737223329,
        "lat": 13.0808614,
        "lon": 80.2675812,
        "tags": {
          "amenity": "restaurant",
          "name": "Kova Alankar Vilas"
        }
      },
      {
        "type": "node",
        "id": 5737223333,
        "lat": 13.0741894,
        "lon": 80.2621162,
        "tags": {
          "amenity": "fast_food",
          "brand": "Subway",
          "brand:pa": "\u0a38\u0a2c\u0a35\u0a47\u0a05",
          "brand:ur": "\u0633\u0628 \u0648\u06d2",
          "brand:wikidata": "Q244457",
          "brand:wikipedia": "en:Subway (restaurant)",
          "cuisine": "sandwich",
          "name": "Subway",
          "name:pa": "\u0a38\u0a2c\u0a35\u0a47\u0a05",
          "name:ur": "\u0633\u0628 \u0648\u06d2",
          "takeaway": "yes"
        }
      },
      {
        "type": "node",
        "id": 5737223337,
        "lat": 13.0744747,
        "lon": 80.2627557,
        "tags": {
          "amenity": "atm"
        }
      },
      {
        "type": "node",
        "id": 5737223350,
        "lat": 13.0768575,
        "lon": 80.2622942,
        "tags": {
          "amenity": "fast_food",
          "brand": "Saravana Bhavan",
          "brand:wikidata": "Q3528082",
          "brand:wikipedia": "en:Saravana Bhavan",
          "cuisine": "indian;south_indian",
          "name": "Saravana Bhavan",
          "official_name": "Hotel Saravana Bhavan",
          "takeaway": "yes"
        }
      },
      {
        "type": "node",
        "id": 5737223353,
        "lat": 13.0744128,
        "lon": 80.2622478,
        "tags": {
          "amenity": "atm",
          "brand": "Karur Vysya Bank",
          "brand:wikidata": "Q6373724",
          "name": "Karur Vysya Bank",
          "operator": "Karur Vysya Bank",
          "operator:wikidata": "Q6373724"
        }
      },
      {
        "type": "node",
        "id": 5737223369,
        "lat": 13.0741156,
        "lon": 80.2619955,
        "tags": {
          "amenity": "atm"
        }
      },
      {
        "type": "node",
        "id": 5744866570,
        "lat": 13.0695817,
        "lon": 80.2572161,
        "tags": {
          "addr:housenumber": "59",
          "addr:postcode": "600008",
          "addr:street": "Pantheon Road",
          "amenity": "restaurant",
          "cuisine": "barbecue",
          "name": "Palmshore"
        }
      },
      {
        "type": "node",
        "id": 5744866581,
        "lat": 13.0690491,
        "lon": 80.2570006,
        "tags": {
          "name": "Cisons Complex",
          "shop": "mall"
        }
      },
      {
        "type": "node",
        "id": 6261227886,
        "lat": 13.0711234,
        "lon": 80.2651244,
        "tags": {
          "addr:street": "Adithanar Road",
          "amenity": "restaurant",
          "name:en": "Cafe green"
        }
      },
      {
        "type": "node",
        "id": 6269478586,
        "lat": 13.0809411,
        "lon": 80.2686536,
        "tags": {
          "amenity": "atm",
          "brand": "State Bank of India",
          "brand:en": "State Bank of India",
          "brand:wikidata": "Q1340361",
          "brand:wikipedia": "en:State Bank of India",
          "check_date": "2024-11-23",
          "currency:INR": "yes",
          "drive_through": "no",
          "indoor": "yes",
          "name": "State Bank of India",
          "note": "Contributors are requested to not edit the \"brand\", \"brand:en\", \"brand:wikidata\", \"operator\", \"operator:en\" and \"operator:wikidata\" tags. (2025/03/03)",
          "opening_hours": "24/7",
          "operator": "State Bank of India",
          "operator:en": "State Bank of India",
          "operator:wikidata": "Q1340361",
          "operator:wikipedia": "en:State Bank of India",
          "short_name": "SBI"
        }
      },
      {
        "type": "node",
        "id": 6640623885,
        "lat": 13.0682794,
        "lon": 80.2604397,
        "tags": {
          "addr:street": "Montieth Lane",
          "amenity": "doctors",
          "healthcare": "doctor",
          "name:en": "Dr grifin"
        }
      },
      {
        "type": "node",
        "id": 6646029813,
        "lat": 13.0693914,
        "lon": 80.2570434,
        "tags": {
          "amenity": "fast_food",
          "cuisine": "indian"
        }
      },
      {
        "type": "node",
        "id": 6681271185,
        "lat": 13.0708359,
        "lon": 80.2657441,
        "tags": {
          "amenity": "clinic",
          "healthcare": "clinic",
          "name:en": "Dr Sayed abuthagir Sayed daibetes codiyologist"
        }
      },
      {
        "type": "node",
        "id": 6914767986,
        "lat": 13.0793555,
        "lon": 80.2560469,
        "tags": {
          "addr:district": "Chennai",
          "addr:full": "#136, Ponamallee High Road",
          "addr:postcode": "600010",
          "addr:state": "Tamil Nadu",
          "amenity": "clinic",
          "healthcare": "clinic",
          "name": "Sundaravadanan Nursing Home",
          "source": "OpenGovernmentData"
        }
      },
      {
        "type": "node",
        "id": 6914768088,
        "lat": 13.079494,
        "lon": 80.2572808,
        "tags": {
          "addr:district": "Chennai",
          "addr:full": "962, Poonamallee High Road, Near Egmore Over Bridge",
          "addr:postcode": "600084",
          "addr:state": "Tamil Nadu",
          "amenity": "hospital",
          "healthcare": "hospital",
          "name": "Dr. U. Mohan Rau Memorial Hospital - Chennai",
          "source": "OpenGovernmentData",
          "wheelchair": "yes"
        }
      },
      {
        "type": "node",
        "id": 6915813496,
        "lat": 13.0813437,
        "lon": 80.2588713,
        "tags": {
          "addr:district": "Chennai",
          "addr:full": "21.Ritherdon Road,Vepery",
          "addr:postcode": "600007",
          "addr:state": "Tamil Nadu",
          "amenity": "clinic",
          "healthcare": "clinic",
          "name": "Joseph Eye Clinic",
          "source": "OpenGovernmentData"
        }
      },
      {
        "type": "node",
        "id": 6931772821,
        "lat": 13.0815684,
        "lon": 80.2587748,
        "tags": {
          "addr:district": "Chennai",
          "addr:full": "21, Ritherdon Road, Vepery",
          "addr:postcode": "600007",
          "addr:state": "Tamil Nadu",
          "amenity": "clinic",
          "healthcare": "clinic",
          "name": "Ritherdon Nursing Home",
          "source": "OpenGovernmentData"
        }
      },
      {
        "type": "node",
        "id": 6936415699,
        "lat": 13.0685338,
        "lon": 80.2579902,
        "tags": {
          "addr:district": "Chennai",
          "addr:full": "28, Marshalls Road Egmore",
          "addr:postcode": "600008",
          "addr:state": "Tamil Nadu",
          "amenity": "hospital",
          "healthcare": "hospital",
          "name": "Dr. A. Ramachandran's Diabetes Hospital",
          "source": "OpenGovernmentData"
        }
      },
      {
        "type": "node",
        "id": 7252333383,
        "lat": 13.068807,
        "lon": 80.2672078,
        "tags": {
          "addr:block": "Chennai Zone Xi",
          "addr:district": "Chennai",
          "addr:full": "Pudupet, Komaleeswaranpet, Egmore, Chennai",
          "addr:postcode": "600002",
          "addr:state": "Tamil Nadu",
          "amenity": "hospital",
          "healthcare": "hospital",
          "name": "Government Hospital",
          "source": "OpenGovernmentData"
        }
      },
      {
        "type": "node",
        "id": 7824965207,
        "lat": 13.0809396,
        "lon": 80.2671246,
        "tags": {
          "addr:district": "Chennai",
          "addr:full": "Park Town, Chennai",
          "addr:postcode": "600003",
          "addr:state": "Tamil Nadu",
          "amenity": "doctors",
          "name": "Dr. Mohammed Ali",
          "source": "Local Knowledge"
        }
      },
      {
        "type": "node",
        "id": 7824965210,
        "lat": 13.0797155,
        "lon": 80.2576802,
        "tags": {
          "addr:district": "Chennai",
          "addr:full": "Egmore, Chennai",
          "addr:postcode": "600084",
          "addr:state": "Tamil Nadu",
          "amenity": "doctors",
          "healthcare": "doctor",
          "name": "Dr. Mrs. Renuka Ramakrishnan",
          "source": "Local Knowledge"
        }
      },
      {
        "type": "node",
        "id": 7824965215,
        "lat": 13.0762266,
        "lon": 80.2692658,
        "tags": {
          "addr:district": "Chennai",
          "addr:full": "Adikesavarpuram, Chintadripet, Chennai",
          "addr:postcode": "600002",
          "addr:state": "Tamil Nadu",
          "amenity": "doctors",
          "healthcare": "doctor",
          "name": "Dr. S. Kalaiselvi and Dr. Raghunathan",
          "source": "Local Knowledge"
        }
      },
      {
        "type": "node",
        "id": 7824965217,
        "lat": 13.07127,
        "lon": 80.262082,
        "tags": {
          "addr:district": "Chennai",
          "addr:full": "Perambur, Chennai",
          "addr:postcode": "600082",
          "addr:state": "Tamil Nadu",
          "amenity": "clinic",
          "healthcare": "clinic",
          "name": "Metropolis Healthcare",
          "source": "Local Knowledge"
        }
      },
      {
        "type": "node",
        "id": 7824965221,
        "lat": 13.0746638,
        "lon": 80.2537976,
        "tags": {
          "addr:district": "Chennai",
          "addr:full": "Egmore, Chennai",
          "addr:postcode": "600008",
          "addr:state": "Tamil Nadu",
          "amenity": "hospital",
          "healthcare": "hospital",
          "name": "Santosham Chest Hospital",
          "source": "Local Knowledge"
        }
      },
      {
        "type": "node",
        "id": 7824965222,
        "lat": 13.0715459,
        "lon": 80.2622655,
        "tags": {
          "addr:district": "Chennai",
          "addr:full": "Komaleeswaranpet, Egmore, Chennai",
          "addr:postcode": "600002",
          "addr:state": "Tamil Nadu",
          "amenity": "hospital",
          "healthcare": "hospital",
          "name": "Tune 32 Hospital",
          "source": "Local Knowledge"
        }
      },
      {
        "type": "node",
        "id": 7824965224,
        "lat": 13.079584,
        "lon": 80.257578,
        "tags": {
          "addr:district": "Chennai",
          "addr:full": "Purasaiwakkam, Chennai",
          "addr:postcode": "600084",
          "addr:state": "Tamil Nadu",
          "amenity": "clinic",
          "healthcare": "clinic",
          "name": "Premier Health Centre",
          "source": "Local Knowledge"
        }
      },
      {
        "type": "node",
        "id": 7824965225,
        "lat": 13.0786423,
        "lon": 80.2540859,
        "tags": {
          "addr:district": "Chennai",
          "addr:full": "Chennai",
          "addr:postcode": "600084",
          "addr:state": "Tamil Nadu",
          "amenity": "hospital",
          "healthcare": "hospital",
          "name": "Centre For Gastro Esophageal Disorders",
          "source": "Local Knowledge"
        }
      },
      {
        "type": "node",
        "id": 7824965230,
        "lat": 13.0752787,
        "lon": 80.2705092,
        "tags": {
          "addr:district": "Chennai",
          "addr:full": "Chintadripet, Chennai",
          "addr:postcode": "600002",
          "addr:state": "Tamil Nadu",
          "amenity": "clinic",
          "healthcare": "clinic",
          "name": "Vinayagam Clinic",
          "source": "Local Knowledge"
        }
      },
      {
        "type": "node",
        "id": 7824965231,
        "lat": 13.074758,
        "lon": 80.2555444,
        "tags": {
          "addr:district": "Chennai",
          "addr:full": "Egmore, Chennai",
          "addr:postcode": "600008",
          "addr:state": "Tamil Nadu",
          "amenity": "clinic",
          "healthcare": "clinic",
          "name": "Dr. Ilavarasan Ortho Clinic",
          "opening_hours": "Mo-Sa 18:00-20:00",
          "source": "Local Knowledge"
        }
      },
      {
        "type": "node",
        "id": 7824965233,
        "lat": 13.0747088,
        "lon": 80.2688425,
        "tags": {
          "addr:district": "Chennai",
          "addr:full": "Chintadripet, Chennai",
          "addr:postcode": "600002",
          "addr:state": "Tamil Nadu",
          "amenity": "clinic",
          "healthcare": "clinic",
          "name": "Nalam Clinic",
          "source": "Local Knowledge"
        }
      },
      {
        "type": "node",
        "id": 7824965234,
        "lat": 13.0755581,
        "lon": 80.27068,
        "tags": {
          "addr:district": "Chennai",
          "addr:full": "Chintadripet, Chennai",
          "addr:postcode": "600002",
          "addr:state": "Tamil Nadu",
          "amenity": "clinic",
          "healthcare": "clinic",
          "name": "Dr. Arjun Thomas Clinic",
          "source": "Local Knowledge"
        }
      },
      {
        "type": "node",
        "id": 7824965235,
        "lat": 13.082126,
        "lon": 80.263297,
        "tags": {
          "addr:district": "Chennai",
          "addr:postcode": "600007",
          "addr:state": "Tamil Nadu",
          "amenity": "clinic",
          "healthcare": "clinic",
          "name": "TMM Eye Centre",
          "source": "Local Knowledge"
        }
      },
      {
        "type": "node",
        "id": 7824965241,
        "lat": 13.0713435,
        "lon": 80.2625981,
        "tags": {
          "addr:district": "Chennai",
          "addr:full": "Egmore, Chennai",
          "addr:postcode": "600008",
          "addr:state": "Tamil Nadu",
          "amenity": "hospital",
          "healthcare": "hospital",
          "name": "Neuro Hospital",
          "source": "Local Knowledge"
        }
      },
      {
        "type": "node",
        "id": 7824965245,
        "lat": 13.071832,
        "lon": 80.260048,
        "tags": {
          "addr:district": "Chennai",
          "addr:full": "Egmore, Chennai",
          "addr:postcode": "600008",
          "addr:state": "Tamil Nadu",
          "amenity": "hospital",
          "healthcare": "hospital",
          "name": "Mercury Hospital",
          "source": "Local Knowledge"
        }
      },
      {
        "type": "node",
        "id": 7824965247,
        "lat": 13.0750341,
        "lon": 80.2684334,
        "tags": {
          "addr:district": "Chennai",
          "addr:full": "Chintadripet, Chennai",
          "addr:postcode": "600002",
          "addr:state": "Tamil Nadu",
          "amenity": "clinic",
          "healthcare": "clinic",
          "name": "Vembu Clinic",
          "source": "Local Knowledge"
        }
      },
      {
        "type": "node",
        "id": 7824965249,
        "lat": 13.0761303,
        "lon": 80.2694819,
        "tags": {
          "addr:district": "Chennai",
          "addr:full": "Chintadripet, Chennai",
          "addr:postcode": "641301",
          "addr:state": "Tamil Nadu",
          "amenity": "hospital",
          "healthcare": "hospital",
          "name": "S.K. Selvam Hospital",
          "source": "Local Knowledge"
        }
      },
      {
        "type": "node",
        "id": 7824965251,
        "lat": 13.079529,
        "lon": 80.257646,
        "tags": {
          "addr:district": "Chennai",
          "addr:full": "Egmore, Chennai",
          "addr:postcode": "600084",
          "addr:state": "Tamil Nadu",
          "amenity": "clinic",
          "healthcare": "clinic",
          "name": "Neuro Mind Care Clinic",
          "source": "Local Knowledge"
        }
      },
      {
        "type": "node",
        "id": 7824965253,
        "lat": 13.0763548,
        "lon": 80.267103,
        "tags": {
          "addr:district": "Chennai",
          "addr:full": "Adikesavarpuram, Chintadripet, Chennai",
          "addr:postcode": "600002",
          "addr:state": "Tamil Nadu",
          "amenity": "clinic",
          "healthcare": "clinic",
          "name": "Dr. Sridharan Clinic",
          "source": "Local Knowledge"
        }
      },
      {
        "type": "node",
        "id": 7824965257,
        "lat": 13.0734625,
        "lon": 80.2679228,
        "tags": {
          "addr:district": "Chennai",
          "addr:full": "Chintadripet, Chennai",
          "addr:postcode": "600002",
          "addr:state": "Tamil Nadu",
          "amenity": "clinic",
          "healthcare": "clinic",
          "name": "Dr. A Manivannan Clinic",
          "source": "Local Knowledge"
        }
      },
      {
        "type": "node",
        "id": 7824965262,
        "lat": 13.0811497,
        "lon": 80.2620778,
        "tags": {
          "addr:district": "Chennai",
          "addr:full": "Vepery, Chennai",
          "addr:postcode": "600007",
          "addr:state": "Tamil Nadu",
          "amenity": "hospital",
          "healthcare": "hospital",
          "name": "Periyar Maniammai Hospital",
          "source": "Local Knowledge"
        }
      },
      {
        "type": "node",
        "id": 7824965264,
        "lat": 13.074301,
        "lon": 80.267569,
        "tags": {
          "addr:district": "Chennai",
          "addr:full": "Chintadripet, Chennai",
          "addr:postcode": "600002",
          "addr:state": "Tamil Nadu",
          "amenity": "hospital",
          "healthcare": "hospital",
          "name": "Red Cross Hospital",
          "source": "Local Knowledge"
        }
      },
      {
        "type": "node",
        "id": 7824965265,
        "lat": 13.0756085,
        "lon": 80.2693127,
        "tags": {
          "addr:district": "Chennai",
          "addr:full": "Adikesavarpuram, Chintadripet, Chennai",
          "addr:postcode": "600002",
          "addr:state": "Tamil Nadu",
          "amenity": "clinic",
          "healthcare": "clinic",
          "name": "Kabeer Clinic",
          "source": "Local Knowledge"
        }
      },
      {
        "type": "node",
        "id": 8488622858,
        "lat": 13.0815279,
        "lon": 80.2611433,
        "tags": {
          "amenity": "bank",
          "branch": "Vepery",
          "brand": "Indian Overseas Bank",
          "brand:wikidata": "Q2003611",
          "brand:wikipedia": "en:Indian Overseas Bank",
          "name": "Indian Overseas Bank"
        }
      },
      {
        "type": "node",
        "id": 10139491414,
        "lat": 13.07648,
        "lon": 80.2643566,
        "tags": {
          "addr:city": "Egmore, Chennai",
          "addr:housenumber": "29",
          "addr:postcode": "600008",
          "addr:street": "Whannels Road",
          "amenity": "restaurant",
          "name": "Konar Kadai"
        }
      },
      {
        "type": "node",
        "id": 10261896854,
        "lat": 13.0754835,
        "lon": 80.2588986,
        "tags": {
          "amenity": "cafe",
          "description": "Beautiful decor, Cafe and Restaurant",
          "name": "Psychedelic Hues - Art house and Cafe",
          "opening_hours": "Mo-Su 11:00-23:00"
        }
      },
      {
        "type": "node",
        "id": 10593554605,
        "lat": 13.0771123,
        "lon": 80.2613554,
        "tags": {
          "amenity": "restaurant",
          "name:en": "Sangeetha"
        }
      },
      {
        "type": "node",
        "id": 11178386321,
        "lat": 13.0774212,
        "lon": 80.2617168,
        "tags": {
          "air_conditioning": "yes",
          "amenity": "restaurant",
          "diet:vegetarian": "only",
          "name": "Namma Veedu Vasanta Bhavan",
          "phone": "+044 4862 2498",
          "website": "http://www.vasantabhavan.in/"
        }
      },
      {
        "type": "node",
        "id": 11306582873,
        "lat": 13.0809129,
        "lon": 80.2698337,
        "tags": {
          "amenity": "restaurant",
          "indoor_seating": "yes",
          "level": "0",
          "name": "Andhra Bhavan",
          "opening_hours": "Mo-Su 07:30-22:00; PH open",
          "outdoor_seating": "no"
        }
      },
      {
        "type": "node",
        "id": 12146020762,
        "lat": 13.0813864,
        "lon": 80.2626494,
        "tags": {
          "amenity": "cafe",
          "cuisine": "coffee_shop",
          "name": "Aavin Booth",
          "opening_hours": "Mo-Su 10:00-19:00",
          "outdoor_seating": "yes"
        }
      },
      {
        "type": "node",
        "id": 12146055740,
        "lat": 13.081276,
        "lon": 80.2631177,
        "tags": {
          "amenity": "hospital",
          "healthcare": "hospital",
          "name": "Commissioner of Police office, Greater chennai Police"
        }
      },
      {
        "type": "node",
        "id": 12290460802,
        "lat": 13.075221,
        "lon": 80.2560383,
        "tags": {
          "amenity": "restaurant",
          "name": "The Madras Grand",
          "phone": "+91 93848 81777"
        }
      },
      {
        "type": "node",
        "id": 12794767503,
        "lat": 13.0779677,
        "lon": 80.2629459,
        "tags": {
          "amenity": "food_court",
          "name": "Alihaja biriyani"
        }
      }
    ]
  },
  "pois_2_5km": {
    "version": 0.6,
    "generator": "Overpass API 0.7.62.8 e802775f",
    "osm3s": {
      "timestamp_osm_base": "2025-09-06T09:20:10Z",
      "copyright": "The data included in this document is from www.openstreetmap.org. The data is made available under ODbL."
    },
    "elements": [
      {
        "type": "node",
        "id": 243041570,
        "lat": 13.0794798,
        "lon": 80.2760155,
        "tags": {
          "name": "Chennai Park Town",
          "public_transport": "stop_position",
          "railway": "stop",
          "ref": "MPKT:1;2",
          "train": "yes"
        }
      },
      {
        "type": "node",
        "id": 243041584,
        "lat": 13.0730718,
        "lon": 80.273991,
        "tags": {
          "name": "Chintadaripet",
          "public_transport": "stop_position",
          "railway": "stop",
          "train": "yes"
        }
      },
      {
        "type": "node",
        "id": 243041609,
        "lat": 13.0620417,
        "lon": 80.2806464,
        "tags": {
          "name": "Chepauk",
          "public_transport": "stop_position",
          "railway": "stop",
          "train": "yes"
        }
      },
      {
        "type": "node",
        "id": 243049436,
        "lat": 13.0634424,
        "lon": 80.2434914,
        "tags": {
          "bus": "yes",
          "name": "Sterling Road",
          "network": "MTC",
          "operator": "Metropolitan Transport Corporation (Chennai) Ltd.",
          "public_transport": "stop_position"
        }
      },
      {
        "type": "node",
        "id": 243064594,
        "lat": 13.0608709,
        "lon": 80.2652174,
        "tags": {
          "bus": "yes",
          "name": "Express avenue",
          "network": "MTC",
          "public_transport": "stop_position"
        }
      },
      {
        "type": "node",
        "id": 248467412,
        "lat": 13.0743424,
        "lon": 80.242421,
        "tags": {
          "internet_access": "no",
          "name": "Chennai Chetpat",
          "name:ml": "\u0d1a\u0d47\u0d24\u0d4d\u0d24\u0d41\u0d2a\u0d4d\u0d2a\u0d1f\u0d4d\u0d1f\u0d4d",
          "name:ta": "\u0b9a\u0bc7\u0ba4\u0bcd\u0ba4\u0bc1\u0baa\u0bcd\u0baa\u0b9f\u0bcd\u0b9f\u0bc1",
          "network": "IR",
          "operator": "SR",
          "public_transport": "station",
          "railway": "station",
          "ref": "MSC",
          "wikidata": "Q5094188"
        }
      },
      {
        "type": "node",
        "id": 257932256,
        "lat": 13.0936754,
        "lon": 80.2508682,
        "tags": {
          "bus": "yes",
          "name": "Saravana Theatre",
          "public_transport": "stop_position"
        }
      },
      {
        "type": "node",
        "id": 303284326,
        "lat": 13.0851617,
        "lon": 80.2835544,
        "tags": {
          "amenity": "fuel"
        }
      },
      {
        "type": "node",
        "id": 303284327,
        "lat": 13.0862218,
        "lon": 80.2812471,
        "tags": {
          "amenity": "fuel"
        }
      },
      {
        "type": "node",
        "id": 315897595,
        "lat": 13.0593418,
        "lon": 80.2657932,
        "tags": {
          "amenity": "cinema",
          "created_by": "Potlatch 0.10f",
          "name": "Melody"
        }
      },
      {
        "type": "node",
        "id": 344405871,
        "lat": 13.0674553,
        "lon": 80.2524458,
        "tags": {
          "amenity": "fuel"
        }
      },
      {
        "type": "node",
        "id": 370317596,
        "lat": 13.0669309,
        "lon": 80.2457303,
        "tags": {
          "addr:housenumber": "24",
          "addr:postcode": "600034",
          "addr:street": "College Road",
          "amenity": "theatre",
          "created_by": "Potlatch 0.10f",
          "name": "Alliance Francais",
          "name:en": "Alliance Fran\u00e7aise",
          "phone": "+91 44 2827 9803",
          "website": "https://madras.afindia.org/"
        }
      },
      {
        "type": "node",
        "id": 386890399,
        "lat": 13.0553594,
        "lon": 80.2580847,
        "tags": {
          "amenity": "theatre",
          "name": "Sathyam Cinema"
        }
      },
      {
        "type": "node",
        "id": 603015278,
        "lat": 13.0697128,
        "lon": 80.2730041,
        "tags": {
          "name": "\u0b85\u0bb0\u0b9a\u0bbf\u0ba9\u0bb0\u0bcd \u0ba4\u0bcb\u0b9f\u0bcd\u0b9f\u0bae\u0bcd",
          "name:en": "Government Estate",
          "name:ta": "\u0b85\u0bb0\u0b9a\u0bbf\u0ba9\u0bb0\u0bcd \u0ba4\u0bcb\u0b9f\u0bcd\u0b9f\u0bae\u0bcd",
          "network": "Chennai Metro",
          "note": "Contributors are requested to not edit the \"network\" and the \"operator\" tags. (2023/11/08)",
          "operator": "Chennai Metro Rail Limited",
          "public_transport": "stop_position",
          "railway": "stop",
          "station": "subway",
          "subway": "yes"
        }
      },
      {
        "type": "node",
        "id": 610963138,
        "lat": 13.0867504,
        "lon": 80.2586838,
        "tags": {
          "amenity": "fuel"
        }
      },
      {
        "type": "node",
        "id": 611549980,
        "lat": 13.0928705,
        "lon": 80.2517604,
        "tags": {
          "amenity": "cinema",
          "name": "Balaj"
        }
      },
      {
        "type": "node",
        "id": 652426192,
        "lat": 13.0787915,
        "lon": 80.2504722,
        "tags": {
          "name": "Nehru Park",
          "name:ta": "\u0ba8\u0bc7\u0bb0\u0bc1 \u0baa\u0bc2\u0b99\u0bcd\u0b95\u0bbe",
          "network": "Chennai Metro",
          "note": "Contributors are requested to not edit the \"network\" and the \"operator\" tags. (2023/11/08)",
          "operator": "Chennai Metro Rail Limited",
          "public_transport": "stop_position",
          "railway": "stop",
          "subway": "yes"
        }
      },
      {
        "type": "node",
        "id": 652426199,
        "lat": 13.0802886,
        "lon": 80.2630538,
        "tags": {
          "name": "Egmore Metro",
          "name:ta": "\u0b8e\u0bb4\u0bc1\u0bae\u0bcd\u0baa\u0bc2\u0bb0\u0bcd",
          "network": "Chennai Metro",
          "note": "Contributors are requested to not edit the \"network\" and the \"operator\" tags. (2023/11/08)",
          "operator": "Chennai Metro Rail Limited",
          "public_transport": "stop_position",
          "railway": "stop",
          "subway": "yes"
        }
      },
      {
        "type": "node",
        "id": 919522123,
        "lat": 13.0832295,
        "lon": 80.2829442,
        "tags": {
          "local_ref": "4",
          "name": "Chennai Fort",
          "public_transport": "stop_position",
          "railway": "stop",
          "ref": "MSF:4",
          "train": "yes"
        }
      },
      {
        "type": "node",
        "id": 919522213,
        "lat": 13.0834778,
        "lon": 80.2826722,
        "tags": {
          "local_ref": "1",
          "public_transport": "stop_position",
          "railway": "stop",
          "ref": "MSF:1",
          "train": "yes"
        }
      },
      {
        "type": "node",
        "id": 1207424080,
        "lat": 13.0776484,
        "lon": 80.2426176,
        "tags": {
          "name": "Kilpauk",
          "name:ta": "\u0b95\u0bc0\u0bb4\u0bcd\u0baa\u0bbe\u0b95\u0bcd\u0b95\u0bae\u0bcd",
          "network": "Chennai Metro",
          "note": "Contributors are requested to not edit the \"network\" and the \"operator\" tags. (2023/11/08)",
          "operator": "Chennai Metro Rail Limited",
          "public_transport": "stop_position",
          "railway": "stop",
          "subway": "yes"
        }
      },
      {
        "type": "node",
        "id": 1280328281,
        "lat": 13.0715858,
        "lon": 80.2646192,
        "tags": {
          "bus": "yes",
          "name": "Egmore Court",
          "network": "MTC",
          "operator": "Metropolitan Transport Corporation (Chennai) Ltd.",
          "public_transport": "stop_position",
          "route_ref": "27D"
        }
      },
      {
        "type": "node",
        "id": 2272877093,
        "lat": 13.0795162,
        "lon": 80.2760051,
        "tags": {
          "name": "Chennai Park Town",
          "public_transport": "stop_position",
          "railway": "stop",
          "ref": "MPKT:1;2",
          "train": "yes"
        }
      },
      {
        "type": "node",
        "id": 2440033626,
        "lat": 13.0620574,
        "lon": 80.2805626,
        "tags": {
          "name": "Chepauk",
          "public_transport": "stop_position",
          "railway": "stop",
          "train": "yes"
        }
      },
      {
        "type": "node",
        "id": 2481258995,
        "lat": 13.079587,
        "lon": 80.2762947,
        "tags": {
          "name": "Chennai Park Town",
          "name:ml": "\u0d2a\u0d3e\u0d7c\u0d15\u0d4d\u0d15\u0d4d \u0d1f\u0d57\u0d7a",
          "name:ta": "\u0baa\u0bc2\u0b99\u0bcd\u0b95\u0bbe \u0ba8\u0b95\u0bb0\u0bcd",
          "network": "IR",
          "operator": "SR",
          "public_transport": "station",
          "railway": "station",
          "ref": "MPKT",
          "train": "yes",
          "wikidata": "Q5091453",
          "wikipedia": "en:Chennai Park Town railway station"
        }
      },
      {
        "type": "node",
        "id": 2481258999,
        "lat": 13.0807537,
        "lon": 80.2730879,
        "tags": {
          "internet_access": "no",
          "name": "Chennai Park",
          "name:ml": "\u0d1a\u0d46\u0d28\u0d4d\u0d28\u0d48 \u0d2a\u0d3e\u0d7c\u0d15\u0d4d\u0d15\u0d4d",
          "name:ta": "\u0b9a\u0bc6\u0ba9\u0bcd\u0ba9\u0bc8 \u0baa\u0bc2\u0b99\u0bcd\u0b95\u0bbe",
          "network": "IR",
          "operator": "SR",
          "public_transport": "station",
          "railway": "station",
          "ref": "MPK",
          "wikidata": "Q5091452",
          "wikipedia": "en:Chennai Park railway station"
        }
      },
      {
        "type": "node",
        "id": 2481259034,
        "lat": 13.0741931,
        "lon": 80.2422047,
        "tags": {
          "public_transport": "stop_position"
        }
      },
      {
        "type": "node",
        "id": 2481259036,
        "lat": 13.0776606,
        "lon": 80.2600514,
        "tags": {
          "public_transport": "stop_position",
          "railway": "stop",
          "train": "yes"
        }
      },
      {
        "type": "node",
        "id": 2481259037,
        "lat": 13.0776988,
        "lon": 80.2600443,
        "tags": {
          "public_transport": "stop_position",
          "railway": "stop",
          "train": "yes"
        }
      },
      {
        "type": "node",
        "id": 2481259038,
        "lat": 13.0780514,
        "lon": 80.2615176,
        "tags": {
          "public_transport": "stop_position",
          "railway": "stop",
          "train": "yes"
        }
      },
      {
        "type": "node",
        "id": 2481259039,
        "lat": 13.0781047,
        "lon": 80.2615048,
        "tags": {
          "public_transport": "stop_position",
          "railway": "stop",
          "train": "yes"
        }
      },
      {
        "type": "node",
        "id": 2481259040,
        "lat": 13.0782233,
        "lon": 80.2614998,
        "tags": {
          "public_transport": "stop_position",
          "railway": "stop",
          "train": "yes"
        }
      },
      {
        "type": "node",
        "id": 2481259041,
        "lat": 13.0783611,
        "lon": 80.26146,
        "tags": {
          "public_transport": "stop_position",
          "railway": "stop",
          "train": "yes"
        }
      },
      {
        "type": "node",
        "id": 2481259042,
        "lat": 13.0784164,
        "lon": 80.2614501,
        "tags": {
          "public_transport": "stop_position",
          "railway": "stop",
          "train": "yes"
        }
      },
      {
        "type": "node",
        "id": 2481259043,
        "lat": 13.0785478,
        "lon": 80.2614302,
        "tags": {
          "public_transport": "stop_position",
          "railway": "stop",
          "train": "yes"
        }
      },
      {
        "type": "node",
        "id": 2481259044,
        "lat": 13.0785891,
        "lon": 80.2614185,
        "tags": {
          "public_transport": "stop_position",
          "railway": "stop",
          "train": "yes"
        }
      },
      {
        "type": "node",
        "id": 2481259045,
        "lat": 13.0787267,
        "lon": 80.2614163,
        "tags": {
          "public_transport": "stop_position",
          "railway": "stop",
          "train": "yes"
        }
      },
      {
        "type": "node",
        "id": 2481969291,
        "lat": 13.0824232,
        "lon": 80.2759622,
        "tags": {
          "alt_name": "Chennai Central",
          "int_name": "Chennai Central",
          "internet_access": "wlan",
          "name": "Puratchi Thalaivar Dr. M. G. Ramachandran Central",
          "name:ml": "\u0d2a\u0d41\u0d30\u0d1f\u0d4d\u0d1a\u0d3f \u0d24\u0d32\u0d48\u0d35\u0d7c \u0d21\u0d4b.\u0d0e\u0d02.\u0d1c\u0d3f.\u0d30\u0d3e\u0d2e\u0d1a\u0d28\u0d4d\u0d26\u0d4d\u0d30\u0d7b \u0d38\u0d46\u0d7b\u0d1f\u0d4d\u0d30\u0d7d",
          "name:ta": "\u0b9a\u0bc6\u0ba9\u0bcd\u0ba9\u0bc8 - \u0baa\u0bc1\u0bb0\u0b9f\u0bcd\u0b9a\u0bbf \u0ba4\u0bb2\u0bc8\u0bb5\u0bb0\u0bcd \u0b9f\u0bbe. \u0b8e\u0bae\u0bcd. \u0b9c\u0bbf. \u0bb0\u0bbe\u0bae\u0b9a\u0bcd\u0b9a\u0ba8\u0bcd\u0ba4\u0bbf\u0bb0\u0ba9\u0bcd \u0b9a\u0bc6\u0ba9\u0bcd\u0b9f\u0bcd\u0bb0\u0bb2\u0bcd",
          "network": "IR",
          "old_name": "Madras Central",
          "operator": "SR",
          "public_transport": "station",
          "railway": "station",
          "ref": "MAS",
          "wikidata": "Q257382",
          "wikipedia": "en:Chennai Central railway station"
        }
      },
      {
        "type": "node",
        "id": 2482238496,
        "lat": 13.0643044,
        "lon": 80.2586227,
        "tags": {
          "amenity": "theatre"
        }
      },
      {
        "type": "node",
        "id": 2486239287,
        "lat": 13.0619312,
        "lon": 80.280596,
        "tags": {
          "internet_access": "no",
          "name": "Chepauk",
          "name:ta": "\u0b9a\u0bc7\u0baa\u0bcd\u0baa\u0bbe\u0b95\u0bcd\u0b95\u0bae\u0bcd",
          "network": "IR",
          "operator": "SR",
          "public_transport": "station",
          "railway": "station",
          "ref": "MCPK",
          "train": "yes",
          "wikidata": "Q5091698",
          "wikipedia": "en:Chepauk railway station"
        }
      },
      {
        "type": "node",
        "id": 3693619427,
        "lat": 13.0587298,
        "lon": 80.263784,
        "tags": {
          "amenity": "cinema",
          "name": "Escape Cinemas"
        }
      },
      {
        "type": "node",
        "id": 4308320193,
        "lat": 13.072324,
        "lon": 80.2602653,
        "tags": {
          "addr:postcode": "600008",
          "addr:street": "Pantheon Road",
          "amenity": "fuel",
          "brand": "Bharat Petroleum",
          "brand:wikidata": "Q854826",
          "name": "Bharat Petroleum Bunk"
        }
      },
      {
        "type": "node",
        "id": 4359466591,
        "lat": 13.0649955,
        "lon": 80.2432915,
        "tags": {
          "addr:street": "Valluvar Kottam High Road",
          "amenity": "fuel",
          "brand": "Bharat Petroleum",
          "brand:wikidata": "Q854826",
          "brand:wikipedia": "en:Bharat Petroleum",
          "name": "Bharat Petroleum",
          "name:en": "Bharat Petroleum",
          "operator": "Bharat Petroleum"
        }
      },
      {
        "type": "node",
        "id": 4373454389,
        "lat": 13.0862888,
        "lon": 80.2481075,
        "tags": {
          "amenity": "cinema",
          "name:en": "abirami mega mall"
        }
      },
      {
        "type": "node",
        "id": 4393828696,
        "lat": 13.0835855,
        "lon": 80.2739849,
        "tags": {
          "name": "Moore Market Complex",
          "public_transport": "stop_position",
          "railway": "stop",
          "ref": "16",
          "train": "yes"
        }
      },
      {
        "type": "node",
        "id": 4393828697,
        "lat": 13.0835994,
        "lon": 80.2741136,
        "tags": {
          "name": "Moore Market Complex",
          "public_transport": "stop_position",
          "railway": "stop",
          "ref": "15",
          "train": "yes"
        }
      },
      {
        "type": "node",
        "id": 4393828698,
        "lat": 13.083603,
        "lon": 80.274255,
        "tags": {
          "name": "Moore Market Complex",
          "public_transport": "stop_position",
          "railway": "stop",
          "ref": "14",
          "train": "yes"
        }
      },
      {
        "type": "node",
        "id": 4627597189,
        "lat": 13.0920509,
        "lon": 80.2512648,
        "tags": {
          "amenity": "fuel",
          "name:en": "IOC - Otteri"
        }
      },
      {
        "type": "node",
        "id": 5275790188,
        "lat": 13.0777493,
        "lon": 80.2612572,
        "tags": {
          "internet_access": "wlan",
          "name": "Chennai Egmore",
          "name:ml": "\u0d1a\u0d46\u0d28\u0d4d\u0d28\u0d48 \u0d0e\u0d34\u0d41\u0d2e\u0d4d\u0d2a\u0d42\u0d7c",
          "name:ta": "\u0b9a\u0bc6\u0ba9\u0bcd\u0ba9\u0bc8 \u0b8e\u0bb4\u0bc1\u0bae\u0bcd\u0baa\u0bc2\u0bb0\u0bcd",
          "network": "IR",
          "operator": "SR",
          "public_transport": "station",
          "railway": "station",
          "ref": "MS",
          "survey:date": "2021-04-11",
          "wheelchair": "yes",
          "wikidata": "Q3536643",
          "wikipedia": "en:Chennai Egmore railway station"
        }
      },
      {
        "type": "node",
        "id": 5310193402,
        "lat": 13.0744209,
        "lon": 80.2737533,
        "tags": {
          "name": "Chintadaripet",
          "public_transport": "stop_position",
          "railway": "stop",
          "train": "yes"
        }
      },
      {
        "type": "node",
        "id": 5311755231,
        "lat": 13.0737952,
        "lon": 80.2738611,
        "tags": {
          "internet_access": "no",
          "name": "Chintadaripet",
          "name:ml": "\u0d1a\u0d3f\u0d28\u0d4d\u0d24\u0d3e\u0d26\u0d4d\u0d30\u0d3f\u0d2a\u0d47\u0d1f\u0d4d\u0d1f",
          "name:ta": "\u0b9a\u0bbf\u0ba8\u0bcd\u0ba4\u0bbe\u0ba4\u0bbf\u0bb0\u0bbf\u0baa\u0bcd\u0baa\u0bc7\u0b9f\u0bcd\u0b9f\u0bc8",
          "network": "IR",
          "operator": "SR",
          "public_transport": "station",
          "railway": "station",
          "ref": "MCPT",
          "train": "yes",
          "wikidata": "Q5101294",
          "wikipedia": "en:Chintadripet railway station"
        }
      },
      {
        "type": "node",
        "id": 5328279392,
        "lat": 13.0787744,
        "lon": 80.2504742,
        "tags": {
          "name": "Nehru Park",
          "name:ta": "\u0ba8\u0bc7\u0bb0\u0bc1 \u0baa\u0bc2\u0b99\u0bcd\u0b95\u0bbe",
          "network": "Chennai Metro",
          "note": "Contributors are requested to not edit the \"network\" and the \"operator\" tags. (2023/11/08)",
          "operator": "Chennai Metro Rail Limited",
          "public_transport": "stop_position",
          "railway": "stop",
          "subway": "yes"
        }
      },
      {
        "type": "node",
        "id": 5328279403,
        "lat": 13.0802705,
        "lon": 80.2630584,
        "tags": {
          "name": "Egmore Metro",
          "name:ta": "\u0b8e\u0bb4\u0bc1\u0bae\u0bcd\u0baa\u0bc2\u0bb0\u0bcd",
          "network": "Chennai Metro",
          "note": "Contributors are requested to not edit the \"network\" and the \"operator\" tags. (2023/11/08)",
          "operator": "Chennai Metro Rail Limited",
          "public_transport": "stop_position",
          "railway": "stop",
          "subway": "yes"
        }
      },
      {
        "type": "node",
        "id": 5329907486,
        "lat": 13.0776268,
        "lon": 80.2426237,
        "tags": {
          "name": "Kilpauk",
          "name:ta": "\u0b95\u0bc0\u0bb4\u0bcd\u0baa\u0bbe\u0b95\u0bcd\u0b95\u0bae\u0bcd",
          "network": "Chennai Metro",
          "note": "Contributors are requested to not edit the \"network\" and the \"operator\" tags. (2023/11/08)",
          "operator": "Chennai Metro Rail Limited",
          "public_transport": "stop_position",
          "railway": "stop",
          "subway": "yes"
        }
      },
      {
        "type": "node",
        "id": 5329907487,
        "lat": 13.0776371,
        "lon": 80.2426191,
        "tags": {
          "name": "Kilpauk",
          "name:ml": "\u0d15\u0d40\u0d34\u0d4d\u0d2a\u0d3e\u0d15\u0d4d\u0d15\u0d02",
          "name:ta": "\u0b95\u0bc0\u0bb4\u0bcd\u0baa\u0bbe\u0b95\u0bcd\u0b95\u0bae\u0bcd",
          "network": "Chennai Metro",
          "network:wikidata": "Q1639576",
          "note": "Contributors are requested to not edit the \"network\" and the \"operator\" tags. (2023/11/08)",
          "operator": "Chennai Metro Rail Limited",
          "public_transport": "station",
          "railway": "station",
          "railway:ref": "SKM",
          "ref": "SKM",
          "station": "subway",
          "subway": "yes",
          "wikidata": "Q30638925",
          "wikipedia": "en:Kilpauk Medical College metro station"
        }
      },
      {
        "type": "node",
        "id": 5329907490,
        "lat": 13.0787841,
        "lon": 80.250473,
        "tags": {
          "internet_access": "no",
          "name": "Nehru Park",
          "name:ml": "\u0d28\u0d46\u0d39\u0d4d\u200c\u0d31\u0d41 \u0d2a\u0d3e\u0d7c\u0d15\u0d4d\u0d15\u0d4d",
          "name:ta": "\u0ba8\u0bc7\u0bb0\u0bc1 \u0baa\u0bc2\u0b99\u0bcd\u0b95\u0bbe",
          "network": "Chennai Metro",
          "network:wikidata": "Q1639576",
          "note": "Contributors are requested to not edit the \"network\" and the \"operator\" tags. (2023/11/08)",
          "operator": "Chennai Metro Rail Limited",
          "public_transport": "station",
          "railway": "station",
          "railway:ref": "SNP",
          "ref": "SNP",
          "station": "subway",
          "subway": "yes",
          "wikidata": "Q30638924",
          "wikipedia": "en:Nehru Park metro station"
        }
      },
      {
        "type": "node",
        "id": 5329907499,
        "lat": 13.0802807,
        "lon": 80.2630546,
        "tags": {
          "name": "Egmore Metro",
          "name:ml": "\u0d0e\u0d34\u0d41\u0d2e\u0d4d\u0d2a\u0d42\u0d7c",
          "name:ta": "\u0b8e\u0bb4\u0bc1\u0bae\u0bcd\u0baa\u0bc2\u0bb0\u0bcd",
          "network": "Chennai Metro",
          "network:wikidata": "Q1639576",
          "note": "Contributors are requested to not edit the \"network\" and the \"operator\" tags. (2023/11/08)",
          "operator": "Chennai Metro Rail Limited",
          "public_transport": "station",
          "railway": "station",
          "railway:ref": "SEG",
          "ref": "SEG",
          "station": "subway",
          "subway": "yes",
          "wikidata": "Q30638926",
          "wikipedia": "en:Egmore metro station"
        }
      },
      {
        "type": "node",
        "id": 5329907502,
        "lat": 13.0817666,
        "lon": 80.2739102,
        "tags": {
          "name": "Central Metro",
          "network": "Chennai Metro",
          "note": "Contributors are requested to not edit the \"network\" and the \"operator\" tags. (2023/11/08)",
          "operator": "Chennai Metro Rail Limited",
          "public_transport": "stop_position",
          "railway": "stop",
          "subway": "yes"
        }
      },
      {
        "type": "node",
        "id": 5337407346,
        "lat": 13.0585155,
        "lon": 80.2587833,
        "tags": {
          "name": "\u0b86\u0baf\u0bbf\u0bb0\u0bae\u0bcd \u0bb5\u0bbf\u0bb3\u0b95\u0bcd\u0b95\u0bc1",
          "name:en": "Thousand Lights",
          "name:ml": "\u0d06\u0d2f\u0d3f\u0d30\u0d02 \u0d35\u0d3f\u0d33\u0d15\u0d4d\u0d15\u0d4d",
          "name:ta": "\u0b86\u0baf\u0bbf\u0bb0\u0bae\u0bcd \u0bb5\u0bbf\u0bb3\u0b95\u0bcd\u0b95\u0bc1",
          "network": "Chennai Metro",
          "network:wikidata": "Q1639576",
          "note": "Contributors are requested to not edit the \"network\" and the \"operator\" tags. (2023/11/08)",
          "operator": "Chennai Metro Rail Limited",
          "public_transport": "station",
          "railway": "station",
          "railway:ref": "STL",
          "ref": "STL",
          "station": "subway",
          "subway": "yes",
          "wikidata": "Q62005544",
          "wikipedia": "en:Thousand Lights metro station"
        }
      },
      {
        "type": "node",
        "id": 5337407350,
        "lat": 13.0643716,
        "lon": 80.2658465,
        "tags": {
          "name": "\u0b8e\u0bb2\u0bcd \u0b90 \u0b9a\u0bbf",
          "name:en": "LIC",
          "name:ml": "\u0d0e\u0d7d\u0d10\u0d38\u0d3f",
          "name:ta": "\u0b8e\u0bb2\u0bcd \u0b90 \u0b9a\u0bbf",
          "network": "Chennai Metro",
          "network:wikidata": "Q1639576",
          "note": "Contributors are requested to not edit the \"network\" and the \"operator\" tags. (2023/11/08)",
          "operator": "Chennai Metro Rail Limited",
          "public_transport": "station",
          "railway": "station",
          "railway:ref": "SLI",
          "ref": "SLI",
          "station": "subway",
          "subway": "yes",
          "wikidata": "Q62005418",
          "wikipedia": "en:LIC metro station"
        }
      },
      {
        "type": "node",
        "id": 5337407354,
        "lat": 13.0696345,
        "lon": 80.2730362,
        "tags": {
          "name": "\u0b85\u0bb0\u0b9a\u0bbf\u0ba9\u0bb0\u0bcd \u0ba4\u0bcb\u0b9f\u0bcd\u0b9f\u0bae\u0bcd",
          "name:en": "Government Estate",
          "name:ml": "\u0d38\u0d7c\u0d15\u0d4d\u0d15\u0d3e\u0d7c \u0d0e\u0d38\u0d4d\u0d31\u0d4d\u0d31\u0d47\u0d31\u0d4d\u0d31\u0d4d",
          "name:ta": "\u0b85\u0bb0\u0b9a\u0bbf\u0ba9\u0bb0\u0bcd \u0ba4\u0bcb\u0b9f\u0bcd\u0b9f\u0bae\u0bcd",
          "network": "Chennai Metro",
          "network:wikidata": "Q1639576",
          "note": "Contributors are requested to not edit the \"network\" and the \"operator\" tags. (2023/11/08)",
          "operator": "Chennai Metro Rail Limited",
          "public_transport": "station",
          "railway": "station",
          "railway:ref": "SGE",
          "ref": "SGE",
          "station": "subway",
          "subway": "yes",
          "wikidata": "Q62005539",
          "wikipedia": "en:Government Estate metro station"
        }
      },
      {
        "type": "node",
        "id": 5460685950,
        "lat": 13.0653877,
        "lon": 80.2676197,
        "tags": {
          "bus": "yes",
          "name": "LIC",
          "operator": "MTC",
          "public_transport": "stop_position"
        }
      },
      {
        "type": "node",
        "id": 5744866566,
        "lat": 13.07198,
        "lon": 80.2598553,
        "tags": {
          "amenity": "fuel",
          "brand": "Hindustan Petroleum",
          "brand:wikidata": "Q1619375",
          "brand:wikipedia": "en:Hindustan Petroleum",
          "name": "HP",
          "official_name": "Hindustan Petroleum",
          "operator": "HP"
        }
      },
      {
        "type": "node",
        "id": 5817838780,
        "lat": 13.0832404,
        "lon": 80.2829044,
        "tags": {
          "local_ref": "3",
          "name": "Chennai Fort",
          "public_transport": "stop_position",
          "railway": "stop",
          "ref": "MSF:3",
          "train": "yes"
        }
      },
      {
        "type": "node",
        "id": 6285857250,
        "lat": 13.0816876,
        "lon": 80.2739223,
        "tags": {
          "name": "Central Metro",
          "network": "Chennai Metro",
          "note": "Contributors are requested to not edit the \"network\" and the \"operator\" tags. (2023/11/08)",
          "operator": "Chennai Metro Rail Limited",
          "public_transport": "stop_position",
          "railway": "stop",
          "station": "subway",
          "subway": "yes"
        }
      },
      {
        "type": "node",
        "id": 6285857251,
        "lat": 13.0817126,
        "lon": 80.2739184,
        "tags": {
          "name": "Central Metro",
          "network": "Chennai Metro",
          "note": "Contributors are requested to not edit the \"network\" and the \"operator\" tags. (2023/11/08)",
          "operator": "Chennai Metro Rail Limited",
          "public_transport": "stop_position",
          "railway": "stop",
          "station": "subway",
          "subway": "yes"
        }
      },
      {
        "type": "node",
        "id": 6285857252,
        "lat": 13.0817435,
        "lon": 80.2739136,
        "tags": {
          "name": "Central Metro",
          "network": "Chennai Metro",
          "note": "Contributors are requested to not edit the \"network\" and the \"operator\" tags. (2023/11/08)",
          "operator": "Chennai Metro Rail Limited",
          "public_transport": "stop_position",
          "railway": "stop",
          "subway": "yes"
        }
      },
      {
        "type": "node",
        "id": 6285857253,
        "lat": 13.0817254,
        "lon": 80.273916,
        "tags": {
          "internet_access": "no",
          "name": "Chennai Central",
          "name:en": "Chennai Central",
          "name:ml": "\u0d1a\u0d46\u0d28\u0d4d\u0d28\u0d48 \u0d38\u0d46\u0d7b\u0d1f\u0d4d\u0d30\u0d7d",
          "name:ta": "\u0b9a\u0bc6\u0ba9\u0bcd\u0ba9\u0bc8 \u0bae\u0ba4\u0bcd\u0ba4\u0bbf\u0baf \u0bb0\u0baf\u0bbf\u0bb2\u0bcd \u0ba8\u0bbf\u0bb2\u0bc8\u0baf\u0bae\u0bcd",
          "network": "Chennai Metro",
          "note": "Contributors are requested to not edit the \"network\" and the \"operator\" tags. (2023/11/08)",
          "operator": "Chennai Metro Rail Limited",
          "public_transport": "station",
          "railway": "station",
          "railway:ref": "SCC",
          "ref": "SCC",
          "station": "subway",
          "subway": "yes",
          "wikidata": "Q5091428",
          "wikipedia": "en:Chennai Central metro station"
        }
      },
      {
        "type": "node",
        "id": 6397600719,
        "lat": 13.0696147,
        "lon": 80.2731105,
        "tags": {
          "name": "\u0b85\u0bb0\u0b9a\u0bbf\u0ba9\u0bb0\u0bcd \u0ba4\u0bcb\u0b9f\u0bcd\u0b9f\u0bae\u0bcd",
          "name:en": "Government Estate",
          "name:ta": "\u0b85\u0bb0\u0b9a\u0bbf\u0ba9\u0bb0\u0bcd \u0ba4\u0bcb\u0b9f\u0bcd\u0b9f\u0bae\u0bcd",
          "network": "Chennai Metro",
          "note": "Contributors are requested to not edit the \"network\" and the \"operator\" tags. (2023/11/08)",
          "operator": "Chennai Metro Rail Limited",
          "public_transport": "stop_position",
          "railway": "stop",
          "station": "subway",
          "subway": "yes"
        }
      },
      {
        "type": "node",
        "id": 6397600720,
        "lat": 13.0643478,
        "lon": 80.265862,
        "tags": {
          "name": "\u0b8e\u0bb2\u0bcd \u0b90 \u0b9a\u0bbf",
          "name:en": "LIC",
          "name:ta": "\u0b8e\u0bb2\u0bcd \u0b90 \u0b9a\u0bbf",
          "network": "Chennai Metro",
          "note": "Contributors are requested to not edit the \"network\" and the \"operator\" tags. (2023/11/08)",
          "operator": "Chennai Metro Rail Limited",
          "public_transport": "stop_position",
          "railway": "stop",
          "station": "subway",
          "subway": "yes"
        }
      },
      {
        "type": "node",
        "id": 6397600721,
        "lat": 13.0643999,
        "lon": 80.26583,
        "tags": {
          "name": "\u0b8e\u0bb2\u0bcd \u0b90 \u0b9a\u0bbf",
          "name:en": "LIC",
          "name:ta": "\u0b8e\u0bb2\u0bcd \u0b90 \u0b9a\u0bbf",
          "network": "Chennai Metro",
          "note": "Contributors are requested to not edit the \"network\" and the \"operator\" tags. (2023/11/08)",
          "operator": "Chennai Metro Rail Limited",
          "public_transport": "stop_position",
          "railway": "stop",
          "station": "subway",
          "subway": "yes"
        }
      },
      {
        "type": "node",
        "id": 6397600722,
        "lat": 13.0586219,
        "lon": 80.2587519,
        "tags": {
          "name": "\u0b86\u0baf\u0bbf\u0bb0\u0bae\u0bcd \u0bb5\u0bbf\u0bb3\u0b95\u0bcd\u0b95\u0bc1",
          "name:en": "Thousand Lights",
          "name:ta": "\u0b86\u0baf\u0bbf\u0bb0\u0bae\u0bcd \u0bb5\u0bbf\u0bb3\u0b95\u0bcd\u0b95\u0bc1",
          "network": "Chennai Metro",
          "note": "Contributors are requested to not edit the \"network\" and the \"operator\" tags. (2023/11/08)",
          "operator": "Chennai Metro Rail Limited",
          "public_transport": "stop_position",
          "railway": "stop",
          "station": "subway",
          "subway": "yes"
        }
      },
      {
        "type": "node",
        "id": 6397600723,
        "lat": 13.0585796,
        "lon": 80.258773,
        "tags": {
          "name": "\u0b86\u0baf\u0bbf\u0bb0\u0bae\u0bcd \u0bb5\u0bbf\u0bb3\u0b95\u0bcd\u0b95\u0bc1",
          "name:en": "Thousand Lights",
          "name:ta": "\u0b86\u0baf\u0bbf\u0bb0\u0bae\u0bcd \u0bb5\u0bbf\u0bb3\u0b95\u0bcd\u0b95\u0bc1",
          "network": "Chennai Metro",
          "note": "Contributors are requested to not edit the \"network\" and the \"operator\" tags. (2023/11/08)",
          "operator": "Chennai Metro Rail Limited",
          "public_transport": "stop_position",
          "railway": "stop",
          "station": "subway",
          "subway": "yes"
        }
      },
      {
        "type": "node",
        "id": 7057699185,
        "lat": 13.0722894,
        "lon": 80.2517008,
        "tags": {
          "amenity": "fuel",
          "brand": "Indian Oil",
          "brand:wikidata": "Q1289348",
          "name": "Indian Oil",
          "name:en": "Indian Oil"
        }
      },
      {
        "type": "node",
        "id": 7155445050,
        "lat": 13.0592866,
        "lon": 80.2595105,
        "tags": {
          "bus": "yes",
          "name": "TVS",
          "network": "MTC",
          "operator": "Metropolitan Transport Corporation (Chennai) Ltd.",
          "public_transport": "stop_position"
        }
      },
      {
        "type": "node",
        "id": 7636804603,
        "lat": 13.0835557,
        "lon": 80.275842,
        "tags": {
          "alt_name": "Chennai Central",
          "name": "Puratchi Thalaivar Dr. M. G. Ramachandran Central",
          "name:ta": "\u0b9a\u0bc6\u0ba9\u0bcd\u0ba9\u0bc8 - \u0baa\u0bc1\u0bb0\u0b9f\u0bcd\u0b9a\u0bbf \u0ba4\u0bb2\u0bc8\u0bb5\u0bb0\u0bcd \u0b9f\u0bbe. \u0b8e\u0bae\u0bcd. \u0b9c\u0bbf. \u0bb0\u0bbe\u0bae\u0b9a\u0bcd\u0b9a\u0ba8\u0bcd\u0ba4\u0bbf\u0bb0\u0ba9\u0bcd \u0b9a\u0bc6\u0ba9\u0bcd\u0b9f\u0bcd\u0bb0\u0bb2\u0bcd",
          "public_transport": "stop_position",
          "railway": "stop",
          "ref": "1",
          "train": "yes"
        }
      },
      {
        "type": "node",
        "id": 7636804604,
        "lat": 13.0835516,
        "lon": 80.2758095,
        "tags": {
          "alt_name": "Chennai Central",
          "name": "Puratchi Thalaivar Dr. M. G. Ramachandran Central",
          "name:ta": "\u0b9a\u0bc6\u0ba9\u0bcd\u0ba9\u0bc8 - \u0baa\u0bc1\u0bb0\u0b9f\u0bcd\u0b9a\u0bbf \u0ba4\u0bb2\u0bc8\u0bb5\u0bb0\u0bcd \u0b9f\u0bbe. \u0b8e\u0bae\u0bcd. \u0b9c\u0bbf. \u0bb0\u0bbe\u0bae\u0b9a\u0bcd\u0b9a\u0ba8\u0bcd\u0ba4\u0bbf\u0bb0\u0ba9\u0bcd \u0b9a\u0bc6\u0ba9\u0bcd\u0b9f\u0bcd\u0bb0\u0bb2\u0bcd",
          "public_transport": "stop_position",
          "railway": "stop",
          "ref": "2",
          "train": "yes"
        }
      },
      {
        "type": "node",
        "id": 7636804605,
        "lat": 13.08354,
        "lon": 80.2757,
        "tags": {
          "alt_name": "Chennai Central",
          "name": "Puratchi Thalaivar Dr. M. G. Ramachandran Central",
          "name:ta": "\u0b9a\u0bc6\u0ba9\u0bcd\u0ba9\u0bc8 - \u0baa\u0bc1\u0bb0\u0b9f\u0bcd\u0b9a\u0bbf \u0ba4\u0bb2\u0bc8\u0bb5\u0bb0\u0bcd \u0b9f\u0bbe. \u0b8e\u0bae\u0bcd. \u0b9c\u0bbf. \u0bb0\u0bbe\u0bae\u0b9a\u0bcd\u0b9a\u0ba8\u0bcd\u0ba4\u0bbf\u0bb0\u0ba9\u0bcd \u0b9a\u0bc6\u0ba9\u0bcd\u0b9f\u0bcd\u0bb0\u0bb2\u0bcd",
          "public_transport": "stop_position",
          "railway": "stop",
          "ref": "2A",
          "train": "yes"
        }
      },
      {
        "type": "node",
        "id": 7636804606,
        "lat": 13.0835318,
        "lon": 80.2756071,
        "tags": {
          "alt_name": "Chennai Central",
          "name": "Puratchi Thalaivar Dr. M. G. Ramachandran Central",
          "name:ta": "\u0b9a\u0bc6\u0ba9\u0bcd\u0ba9\u0bc8 - \u0baa\u0bc1\u0bb0\u0b9f\u0bcd\u0b9a\u0bbf \u0ba4\u0bb2\u0bc8\u0bb5\u0bb0\u0bcd \u0b9f\u0bbe. \u0b8e\u0bae\u0bcd. \u0b9c\u0bbf. \u0bb0\u0bbe\u0bae\u0b9a\u0bcd\u0b9a\u0ba8\u0bcd\u0ba4\u0bbf\u0bb0\u0ba9\u0bcd \u0b9a\u0bc6\u0ba9\u0bcd\u0b9f\u0bcd\u0bb0\u0bb2\u0bcd",
          "public_transport": "stop_position",
          "railway": "stop",
          "ref": "3",
          "train": "yes"
        }
      },
      {
        "type": "node",
        "id": 7636804607,
        "lat": 13.0835264,
        "lon": 80.2755696,
        "tags": {
          "alt_name": "Chennai Central",
          "name": "Puratchi Thalaivar Dr. M. G. Ramachandran Central",
          "name:ta": "\u0b9a\u0bc6\u0ba9\u0bcd\u0ba9\u0bc8 - \u0baa\u0bc1\u0bb0\u0b9f\u0bcd\u0b9a\u0bbf \u0ba4\u0bb2\u0bc8\u0bb5\u0bb0\u0bcd \u0b9f\u0bbe. \u0b8e\u0bae\u0bcd. \u0b9c\u0bbf. \u0bb0\u0bbe\u0bae\u0b9a\u0bcd\u0b9a\u0ba8\u0bcd\u0ba4\u0bbf\u0bb0\u0ba9\u0bcd \u0b9a\u0bc6\u0ba9\u0bcd\u0b9f\u0bcd\u0bb0\u0bb2\u0bcd",
          "public_transport": "stop_position",
          "railway": "stop",
          "ref": "4",
          "train": "yes"
        }
      },
      {
        "type": "node",
        "id": 7636804608,
        "lat": 13.08351,
        "lon": 80.2754328,
        "tags": {
          "alt_name": "Chennai Central",
          "name": "Puratchi Thalaivar Dr. M. G. Ramachandran Central",
          "name:ta": "\u0b9a\u0bc6\u0ba9\u0bcd\u0ba9\u0bc8 - \u0baa\u0bc1\u0bb0\u0b9f\u0bcd\u0b9a\u0bbf \u0ba4\u0bb2\u0bc8\u0bb5\u0bb0\u0bcd \u0b9f\u0bbe. \u0b8e\u0bae\u0bcd. \u0b9c\u0bbf. \u0bb0\u0bbe\u0bae\u0b9a\u0bcd\u0b9a\u0ba8\u0bcd\u0ba4\u0bbf\u0bb0\u0ba9\u0bcd \u0b9a\u0bc6\u0ba9\u0bcd\u0b9f\u0bcd\u0bb0\u0bb2\u0bcd",
          "public_transport": "stop_position",
          "railway": "stop",
          "ref": "5",
          "train": "yes"
        }
      },
      {
        "type": "node",
        "id": 7636804609,
        "lat": 13.0835056,
        "lon": 80.2754043,
        "tags": {
          "alt_name": "Chennai Central",
          "name": "Puratchi Thalaivar Dr. M. G. Ramachandran Central",
          "name:ta": "\u0b9a\u0bc6\u0ba9\u0bcd\u0ba9\u0bc8 - \u0baa\u0bc1\u0bb0\u0b9f\u0bcd\u0b9a\u0bbf \u0ba4\u0bb2\u0bc8\u0bb5\u0bb0\u0bcd \u0b9f\u0bbe. \u0b8e\u0bae\u0bcd. \u0b9c\u0bbf. \u0bb0\u0bbe\u0bae\u0b9a\u0bcd\u0b9a\u0ba8\u0bcd\u0ba4\u0bbf\u0bb0\u0ba9\u0bcd \u0b9a\u0bc6\u0ba9\u0bcd\u0b9f\u0bcd\u0bb0\u0bb2\u0bcd",
          "public_transport": "stop_position",
          "railway": "stop",
          "ref": "6",
          "train": "yes"
        }
      },
      {
        "type": "node",
        "id": 7710665289,
        "lat": 13.083673,
        "lon": 80.2747381,
        "tags": {
          "alt_name": "Chennai Central",
          "name": "Puratchi Thalaivar Dr. M. G. Ramachandran Central",
          "name:ta": "\u0b9a\u0bc6\u0ba9\u0bcd\u0ba9\u0bc8 - \u0baa\u0bc1\u0bb0\u0b9f\u0bcd\u0b9a\u0bbf \u0ba4\u0bb2\u0bc8\u0bb5\u0bb0\u0bcd \u0b9f\u0bbe. \u0b8e\u0bae\u0bcd. \u0b9c\u0bbf. \u0bb0\u0bbe\u0bae\u0b9a\u0bcd\u0b9a\u0ba8\u0bcd\u0ba4\u0bbf\u0bb0\u0ba9\u0bcd \u0b9a\u0bc6\u0ba9\u0bcd\u0b9f\u0bcd\u0bb0\u0bb2\u0bcd",
          "public_transport": "stop_position",
          "railway": "stop",
          "ref": "11",
          "train": "yes"
        }
      },
      {
        "type": "node",
        "id": 7710665290,
        "lat": 13.0835317,
        "lon": 80.2751985,
        "tags": {
          "alt_name": "Chennai Central",
          "name": "Puratchi Thalaivar Dr. M. G. Ramachandran Central",
          "name:ta": "\u0b9a\u0bc6\u0ba9\u0bcd\u0ba9\u0bc8 - \u0baa\u0bc1\u0bb0\u0b9f\u0bcd\u0b9a\u0bbf \u0ba4\u0bb2\u0bc8\u0bb5\u0bb0\u0bcd \u0b9f\u0bbe. \u0b8e\u0bae\u0bcd. \u0b9c\u0bbf. \u0bb0\u0bbe\u0bae\u0b9a\u0bcd\u0b9a\u0ba8\u0bcd\u0ba4\u0bbf\u0bb0\u0ba9\u0bcd \u0b9a\u0bc6\u0ba9\u0bcd\u0b9f\u0bcd\u0bb0\u0bb2\u0bcd",
          "public_transport": "stop_position",
          "railway": "stop",
          "ref": "7",
          "train": "yes"
        }
      },
      {
        "type": "node",
        "id": 7710665291,
        "lat": 13.0835267,
        "lon": 80.2751567,
        "tags": {
          "alt_name": "Chennai Central",
          "name": "Puratchi Thalaivar Dr. M. G. Ramachandran Central",
          "name:ta": "\u0b9a\u0bc6\u0ba9\u0bcd\u0ba9\u0bc8 - \u0baa\u0bc1\u0bb0\u0b9f\u0bcd\u0b9a\u0bbf \u0ba4\u0bb2\u0bc8\u0bb5\u0bb0\u0bcd \u0b9f\u0bbe. \u0b8e\u0bae\u0bcd. \u0b9c\u0bbf. \u0bb0\u0bbe\u0bae\u0b9a\u0bcd\u0b9a\u0ba8\u0bcd\u0ba4\u0bbf\u0bb0\u0ba9\u0bcd \u0b9a\u0bc6\u0ba9\u0bcd\u0b9f\u0bcd\u0bb0\u0bb2\u0bcd",
          "public_transport": "stop_position",
          "railway": "stop",
          "ref": "8",
          "train": "yes"
        }
      },
      {
        "type": "node",
        "id": 9504474769,
        "lat": 13.0546591,
        "lon": 80.2643733,
        "tags": {
          "bus": "yes",
          "name": "Royapettah Hospital",
          "public_transport": "stop_position"
        }
      },
      {
        "type": "node",
        "id": 9504474770,
        "lat": 13.057129,
        "lon": 80.2648726,
        "tags": {
          "bus": "yes",
          "name": "Woodlands Theatre / Wesley school",
          "public_transport": "stop_position"
        }
      },
      {
        "type": "node",
        "id": 9504474773,
        "lat": 13.0703667,
        "lon": 80.2737145,
        "tags": {
          "bus": "yes",
          "name": "Simson",
          "public_transport": "stop_position"
        }
      },
      {
        "type": "node",
        "id": 9504474774,
        "lat": 13.0763679,
        "lon": 80.2763591,
        "tags": {
          "bus": "yes",
          "name": "Pallavan Salai",
          "public_transport": "stop_position"
        }
      },
      {
        "type": "node",
        "id": 9504474775,
        "lat": 13.081935,
        "lon": 80.2774889,
        "tags": {
          "bus": "yes",
          "name": "General Hospital",
          "public_transport": "stop_position"
        }
      },
      {
        "type": "node",
        "id": 9885031455,
        "lat": 13.0835608,
        "lon": 80.2738737,
        "tags": {
          "name": "Moore Market Complex",
          "public_transport": "stop_position",
          "railway": "stop",
          "ref": "17",
          "train": "yes"
        }
      },
      {
        "type": "node",
        "id": 9885031456,
        "lat": 13.0836178,
        "lon": 80.2743736,
        "tags": {
          "name": "Moore Market Complex",
          "public_transport": "stop_position",
          "railway": "stop",
          "ref": "13",
          "train": "yes"
        }
      },
      {
        "type": "node",
        "id": 9921938885,
        "lat": 13.0594268,
        "lon": 80.2479477,
        "tags": {
          "bus": "yes",
          "name": "Taj Hotel",
          "public_transport": "stop_position"
        }
      },
      {
        "type": "node",
        "id": 9921938886,
        "lat": 13.060609,
        "lon": 80.2474532,
        "tags": {
          "bus": "yes",
          "fixme": "Check name",
          "name": "Sterling",
          "public_transport": "stop_position"
        }
      },
      {
        "type": "node",
        "id": 9921938887,
        "lat": 13.0666679,
        "lon": 80.247881,
        "tags": {
          "bus": "yes",
          "name": "Haddows Road",
          "public_transport": "stop_position"
        }
      },
      {
        "type": "node",
        "id": 9921938888,
        "lat": 13.0671202,
        "lon": 80.2479099,
        "tags": {
          "bus": "yes",
          "name": "College Road",
          "public_transport": "stop_position"
        }
      },
      {
        "type": "node",
        "id": 9921938889,
        "lat": 13.0677731,
        "lon": 80.2465395,
        "tags": {
          "bus": "yes",
          "name": "College Road",
          "public_transport": "stop_position"
        }
      },
      {
        "type": "node",
        "id": 9921938890,
        "lat": 13.0704688,
        "lon": 80.2420456,
        "tags": {
          "bus": "yes",
          "name": "Chetpet",
          "public_transport": "stop_position"
        }
      },
      {
        "type": "node",
        "id": 9921938891,
        "lat": 13.0787743,
        "lon": 80.2521242,
        "tags": {
          "bus": "yes",
          "name": "KMC",
          "public_transport": "stop_position"
        }
      },
      {
        "type": "node",
        "id": 9921938892,
        "lat": 13.0799617,
        "lon": 80.2546471,
        "tags": {
          "bus": "yes",
          "name": "Purasawalkam",
          "public_transport": "stop_position"
        }
      },
      {
        "type": "node",
        "id": 9921938893,
        "lat": 13.083453,
        "lon": 80.2545545,
        "tags": {
          "bus": "yes",
          "name": "Millers Road",
          "public_transport": "stop_position"
        }
      },
      {
        "type": "node",
        "id": 9921938894,
        "lat": 13.0872312,
        "lon": 80.2507024,
        "tags": {
          "bus": "yes",
          "name": "Mekala Theatre",
          "public_transport": "stop_position"
        }
      },
      {
        "type": "node",
        "id": 9921938895,
        "lat": 13.0906326,
        "lon": 80.2510679,
        "tags": {
          "bus": "yes",
          "name": "RK Mutt Road",
          "public_transport": "stop_position"
        }
      },
      {
        "type": "node",
        "id": 10137228451,
        "lat": 13.0689227,
        "lon": 80.2624415,
        "tags": {
          "amenity": "fuel",
          "brand": "Indian Oil",
          "brand:wikidata": "Q1289348",
          "name": "Indian Oil"
        }
      },
      {
        "type": "node",
        "id": 10139529277,
        "lat": 13.0759096,
        "lon": 80.2640838,
        "tags": {
          "amenity": "fuel",
          "brand": "Indian Oil",
          "brand:wikidata": "Q1289348",
          "name": "Indian Oil"
        }
      },
      {
        "type": "node",
        "id": 10536613506,
        "lat": 13.069942,
        "lon": 80.2725116,
        "tags": {
          "amenity": "fuel",
          "brand": "Bharat Petroleum",
          "brand:wikidata": "Q854826",
          "name": "Bharat Petroleum"
        }
      },
      {
        "type": "node",
        "id": 10931210107,
        "lat": 13.0687954,
        "lon": 80.2558494,
        "tags": {
          "amenity": "fuel",
          "brand": "Bharat Petroleum",
          "brand:wikidata": "Q854826",
          "name": "Bharat Petroleum"
        }
      },
      {
        "type": "node",
        "id": 11345759533,
        "lat": 13.0790936,
        "lon": 80.2499082,
        "tags": {
          "amenity": "fuel",
          "brand": "Bharat Petroleum",
          "brand:wikidata": "Q854826",
          "name": "Bharat Petroleum"
        }
      },
      {
        "type": "node",
        "id": 11495909640,
        "lat": 13.0566431,
        "lon": 80.2644059,
        "tags": {
          "amenity": "fuel",
          "brand": "Indian Oil",
          "brand:wikidata": "Q1289348",
          "name": "Indian Oil"
        }
      },
      {
        "type": "node",
        "id": 11703420865,
        "lat": 13.0579367,
        "lon": 80.2581872,
        "tags": {
          "addr:city": "Chennai",
          "addr:district": "Chennai",
          "addr:housenumber": "189",
          "addr:postcode": "600002",
          "addr:street": "Mount Rd, Anna Salai, Express Estate, Triplicane",
          "name": "Thousand Lights Metro Rail Station - \u0ba4\u0bcc\u0b9a\u0ba9\u0bcd\u0b9f\u0bcd \u0bb2\u0bc8\u0b9f\u0bcd\u0bb8\u0bcd \u0bae\u0bc6\u0b9f\u0bcd\u0bb0\u0bcb \u0bb0\u0baf\u0bbf\u0bb2\u0bcd \u0bb8\u0bcd\u0b9f\u0bc7\u0bb7\u0ba9\u0bcd",
          "public_transport": "station",
          "railway": "station",
          "station": "subway",
          "subway": "yes"
        }
      },
      {
        "type": "node",
        "id": 12460941246,
        "lat": 13.0805405,
        "lon": 80.2665835,
        "tags": {
          "amenity": "fuel",
          "brand": "Bharat Petroleum",
          "brand:wikidata": "Q854826",
          "check_date": "2024-12-29",
          "name": "Bharat Petroleum"
        }
      },
      {
        "type": "node",
        "id": 12546626262,
        "lat": 13.0777478,
        "lon": 80.242907,
        "tags": {
          "bus": "yes",
          "name": "Kilpauk",
          "public_transport": "stop_position"
        }
      },
      {
        "type": "node",
        "id": 12624560446,
        "lat": 13.0791255,
        "lon": 80.261572,
        "tags": {
          "amenity": "charging_station",
          "authentication:app": "yes",
          "brand": "eesl",
          "capacity": "60",
          "covered": "yes",
          "fee": "no",
          "level": "0",
          "motorcar": "yes",
          "motorcycle": "yes",
          "opening_hours": "24/7",
          "socket:type2:output": "22",
          "socket:type2_cable:output": "22",
          "socket:type2_combo": "3",
          "socket:type2_combo:output": "60"
        }
      },
      {
        "type": "node",
        "id": 12794255583,
        "lat": 13.0835001,
        "lon": 80.2749403,
        "tags": {
          "alt_name": "Chennai Central",
          "name": "Puratchi Thalaivar Dr. M. G. Ramachandran Central",
          "name:ta": "\u0b9a\u0bc6\u0ba9\u0bcd\u0ba9\u0bc8 - \u0baa\u0bc1\u0bb0\u0b9f\u0bcd\u0b9a\u0bbf \u0ba4\u0bb2\u0bc8\u0bb5\u0bb0\u0bcd \u0b9f\u0bbe. \u0b8e\u0bae\u0bcd. \u0b9c\u0bbf. \u0bb0\u0bbe\u0bae\u0b9a\u0bcd\u0b9a\u0ba8\u0bcd\u0ba4\u0bbf\u0bb0\u0ba9\u0bcd \u0b9a\u0bc6\u0ba9\u0bcd\u0b9f\u0bcd\u0bb0\u0bb2\u0bcd",
          "public_transport": "stop_position",
          "railway": "stop",
          "ref": "10",
          "train": "yes"
        }
      },
      {
        "type": "node",
        "id": 12794255584,
        "lat": 13.0835059,
        "lon": 80.2749931,
        "tags": {
          "alt_name": "Chennai Central",
          "name": "Puratchi Thalaivar Dr. M. G. Ramachandran Central",
          "name:ta": "\u0b9a\u0bc6\u0ba9\u0bcd\u0ba9\u0bc8 - \u0baa\u0bc1\u0bb0\u0b9f\u0bcd\u0b9a\u0bbf \u0ba4\u0bb2\u0bc8\u0bb5\u0bb0\u0bcd \u0b9f\u0bbe. \u0b8e\u0bae\u0bcd. \u0b9c\u0bbf. \u0bb0\u0bbe\u0bae\u0b9a\u0bcd\u0b9a\u0ba8\u0bcd\u0ba4\u0bbf\u0bb0\u0ba9\u0bcd \u0b9a\u0bc6\u0ba9\u0bcd\u0b9f\u0bcd\u0bb0\u0bb2\u0bcd",
          "public_transport": "stop_position",
          "railway": "stop",
          "ref": "9",
          "train": "yes"
        }
      }
    ]
  }
}