{
  "pois_1km": {
    "version": 0.6,
    "generator": "Overpass API 0.7.62.8 e802775f",
    "osm3s": {
      "timestamp_osm_base": "2025-09-07T14:07:14Z",
      "copyright": "The data included in this document is from www.openstreetmap.org. The data is made available under ODbL."
    },
    "elements": [
      {
        "type": "node",
        "id": 7510640736,
        "lat": 26.8083739,
        "lon": 81.0088859,
        "tags": {
          "addr:district": "Lucknow",
          "addr:full": "Amar Shaheed Path, Gomti Nagar, Lucknow",
          "addr:postcode": "226002",
          "addr:state": "Uttar Pradesh",
          "amenity": "hospital",
          "name": "Mother and Child State Referral Hospital",
          "source": "Local Knowledge"
        }
      },
      {
        "type": "node",
        "id": 10960025374,
        "lat": 26.8083066,
        "lon": 81.0121667,
        "tags": {
          "alt_name": "Kentucky Fried Chicken",
          "alt_name:en": "Kentucky Fried Chicken",
          "alt_name:hi": "\u0915\u0947\u0902\u091f\u0941\u0915\u0940 \u092b\u094d\u0930\u093e\u0907\u0921 \u091a\u093f\u0915\u0928",
          "alt_name:pa": "\u0a15\u0a48\u0a02\u0a1f\u0a41\u0a15\u0a40 \u0a2b\u0a4d\u0a30\u0a3e\u0a08\u0a21 \u0a1a\u0a3f\u0a15\u0a28",
          "alt_name:pnb": "\u06a9\u06cc\u0646\u0679\u06a9\u06cc \u0641\u0631\u0627\u0626\u06cc\u0688 \u0686\u06a9\u0646",
          "alt_name:ur": "\u06a9\u06cc\u0646\u0679\u06a9\u06cc \u0641\u0631\u0627\u0626\u06cc\u0688 \u0686\u06a9\u0646",
          "amenity": "fast_food",
          "brand": "KFC",
          "brand:en": "KFC",
          "brand:hi": "\u0915\u0947\u090f\u092b\u0938\u0940",
          "brand:pa": "\u0a15\u0a47\u0a10\u0a2b\u0a38\u0a40",
          "brand:pnb": "\u06a9\u06d2 \u0627\u06cc\u0641 \u0633\u06cc",
          "brand:ur": "\u06a9\u06d2 \u0627\u06cc\u0641 \u0633\u06cc",
          "brand:wikidata": "Q524757",
          "cuisine": "chicken",
          "name": "KFC",
          "name:en": "KFC",
          "name:hi": "\u0915\u0947\u090f\u092b\u0938\u0940",
          "name:pa": "\u0a15\u0a47\u0a10\u0a2b\u0a38\u0a40",
          "name:pnb": "\u06a9\u06d2 \u0627\u06cc\u0641 \u0633\u06cc",
          "name:ur": "\u06a9\u06d2 \u0627\u06cc\u0641 \u0633\u06cc",
          "takeaway": "yes"
        }
      },
      {
        "type": "node",
        "id": 10960071177,
        "lat": 26.8083886,
        "lon": 81.0088777,
        "tags": {
          "amenity": "hospital",
          "healthcare": "hospital"
        }
      },
      {
        "type": "node",
        "id": 11697775019,
        "lat": 26.809543,
        "lon": 81.0137763,
        "tags": {
          "amenity": "food_court",
          "name": "WOW MOMOS"
        }
      },
      {
        "type": "node",
        "id": 11697792114,
        "lat": 26.8088116,
        "lon": 81.0124802,
        "tags": {
          "amenity": "food_court",
          "name": "Punjab Grill Gomti Nagar"
        }
      },
      {
        "type": "node",
        "id": 11697797760,
        "lat": 26.8051688,
        "lon": 81.0086457,
        "tags": {
          "leisure": "park",
          "name": "Exhibition Ground"
        }
      },
      {
        "type": "node",
        "id": 11697820181,
        "lat": 26.8086095,
        "lon": 81.012727,
        "tags": {
          "amenity": "food_court",
          "name": "Pizza Hut"
        }
      },
      {
        "type": "node",
        "id": 11697879307,
        "lat": 26.8014587,
        "lon": 81.0080117,
        "tags": {
          "amenity": "food_court",
          "name": "Biryani by MBA WALA"
        }
      }
    ]
  },
  "pois_2_5km": {
    "version": 0.6,
    "generator": "Overpass API 0.7.62.8 e802775f",
    "osm3s": {
      "timestamp_osm_base": "2025-09-07T14:07:14Z",
      "copyright": "The data included in this document is from www.openstreetmap.org. The data is made available under ODbL."
    },
    "elements": []
  }
}