{
  "pois_1km": {
    "version": 0.6,
    "generator": "Overpass API 0.7.62.8 e802775f",
    "osm3s": {
      "timestamp_osm_base": "2025-09-07T14:03:01Z",
      "copyright": "The data included in this document is from www.openstreetmap.org. The data is made available under ODbL."
    },
    "elements": [
      {
        "type": "node",
        "id": 7510640763,
        "lat": 26.7776953,
        "lon": 80.9856814,
        "tags": {
          "addr:district": "Lucknow",
          "addr:full": "Amar Shaheed Path, Golf City, Sector A, Lucknow",
          "addr:postcode": "226030",
          "addr:state": "Uttar Pradesh",
          "amenity": "hospital",
          "name": "Medanta Lucknow Hospital",
          "source": "Local Knowledge"
        }
      },
      {
        "type": "node",
        "id": 10959824055,
        "lat": 26.7843937,
        "lon": 80.9914333,
        "tags": {
          "alt_name": "Kentucky Fried Chicken",
          "alt_name:en": "Kentucky Fried Chicken",
          "alt_name:hi": "\u0915\u0947\u0902\u091f\u0941\u0915\u0940 \u092b\u094d\u0930\u093e\u0907\u0921 \u091a\u093f\u0915\u0928",
          "alt_name:pa": "\u0a15\u0a48\u0a02\u0a1f\u0a41\u0a15\u0a40 \u0a2b\u0a4d\u0a30\u0a3e\u0a08\u0a21 \u0a1a\u0a3f\u0a15\u0a28",
          "alt_name:pnb": "\u06a9\u06cc\u0646\u0679\u06a9\u06cc \u0641\u0631\u0627\u0626\u06cc\u0688 \u0686\u06a9\u0646",
          "alt_name:ur": "\u06a9\u06cc\u0646\u0679\u06a9\u06cc \u0641\u0631\u0627\u0626\u06cc\u0688 \u0686\u06a9\u0646",
          "amenity": "fast_food",
          "brand": "KFC",
          "brand:en": "KFC",
          "brand:hi": "\u0915\u0947\u090f\u092b\u0938\u0940",
          "brand:pa": "\u0a15\u0a47\u0a10\u0a2b\u0a38\u0a40",
          "brand:pnb": "\u06a9\u06d2 \u0627\u06cc\u0641 \u0633\u06cc",
          "brand:ur": "\u06a9\u06d2 \u0627\u06cc\u0641 \u0633\u06cc",
          "brand:wikidata": "Q524757",
          "cuisine": "chicken",
          "name": "KFC",
          "name:en": "KFC",
          "name:hi": "\u0915\u0947\u090f\u092b\u0938\u0940",
          "name:pa": "\u0a15\u0a47\u0a10\u0a2b\u0a38\u0a40",
          "name:pnb": "\u06a9\u06d2 \u0627\u06cc\u0641 \u0633\u06cc",
          "name:ur": "\u06a9\u06d2 \u0627\u06cc\u0641 \u0633\u06cc",
          "takeaway": "yes"
        }
      },
      {
        "type": "node",
        "id": 10959838571,
        "lat": 26.7815349,
        "lon": 80.989722,
        "tags": {
          "amenity": "clinic",
          "healthcare": "clinic",
          "name": "Homeopathy"
        }
      },
      {
        "type": "node",
        "id": 10959838691,
        "lat": 26.7855815,
        "lon": 80.9923674,
        "tags": {
          "brand": "Lulu Hypermarket",
          "brand:wikidata": "Q6702930",
          "name": "Lulu Hypermarket",
          "shop": "supermarket"
        }
      },
      {
        "type": "node",
        "id": 10959917781,
        "lat": 26.7812179,
        "lon": 80.989609,
        "tags": {
          "amenity": "bank",
          "brand": "State Bank of India",
          "brand:wikidata": "Q1340361",
          "name": "State Bank of India",
          "operator": "State Bank of India",
          "short_name": "SBI"
        }
      },
      {
        "type": "node",
        "id": 10960076316,
        "lat": 26.7806462,
        "lon": 80.9876143,
        "tags": {
          "leisure": "garden"
        }
      },
      {
        "type": "node",
        "id": 10960078823,
        "lat": 26.7782311,
        "lon": 81.0012038,
        "tags": {
          "leisure": "park"
        }
      },
      {
        "type": "node",
        "id": 11697624015,
        "lat": 26.7768094,
        "lon": 80.986995,
        "tags": {
          "amenity": "food_court",
          "name": "Veere Da Dhaba"
        }
      }
    ]
  },
  "pois_2_5km": {
    "version": 0.6,
    "generator": "Overpass API 0.7.62.8 e802775f",
    "osm3s": {
      "timestamp_osm_base": "2025-09-07T14:03:01Z",
      "copyright": "The data included in this document is from www.openstreetmap.org. The data is made available under ODbL."
    },
    "elements": [
      {
        "type": "node",
        "id": 11734018072,
        "lat": 26.7837995,
        "lon": 80.9891435,
        "tags": {
          "amenity": "fuel",
          "brand": "Indian Oil",
          "brand:wikidata": "Q1289348",
          "name": "Indian Oil"
        }
      }
    ]
  }
}