{
  "pois_1km": {
    "version": 0.6,
    "generator": "Overpass API 0.7.62.8 e802775f",
    "osm3s": {
      "timestamp_osm_base": "2025-09-07T14:04:04Z",
      "copyright": "The data included in this document is from www.openstreetmap.org. The data is made available under ODbL."
    },
    "elements": [
      {
        "type": "node",
        "id": 4283773589,
        "lat": 26.8508309,
        "lon": 80.9648847,
        "tags": {
          "amenity": "fast_food",
          "cuisine": "ice_cream",
          "name": "Parag"
        }
      },
      {
        "type": "node",
        "id": 6005264685,
        "lat": 26.8474755,
        "lon": 80.9465305,
        "tags": {
          "addr:street": "Ashok Marg",
          "amenity": "cafe",
          "name:en": "Indian Coffee House",
          "phone": "+914872335275",
          "website": "http://indiancoffeehouse.com"
        }
      },
      {
        "type": "node",
        "id": 7025215055,
        "lat": 26.8468326,
        "lon": 80.9612767,
        "tags": {
          "addr:district": "Lucknow",
          "addr:full": "2 Lucknow Cancer Institute, 1 Manas Nagar, Jaimau",
          "addr:postcode": "226001",
          "addr:state": "Uttar Pradesh",
          "amenity": "hospital",
          "name": "Raj Scanning Ltd and Lucknow Cancer Institute",
          "source": "OpenGovernmentData"
        }
      },
      {
        "type": "node",
        "id": 7027402676,
        "lat": 26.8581002,
        "lon": 80.9569243,
        "tags": {
          "addr:district": "Lucknow",
          "addr:full": "1/2, Gokhale Marg",
          "addr:postcode": "226001",
          "addr:state": "Uttar Pradesh",
          "amenity": "clinic",
          "name": "Healing Touch Nursing Home",
          "source": "OpenGovernmentData"
        }
      },
      {
        "type": "node",
        "id": 7030703294,
        "lat": 26.8505198,
        "lon": 80.959961,
        "tags": {
          "addr:district": "Lucknow",
          "addr:full": "Dalibagh Enclave Road, Pinki Apartment, Near Ganna Sansthan",
          "addr:postcode": "226001",
          "addr:state": "Uttar Pradesh",
          "amenity": "clinic",
          "name": "Dr Begs Child Care",
          "source": "OpenGovernmentData"
        }
      },
      {
        "type": "node",
        "id": 7039962696,
        "lat": 26.8488382,
        "lon": 80.9460801,
        "tags": {
          "addr:district": "Lucknow",
          "addr:full": "Kala Bhwan, 6 Newul Kishore Road",
          "addr:postcode": "226001",
          "addr:state": "Uttar Pradesh",
          "amenity": "clinic",
          "name": "Brahmaesh Orthopaedic And Taruma Centre",
          "source": "OpenGovernmentData"
        }
      }
    ]
  },
  "pois_2_5km": {
    "version": 0.6,
    "generator": "Overpass API 0.7.62.8 e802775f",
    "osm3s": {
      "timestamp_osm_base": "2025-09-07T14:04:04Z",
      "copyright": "The data included in this document is from www.openstreetmap.org. The data is made available under ODbL."
    },
    "elements": [
      {
        "type": "node",
        "id": 534852993,
        "lat": 26.8707127,
        "lon": 80.9630368,
        "tags": {
          "amenity": "fuel",
          "name": "IOCL",
          "operator": "IOCL"
        }
      },
      {
        "type": "node",
        "id": 2213443829,
        "lat": 26.8689884,
        "lon": 80.9614569,
        "tags": {
          "name": "Badshahnagar",
          "network": "IR",
          "operator": "NER",
          "public_transport": "station",
          "railway": "station",
          "ref": "BNZ",
          "wikidata": "Q12441382",
          "wikipedia": "en:Badshahnagar railway station"
        }
      },
      {
        "type": "node",
        "id": 2214748503,
        "lat": 26.856771,
        "lon": 80.9729819,
        "tags": {
          "amenity": "fuel",
          "brand": "Bharat Petroleum"
        }
      },
      {
        "type": "node",
        "id": 2217075733,
        "lat": 26.8711954,
        "lon": 80.9584756,
        "tags": {
          "amenity": "cinema",
          "name": "Umrao Cineplex"
        }
      },
      {
        "type": "node",
        "id": 2226248382,
        "lat": 26.8479918,
        "lon": 80.9394268,
        "tags": {
          "amenity": "cinema"
        }
      },
      {
        "type": "node",
        "id": 4244207745,
        "lat": 26.8415965,
        "lon": 80.9399056,
        "tags": {
          "name": "Sachivalaya",
          "name:hi": "\u0938\u091a\u093f\u0935\u093e\u0932\u092f",
          "network": "Lucknow Metro",
          "note": "Contributors are requested to not edit the \"network\" and the \"operator\" tags. (2023/11/08)",
          "operator": "Lucknow Metro Rail Corporation Limited",
          "public_transport": "station",
          "railway": "station",
          "station": "subway",
          "subway": "yes"
        }
      },
      {
        "type": "node",
        "id": 4292019389,
        "lat": 26.8478371,
        "lon": 80.9472678,
        "tags": {
          "addr:postcode": "226001",
          "addr:street": "Ashok Marg",
          "amenity": "fuel",
          "name": "Sarkar Petrol Pump "
        }
      },
      {
        "type": "node",
        "id": 4977535798,
        "lat": 26.8539423,
        "lon": 80.9368471,
        "tags": {
          "name": "KD Singh Babu Stadium",
          "name:hi": "\u0915\u0947\u0921\u0940 \u0938\u093f\u0902\u0939 \u092c\u093e\u092c\u0942 \u0938\u094d\u091f\u0947\u0921\u093f\u092f\u092e",
          "network": "Lucknow Metro",
          "note": "Contributors are requested to not edit the \"network\" and the \"operator\" tags. (2023/11/08)",
          "operator": "Lucknow Metro Rail Corporation Limited",
          "public_transport": "stop_position",
          "subway": "yes"
        }
      },
      {
        "type": "node",
        "id": 4977535810,
        "lat": 26.8654923,
        "lon": 80.9395636,
        "tags": {
          "name": "Vishwavidyalaya",
          "name:hi": "\u0935\u093f\u0936\u094d\u0935\u0935\u093f\u0926\u094d\u092f\u093e\u0932\u092f",
          "network": "Lucknow Metro",
          "note": "Contributors are requested to not edit the \"network\" and the \"operator\" tags. (2023/11/08)",
          "operator": "Lucknow Metro Rail Corporation Limited",
          "public_transport": "stop_position",
          "subway": "yes"
        }
      },
      {
        "type": "node",
        "id": 4977535820,
        "lat": 26.8706788,
        "lon": 80.9610675,
        "tags": {
          "name": "Badshah Nagar",
          "name:hi": "\u092c\u093e\u0926\u0936\u093e\u0939 \u0928\u0917\u0930",
          "network": "Lucknow Metro",
          "note": "Contributors are requested to not edit the \"network\" and the \"operator\" tags. (2023/11/08)",
          "operator": "Lucknow Metro Rail Corporation Limited",
          "public_transport": "stop_position",
          "subway": "yes"
        }
      },
      {
        "type": "node",
        "id": 5777575720,
        "lat": 26.8416132,
        "lon": 80.939897,
        "tags": {
          "name": "Sachivalaya",
          "name:hi": "\u0938\u091a\u093f\u0935\u093e\u0932\u092f",
          "network": "Lucknow Metro",
          "note": "Contributors are requested to not edit the \"network\" and the \"operator\" tags. (2023/11/08)",
          "operator": "Lucknow Metro Rail Corporation Limited",
          "public_transport": "stop_position",
          "subway": "yes"
        }
      },
      {
        "type": "node",
        "id": 6444506695,
        "lat": 26.8710043,
        "lon": 80.945608,
        "tags": {
          "name": "IT College",
          "name:hi": "\u0906\u0908\u091f\u0940 \u0915\u0949\u0932\u0947\u091c",
          "network": "Lucknow Metro",
          "note": "Contributors are requested to not edit the \"network\" and the \"operator\" tags. (2023/11/08)",
          "operator": "Lucknow Metro Rail Corporation Limited",
          "public_transport": "stop_position",
          "subway": "yes"
        }
      },
      {
        "type": "node",
        "id": 6445132136,
        "lat": 26.8500472,
        "lon": 80.9416143,
        "tags": {
          "name": "Hazratganj",
          "name:hi": "\u0939\u091c\u093c\u0930\u0924\u0917\u0902\u091c",
          "network": "Lucknow Metro",
          "note": "Contributors are requested to not edit the \"network\" and the \"operator\" tags. (2023/11/08)",
          "operator": "Lucknow Metro Rail Corporation Limited",
          "public_transport": "stop_position",
          "subway": "yes"
        }
      },
      {
        "type": "node",
        "id": 6621697158,
        "lat": 26.8422387,
        "lon": 80.940551,
        "tags": {
          "amenity": "fuel",
          "brand": "Hindustan Petroleum"
        }
      },
      {
        "type": "node",
        "id": 6621697161,
        "lat": 26.8411158,
        "lon": 80.9395115,
        "tags": {
          "amenity": "fuel",
          "brand": "Hindustan Petroleum"
        }
      },
      {
        "type": "node",
        "id": 6621697166,
        "lat": 26.8453548,
        "lon": 80.9455528,
        "tags": {
          "amenity": "fuel",
          "brand": "Bharat Petroleum",
          "fuel:diesel": "yes",
          "opening_hours": "24/7"
        }
      },
      {
        "type": "node",
        "id": 6627215625,
        "lat": 26.8554808,
        "lon": 80.973177,
        "tags": {
          "amenity": "theatre",
          "level": "1",
          "name": "Sant Gadge Ji Maharaj Auditorium",
          "name:hi": "\u0938\u0928\u094d\u0924 \u0917\u093e\u0921\u0917\u0947 \u091c\u0940 \u092e\u0939\u093e\u0930\u093e\u091c \u092a\u094d\u0930\u0947\u0915\u094d\u0937\u093e\u0917\u0943\u0939"
        }
      },
      {
        "type": "node",
        "id": 6627215626,
        "lat": 26.8555677,
        "lon": 80.9732368,
        "tags": {
          "amenity": "theatre",
          "level": "0",
          "name": "Valmiki Rangshala",
          "name:hi": "\u0935\u093e\u0932\u094d\u092e\u0940\u0915\u093f \u0930\u0902\u0917\u0936\u093e\u0932\u093e"
        }
      },
      {
        "type": "node",
        "id": 6635065569,
        "lat": 26.8481427,
        "lon": 80.9399566,
        "tags": {
          "amenity": "cinema",
          "name": "Novelty MGS Cinemas"
        }
      },
      {
        "type": "node",
        "id": 8006089152,
        "lat": 26.8415797,
        "lon": 80.9399191,
        "tags": {
          "name": "Sachivalaya",
          "name:hi": "\u0938\u091a\u093f\u0935\u093e\u0932\u092f",
          "network": "Lucknow Metro",
          "note": "Contributors are requested to not edit the \"network\" and the \"operator\" tags. (2023/11/08)",
          "operator": "Lucknow Metro Rail Corporation Limited",
          "public_transport": "stop_position",
          "subway": "yes"
        }
      },
      {
        "type": "node",
        "id": 9655708797,
        "lat": 26.8706977,
        "lon": 80.9610133,
        "tags": {
          "name": "Badshah Nagar",
          "name:hi": "\u092c\u093e\u0926\u0936\u093e\u0939 \u0928\u0917\u0930",
          "network": "Lucknow Metro",
          "note": "Contributors are requested to not edit the \"network\" and the \"operator\" tags. (2023/11/08)",
          "operator": "Lucknow Metro Rail Corporation Limited",
          "public_transport": "station",
          "railway": "station",
          "station": "subway",
          "subway": "yes"
        }
      },
      {
        "type": "node",
        "id": 9655708798,
        "lat": 26.8710268,
        "lon": 80.9456475,
        "tags": {
          "name": "IT College",
          "name:hi": "\u0906\u0908\u091f\u0940 \u0915\u0949\u0932\u0947\u091c",
          "network": "Lucknow Metro",
          "note": "Contributors are requested to not edit the \"network\" and the \"operator\" tags. (2023/11/08)",
          "operator": "Lucknow Metro Rail Corporation Limited",
          "public_transport": "station",
          "railway": "station",
          "station": "subway",
          "subway": "yes"
        }
      },
      {
        "type": "node",
        "id": 9655708799,
        "lat": 26.865529,
        "lon": 80.9395458,
        "tags": {
          "name": "Vishwavidyalaya",
          "name:hi": "\u0935\u093f\u0936\u094d\u0935\u0935\u093f\u0926\u094d\u092f\u093e\u0932\u092f",
          "network": "Lucknow Metro",
          "note": "Contributors are requested to not edit the \"network\" and the \"operator\" tags. (2023/11/08)",
          "operator": "Lucknow Metro Rail Corporation Limited",
          "public_transport": "station",
          "railway": "station",
          "station": "subway",
          "subway": "yes"
        }
      },
      {
        "type": "node",
        "id": 9655708800,
        "lat": 26.8539449,
        "lon": 80.9368084,
        "tags": {
          "name": "KD Singh Babu Stadium",
          "name:hi": "\u0915\u0947\u0921\u0940 \u0938\u093f\u0902\u0939 \u092c\u093e\u092c\u0942 \u0938\u094d\u091f\u0947\u0921\u093f\u092f\u092e",
          "network": "Lucknow Metro",
          "note": "Contributors are requested to not edit the \"network\" and the \"operator\" tags. (2023/11/08)",
          "operator": "Lucknow Metro Rail Corporation Limited",
          "public_transport": "station",
          "railway": "station",
          "station": "subway",
          "subway": "yes"
        }
      },
      {
        "type": "node",
        "id": 9655708801,
        "lat": 26.8500335,
        "lon": 80.9415944,
        "tags": {
          "name": "Hazratganj",
          "name:hi": "\u0939\u091c\u093c\u0930\u0924\u0917\u0902\u091c",
          "network": "Lucknow Metro",
          "note": "Contributors are requested to not edit the \"network\" and the \"operator\" tags. (2023/11/08)",
          "operator": "Lucknow Metro Rail Corporation Limited",
          "public_transport": "station",
          "railway": "station",
          "station": "subway",
          "subway": "yes"
        }
      },
      {
        "type": "node",
        "id": 9655728244,
        "lat": 26.870728,
        "lon": 80.9610619,
        "tags": {
          "name": "Badshah Nagar",
          "name:hi": "\u092c\u093e\u0926\u0936\u093e\u0939 \u0928\u0917\u0930",
          "network": "Lucknow Metro",
          "note": "Contributors are requested to not edit the \"network\" and the \"operator\" tags. (2023/11/08)",
          "operator": "Lucknow Metro Rail Corporation Limited",
          "public_transport": "stop_position",
          "subway": "yes"
        }
      },
      {
        "type": "node",
        "id": 9655728255,
        "lat": 26.8710537,
        "lon": 80.94561,
        "tags": {
          "name": "IT College",
          "name:hi": "\u0906\u0908\u091f\u0940 \u0915\u0949\u0932\u0947\u091c",
          "network": "Lucknow Metro",
          "note": "Contributors are requested to not edit the \"network\" and the \"operator\" tags. (2023/11/08)",
          "operator": "Lucknow Metro Rail Corporation Limited",
          "public_transport": "stop_position",
          "subway": "yes"
        }
      },
      {
        "type": "node",
        "id": 9655728269,
        "lat": 26.8655077,
        "lon": 80.939511,
        "tags": {
          "name": "Vishwavidyalaya",
          "name:hi": "\u0935\u093f\u0936\u094d\u0935\u0935\u093f\u0926\u094d\u092f\u093e\u0932\u092f",
          "network": "Lucknow Metro",
          "note": "Contributors are requested to not edit the \"network\" and the \"operator\" tags. (2023/11/08)",
          "operator": "Lucknow Metro Rail Corporation Limited",
          "public_transport": "stop_position",
          "subway": "yes"
        }
      },
      {
        "type": "node",
        "id": 9655728294,
        "lat": 26.8539129,
        "lon": 80.9368026,
        "tags": {
          "name": "KD Singh Babu Stadium",
          "name:hi": "\u0915\u0947\u0921\u0940 \u0938\u093f\u0902\u0939 \u092c\u093e\u092c\u0942 \u0938\u094d\u091f\u0947\u0921\u093f\u092f\u092e",
          "network": "Lucknow Metro",
          "note": "Contributors are requested to not edit the \"network\" and the \"operator\" tags. (2023/11/08)",
          "operator": "Lucknow Metro Rail Corporation Limited",
          "public_transport": "stop_position",
          "subway": "yes"
        }
      },
      {
        "type": "node",
        "id": 9655728299,
        "lat": 26.8500069,
        "lon": 80.9415821,
        "tags": {
          "name": "Hazratganj",
          "name:hi": "\u0939\u091c\u093c\u0930\u0924\u0917\u0902\u091c",
          "network": "Lucknow Metro",
          "note": "Contributors are requested to not edit the \"network\" and the \"operator\" tags. (2023/11/08)",
          "operator": "Lucknow Metro Rail Corporation Limited",
          "public_transport": "stop_position",
          "subway": "yes"
        }
      }
    ]
  }
}