{
  "pois_1km": {
    "version": 0.6,
    "generator": "Overpass API 0.7.62.8 e802775f",
    "osm3s": {
      "timestamp_osm_base": "2025-09-07T14:12:14Z",
      "copyright": "The data included in this document is from www.openstreetmap.org. The data is made available under ODbL."
    },
    "elements": [
      {
        "type": "node",
        "id": 2619549288,
        "lat": 26.8653341,
        "lon": 81.0244622,
        "tags": {
          "amenity": "fast_food",
          "indoor_seating": "no",
          "name": "kathauta chauraha",
          "name:en": "Kathauta Roundabout",
          "name:hi-Latn": "Kathauta Chauraha",
          "outdoor_seating": "no",
          "takeaway": "only"
        }
      },
      {
        "type": "node",
        "id": 6824640954,
        "lat": 26.858999,
        "lon": 81.0211491,
        "tags": {
          "leisure": "park",
          "name": "zhar",
          "opening_hours": "24/7",
          "operator": "atul"
        }
      },
      {
        "type": "node",
        "id": 7018343388,
        "lat": 26.8663756,
        "lon": 81.0220738,
        "tags": {
          "addr:district": "Lucknow",
          "addr:full": "4/33, Vijyant Khand, Kathauta Chauraha Rd, Gomti Nagar",
          "addr:postcode": "226010",
          "addr:state": "Uttar Pradesh",
          "amenity": "hospital",
          "healthcare": "hospital",
          "name": "Rishi Hospital",
          "source": "OpenGovernmentData"
        }
      },
      {
        "type": "node",
        "id": 7035254921,
        "lat": 26.8674679,
        "lon": 81.0253572,
        "tags": {
          "addr:district": "Lucknow",
          "addr:full": "2/142, Vinay Khand ( In Fron Of St. Joseph Hospital), Gomti Nagar",
          "addr:postcode": "226010",
          "addr:state": "Uttar Pradesh",
          "amenity": "hospital",
          "healthcare:speciality": "chiropractic",
          "name": "Sanjivini Lung Centre",
          "source": "OpenGovernmentData"
        }
      },
      {
        "type": "node",
        "id": 7048837984,
        "lat": 26.8680279,
        "lon": 81.0251009,
        "tags": {
          "amenity": "bank",
          "atm": "yes",
          "branch": "Vibhuty Khand",
          "brand": "Union Bank",
          "brand:wikidata": "Q2003476",
          "brand:wikipedia": "en:Union Bank",
          "drive_through": "yes",
          "kids_area": "no",
          "level": "0",
          "name": "\u092f\u0942\u0928\u093f\u092f\u0928 \u092c\u0948\u0902\u0915",
          "opening_hours": "Mo-Sa 09:00-17:00",
          "operator": "union bank",
          "wheelchair": "no"
        }
      },
      {
        "type": "node",
        "id": 7048895993,
        "lat": 26.8631915,
        "lon": 81.0241393,
        "tags": {
          "addr:city": "Lucknow",
          "addr:postcode": "226010",
          "addr:street": "Vinamra Khand, Gomti Nagar",
          "amenity": "cafe",
          "mobile": "7081260018",
          "name": "HIDEOUT CAFE",
          "opening_hours": "Mo-Fr 11:00-02:00"
        }
      },
      {
        "type": "node",
        "id": 10959597112,
        "lat": 26.8665293,
        "lon": 81.0220699,
        "tags": {
          "addr:city": "Lucknow",
          "addr:housenumber": "vijayant khand",
          "addr:postcode": "226010",
          "addr:street": "Chinhat Road",
          "amenity": "hospital",
          "healthcare": "hospital",
          "healthcare:speciality": "general;ophthalmology;otolaryngology;radiology;cardiology",
          "name": "rishi hospital"
        }
      },
      {
        "type": "node",
        "id": 11698074803,
        "lat": 26.8714822,
        "lon": 81.0245906,
        "tags": {
          "leisure": "park",
          "name": "Nandan park"
        }
      },
      {
        "type": "node",
        "id": 11698427215,
        "lat": 26.870184,
        "lon": 81.0247563,
        "tags": {
          "leisure": "park",
          "name": "Park"
        }
      },
      {
        "type": "node",
        "id": 11698434150,
        "lat": 26.8693779,
        "lon": 81.0245611,
        "tags": {
          "leisure": "park",
          "name": "Local Park"
        }
      },
      {
        "type": "node",
        "id": 11698492276,
        "lat": 26.870401,
        "lon": 81.0237511,
        "tags": {
          "leisure": "park",
          "name": "Khoda Park"
        }
      },
      {
        "type": "node",
        "id": 11698513949,
        "lat": 26.8607845,
        "lon": 81.0208903,
        "tags": {
          "leisure": "park",
          "name": "Park4"
        }
      },
      {
        "type": "node",
        "id": 11698534703,
        "lat": 26.8631762,
        "lon": 81.0229617,
        "tags": {
          "leisure": "park",
          "name": "Park Opposite"
        }
      },
      {
        "type": "node",
        "id": 11698538347,
        "lat": 26.8672275,
        "lon": 81.018159,
        "tags": {
          "name": "Hello",
          "shop": "mall"
        }
      },
      {
        "type": "node",
        "id": 11698545046,
        "lat": 26.8649995,
        "lon": 81.0221597,
        "tags": {
          "leisure": "park",
          "name": "Vijyanta Park 2"
        }
      },
      {
        "type": "node",
        "id": 11698550586,
        "lat": 26.8657517,
        "lon": 81.0194193,
        "tags": {
          "leisure": "park",
          "name": "Vijyanta Park"
        }
      },
      {
        "type": "node",
        "id": 11698552022,
        "lat": 26.8606455,
        "lon": 81.0220681,
        "tags": {
          "leisure": "park",
          "name": "Park 3"
        }
      },
      {
        "type": "node",
        "id": 11698552459,
        "lat": 26.8696685,
        "lon": 81.0235352,
        "tags": {
          "leisure": "park"
        }
      },
      {
        "type": "node",
        "id": 11698552939,
        "lat": 26.8677222,
        "lon": 81.0180444,
        "tags": {
          "leisure": "park",
          "name": "qwerrt"
        }
      },
      {
        "type": "node",
        "id": 11698560364,
        "lat": 26.8617658,
        "lon": 81.0211378,
        "tags": {
          "leisure": "park",
          "name": "Park 1233"
        }
      },
      {
        "type": "node",
        "id": 11978561571,
        "lat": 26.8722871,
        "lon": 81.0297015,
        "tags": {
          "addr:street": "Chinhat Market Road",
          "amenity": "clinic",
          "name": "Shakuntala eyeclini",
          "opening_hours": "Mo-Su 18:00-20:00"
        }
      }
    ]
  },
  "pois_2_5km": {
    "version": 0.6,
    "generator": "Overpass API 0.7.62.8 e802775f",
    "osm3s": {
      "timestamp_osm_base": "2025-09-07T14:13:15Z",
      "copyright": "The data included in this document is from www.openstreetmap.org. The data is made available under ODbL."
    },
    "elements": [
      {
        "type": "node",
        "id": 535121349,
        "lat": 26.8605833,
        "lon": 81.0029055,
        "tags": {
          "name": "Gomti Nagar",
          "operator": "NER",
          "railway": "station",
          "ref": "GTNR",
          "wikidata": "Q24949486",
          "wikipedia": "en:Gomti Nagar railway station"
        }
      },
      {
        "type": "node",
        "id": 2196598017,
        "lat": 26.8536826,
        "lon": 81.040798,
        "tags": {
          "name": "Malhaur",
          "network": "IR",
          "operator": "NR",
          "public_transport": "station",
          "railway": "station",
          "ref": "ML",
          "wikidata": "Q63370017"
        }
      },
      {
        "type": "node",
        "id": 4165961096,
        "lat": 26.8625882,
        "lon": 81.0105719,
        "tags": {
          "amenity": "cinema",
          "brand": "Cinepolis",
          "brand:wikidata": "Q5686673",
          "name": "Cinepolis"
        }
      }
    ]
  }
}