{
  "pois_1km": {
    "version": 0.6,
    "generator": "Overpass API 0.7.62.8 e802775f",
    "osm3s": {
      "timestamp_osm_base": "2025-09-07T13:13:45Z",
      "copyright": "The data included in this document is from www.openstreetmap.org. The data is made available under ODbL."
    },
    "elements": [
      {
        "type": "node",
        "id": 2725273048,
        "lat": 26.8705282,
        "lon": 75.806526,
        "tags": {
          "amenity": "doctors",
          "healthcare": "doctor",
          "name": "Dr. Radha Krishnan Shiksha Sankul"
        }
      },
      {
        "type": "node",
        "id": 3076106633,
        "lat": 26.8619406,
        "lon": 75.8065239,
        "tags": {
          "addr:city": "jaipur",
          "addr:country": "IN",
          "addr:state": "Rajasthan",
          "addr:street": "JLN Road",
          "amenity": "food_court",
          "name": "Saras Parlur",
          "opening_hours": "sunrise-sunset"
        }
      },
      {
        "type": "node",
        "id": 3081602535,
        "lat": 26.8624615,
        "lon": 75.8063864,
        "tags": {
          "addr:city": "Jaipur",
          "addr:country": "IN",
          "addr:state": "Rajasthan",
          "addr:street": "JLN Road",
          "amenity": "restaurant",
          "name": "Saras Parlour"
        }
      },
      {
        "type": "node",
        "id": 3083821746,
        "lat": 26.8626539,
        "lon": 75.806571,
        "tags": {
          "addr:city": "Jaipur",
          "addr:country": "IN",
          "addr:state": "Rajasthan",
          "addr:street": "JLN Road",
          "amenity": "atm",
          "brand": "SBI",
          "operator": "SBI"
        }
      },
      {
        "type": "node",
        "id": 3083822036,
        "lat": 26.8628215,
        "lon": 75.8066208,
        "tags": {
          "addr:city": "Jaipur",
          "addr:country": "IN",
          "addr:state": "Rajasthan",
          "addr:street": "JLN Road",
          "amenity": "atm",
          "brand": "ICICI Bank",
          "brand:en": "ICICI Bank",
          "brand:wikidata": "Q1653258",
          "currency:INR": "yes",
          "drive_through": "no",
          "indoor": "yes",
          "note": "Contributors are requested to not edit the \"brand\", \"brand:en\", \"brand:wikidata\", \"operator\", \"operator:en\" and \"operator:wikidata\" tags. (2025/03/03)",
          "opening_hours": "24/7",
          "operator": "ICICI Bank",
          "operator:en": "ICICI Bank",
          "operator:wikidata": "Q1653258",
          "short_name": "ICICI"
        }
      },
      {
        "type": "node",
        "id": 3560470590,
        "lat": 26.8621894,
        "lon": 75.812195,
        "tags": {
          "amenity": "hospital",
          "name": "MNIT college Dispensary",
          "operator": "MNIT"
        }
      },
      {
        "type": "node",
        "id": 5533496172,
        "lat": 26.8589685,
        "lon": 75.8086772,
        "tags": {
          "addr:city": "Jaipur",
          "addr:housenumber": "202, 2nd Floor, SDC Building, Opposite Bharat Petrol Pump, Moji Colony",
          "addr:postcode": "302017",
          "addr:street": "Calgary Road",
          "amenity": "hospital",
          "email": "facekraftclinicofficial@gmail.com",
          "emergency": "yes",
          "healthcare": "hospital",
          "healthcare:speciality": "dental_oral_maxillo_facial_surgery;dentist;dental_surgery;dental;tooth_whitening",
          "name": "Face kraft - Centre for advanced dentistry",
          "operator": "Dr. Prateek Jain",
          "phone": "+917023271994",
          "start_date": "7-Dec-12"
        }
      },
      {
        "type": "node",
        "id": 7030319503,
        "lat": 26.8676258,
        "lon": 75.8034563,
        "tags": {
          "amenity": "hospital",
          "healthcare": "hospital",
          "name": "Advanced Heart Care Center"
        }
      },
      {
        "type": "node",
        "id": 7030589195,
        "lat": 26.8593131,
        "lon": 75.8081784,
        "tags": {
          "addr:district": "Jaipur",
          "addr:full": "Centre for Sight, Malviya Nagar Main Road, Opposite Petrol Pump",
          "addr:postcode": "302017",
          "addr:state": "Rajasthan",
          "amenity": "hospital",
          "email": "infojaipur@centreforsight.net",
          "name": "Centre For Sight",
          "operator:type": "private",
          "source": "OpenGovernmentData",
          "website": "https://www.centreforsight.net/"
        }
      },
      {
        "type": "node",
        "id": 7037738561,
        "lat": 26.8710868,
        "lon": 75.8003439,
        "tags": {
          "addr:district": "Jaipur",
          "addr:full": "A-31B, Anita Colony.Bajaj Nagar,Jaipur",
          "addr:postcode": "302015",
          "addr:state": "Rajasthan",
          "amenity": "hospital",
          "healthcare": "hospital",
          "name": "Krishna Ram Hospital and Research Centre",
          "source": "OpenGovernmentData"
        }
      },
      {
        "type": "node",
        "id": 7040112723,
        "lat": 26.8630701,
        "lon": 75.8055353,
        "tags": {
          "addr:district": "Jaipur",
          "addr:full": "Jawahar Lal Nehru Marg",
          "addr:postcode": "302015",
          "addr:state": "Rajasthan",
          "amenity": "hospital",
          "name": "Bhagwan Mahaveer Cancer Hospital and Research Center",
          "source": "OpenGovernmentData"
        }
      },
      {
        "type": "node",
        "id": 7040571420,
        "lat": 26.8650943,
        "lon": 75.8007684,
        "tags": {
          "addr:district": "Jaipur",
          "addr:full": "E-19, New Light Colony, Tonk Phatak",
          "addr:postcode": "302015",
          "addr:state": "Rajasthan",
          "amenity": "hospital",
          "healthcare": "hospital",
          "name": "Nalini Hospital",
          "source": "OpenGovernmentData"
        }
      },
      {
        "type": "node",
        "id": 7048876677,
        "lat": 26.8676272,
        "lon": 75.8050489,
        "tags": {
          "amenity": "atm",
          "brand": "State Bank of India",
          "brand:en": "State Bank of India",
          "brand:wikidata": "Q1340361",
          "currency:INR": "yes",
          "drive_through": "no",
          "indoor": "yes",
          "note": "Contributors are requested to not edit the \"brand\", \"brand:en\", \"brand:wikidata\", \"operator\", \"operator:en\" and \"operator:wikidata\" tags. (2025/03/03)",
          "opening_hours": "24/7",
          "operator": "State Bank of India",
          "operator:en": "State Bank of India",
          "operator:wikidata": "Q1340361",
          "short_name": "SBI"
        }
      },
      {
        "type": "node",
        "id": 7698135310,
        "lat": 26.8716945,
        "lon": 75.800694,
        "tags": {
          "addr:district": "Jaipur",
          "addr:full": "Anita Colony, Bajaj Nagar, Jaipur",
          "addr:postcode": "302015",
          "addr:state": "Rajasthan",
          "amenity": "doctors",
          "healthcare": "doctor",
          "name": "Dr. Madan Mohan Bhojak",
          "source": "Local Knowledge"
        }
      },
      {
        "type": "node",
        "id": 7698135313,
        "lat": 26.8701736,
        "lon": 75.8018925,
        "tags": {
          "addr:district": "Jaipur",
          "addr:full": "Bajaj Nagar",
          "addr:postcode": "302015",
          "addr:state": "Rajasthan",
          "amenity": "doctors",
          "healthcare": "doctor",
          "name": "Dr. Pooja Mukul",
          "source": "Local Knowledge"
        }
      },
      {
        "type": "node",
        "id": 7698135349,
        "lat": 26.862661,
        "lon": 75.797406,
        "tags": {
          "addr:district": "Jaipur",
          "addr:full": "Himmat Nagar, Bajaj Nagar",
          "addr:postcode": "302015",
          "addr:state": "Rajasthan",
          "amenity": "doctors",
          "healthcare": "doctor",
          "name": "Dr. Shashi Kant Jain",
          "source": "Local Knowledge"
        }
      },
      {
        "type": "node",
        "id": 8068694095,
        "lat": 26.8594642,
        "lon": 75.8091873,
        "tags": {
          "amenity": "atm",
          "operator": "Canara Bank"
        }
      },
      {
        "type": "node",
        "id": 8068694114,
        "lat": 26.8596866,
        "lon": 75.8087573,
        "tags": {
          "amenity": "atm",
          "brand": "State Bank of India",
          "brand:en": "State Bank of India",
          "brand:wikidata": "Q1340361",
          "currency:INR": "yes",
          "drive_through": "no",
          "indoor": "yes",
          "note": "Contributors are requested to not edit the \"brand\", \"brand:en\", \"brand:wikidata\", \"operator\", \"operator:en\" and \"operator:wikidata\" tags. (2025/03/03)",
          "opening_hours": "24/7",
          "operator": "State Bank of India",
          "operator:en": "State Bank of India",
          "operator:wikidata": "Q1340361",
          "short_name": "SBI"
        }
      },
      {
        "type": "node",
        "id": 8068694159,
        "lat": 26.8593503,
        "lon": 75.8083773,
        "tags": {
          "addr:housenumber": "Ground Floor",
          "addr:street": "Calgiri Road",
          "amenity": "cafe",
          "brand": "Cafe Coffee Day",
          "brand:wikidata": "Q5017235",
          "brand:wikipedia": "en:Caf\u00e9 Coffee Day",
          "cuisine": "coffee_shop",
          "name": "Cafe Coffee Day",
          "outdoor_seating": "no",
          "takeaway": "yes"
        }
      },
      {
        "type": "node",
        "id": 8068694161,
        "lat": 26.8593223,
        "lon": 75.8084734,
        "tags": {
          "addr:street": "Calgiri Road",
          "amenity": "bank",
          "atm": "yes",
          "brand": "HDFC Bank",
          "brand:wikidata": "Q631047",
          "brand:wikipedia": "en:HDFC Bank",
          "name": "HDFC Bank"
        }
      },
      {
        "type": "node",
        "id": 8068694206,
        "lat": 26.8590826,
        "lon": 75.8090294,
        "tags": {
          "amenity": "bank",
          "brand": "Federal Bank",
          "brand:wikidata": "Q2044983",
          "brand:wikipedia": "en:Federal Bank",
          "name": "Federal Bank"
        }
      }
    ]
  },
  "pois_2_5km": {
    "version": 0.6,
    "generator": "Overpass API 0.7.62.8 e802775f",
    "osm3s": {
      "timestamp_osm_base": "2025-09-07T13:13:45Z",
      "copyright": "The data included in this document is from www.openstreetmap.org. The data is made available under ODbL."
    },
    "elements": [
      {
        "type": "node",
        "id": 1753726590,
        "lat": 26.8728017,
        "lon": 75.7992199,
        "tags": {
          "internet_access": "no",
          "name": "Gandhi Nagar Jaipur",
          "name:de": "Gandhinagar Jaipur",
          "network": "Indian Railways",
          "operator": "North Western Railway",
          "public_transport": "station",
          "railway": "station",
          "ref": "GADJ",
          "train": "yes",
          "wikidata": "Q5520716",
          "wikipedia": "en:Gandhinagar Jaipur railway station"
        }
      },
      {
        "type": "node",
        "id": 2188691233,
        "lat": 26.855093,
        "lon": 75.7870163,
        "tags": {
          "internet_access": "no",
          "name": "Durgapura",
          "network": "IR",
          "operator": "NWR",
          "public_transport": "station",
          "railway": "station",
          "ref": "DPA",
          "train": "yes",
          "wikidata": "Q17052166",
          "wikipedia": "en:Durgapura railway station"
        }
      },
      {
        "type": "node",
        "id": 3083894733,
        "lat": 26.8470878,
        "lon": 75.8084963,
        "tags": {
          "addr:city": "Jaipur",
          "addr:country": "IN",
          "addr:state": "Rajasthan",
          "amenity": "fuel",
          "brand": "Hindustan Petroleum",
          "brand:wikidata": "Q1619375",
          "brand:wikipedia": "en:Hindustan Petroleum",
          "name": "Shaheed Amit Bharadwaj Petrol Pump",
          "official_name": "Hindustan Petroleum"
        }
      },
      {
        "type": "node",
        "id": 3083894833,
        "lat": 26.864811,
        "lon": 75.796631,
        "tags": {
          "amenity": "fuel",
          "brand": "Indian Oil",
          "brand:wikidata": "Q1289348",
          "name": "Indian Oil"
        }
      },
      {
        "type": "node",
        "id": 3083894834,
        "lat": 26.8726037,
        "lon": 75.7971444,
        "tags": {
          "amenity": "fuel",
          "brand": "Indian Oil",
          "brand:wikidata": "Q1289348",
          "brand:wikipedia": "en:Indian Oil Corporation",
          "name": "Indian Oil"
        }
      },
      {
        "type": "node",
        "id": 4226406191,
        "lat": 26.8503126,
        "lon": 75.8256551,
        "tags": {
          "addr:postcode": "302018",
          "amenity": "fuel",
          "name": "Reliance Petrol Pump",
          "self_service": "no"
        }
      },
      {
        "type": "node",
        "id": 4226410891,
        "lat": 26.8726988,
        "lon": 75.8209348,
        "tags": {
          "amenity": "fuel",
          "name": "Shaheed Basti Ram Petrol Pump"
        }
      },
      {
        "type": "node",
        "id": 4226413890,
        "lat": 26.8595478,
        "lon": 75.8088895,
        "tags": {
          "amenity": "fuel",
          "brand": "Bharat Petroleum",
          "brand:wikidata": "Q854826",
          "brand:wikipedia": "en:Bharat Petroleum",
          "name": "Bharat Petroleum"
        }
      },
      {
        "type": "node",
        "id": 4226415289,
        "lat": 26.8528358,
        "lon": 75.8243583,
        "tags": {
          "amenity": "fuel",
          "brand": "Indian Oil",
          "brand:wikidata": "Q1289348",
          "brand:wikipedia": "en:Indian Oil Corporation",
          "name": "Indian Oil Petrol Pump"
        }
      },
      {
        "type": "node",
        "id": 8457296102,
        "lat": 26.8734837,
        "lon": 75.7990968,
        "tags": {
          "name": "Gandhi Nagar Jaipur",
          "name:de": "Gandhinagar Jaipur Gleis 1",
          "operator": "Ministry of Railway",
          "public_transport": "stop_position",
          "railway": "stop",
          "ref": "1",
          "train": "yes"
        }
      },
      {
        "type": "node",
        "id": 8457296104,
        "lat": 26.872581,
        "lon": 75.7992029,
        "tags": {
          "name": "Gandhi Nagar Jaipur",
          "name:de": "Gandhinagar Jaipur Gleis 2",
          "public_transport": "stop_position",
          "railway": "stop",
          "ref": "2",
          "train": "yes"
        }
      }
    ]
  }
}