{
  "pois_1km": {
    "version": 0.6,
    "generator": "Overpass API 0.7.62.8 e802775f",
    "osm3s": {
      "timestamp_osm_base": "2025-09-07T13:13:45Z",
      "copyright": "The data included in this document is from www.openstreetmap.org. The data is made available under ODbL."
    },
    "elements": [
      {
        "type": "node",
        "id": 3083894533,
        "lat": 26.8496805,
        "lon": 75.7936962,
        "tags": {
          "addr:city": "Jaipur",
          "addr:country": "IN",
          "addr:state": "Rajasthan",
          "amenity": "atm",
          "brand": "ICICI Bank",
          "brand:en": "ICICI Bank",
          "brand:wikidata": "Q1653258",
          "currency:INR": "yes",
          "drive_through": "no",
          "indoor": "yes",
          "note": "Contributors are requested to not edit the \"brand\", \"brand:en\", \"brand:wikidata\", \"operator\", \"operator:en\" and \"operator:wikidata\" tags. (2025/03/03)",
          "opening_hours": "24/7",
          "operator": "ICICI Bank",
          "operator:en": "ICICI Bank",
          "operator:wikidata": "Q1653258",
          "short_name": "ICICI"
        }
      },
      {
        "type": "node",
        "id": 3083894534,
        "lat": 26.8458821,
        "lon": 75.7934158,
        "tags": {
          "addr:city": "Jaipur",
          "addr:country": "IN",
          "addr:state": "Rajasthan",
          "amenity": "atm",
          "brand": "SBI",
          "operator": "SBI"
        }
      },
      {
        "type": "node",
        "id": 3083894633,
        "lat": 26.8465139,
        "lon": 75.7934439,
        "tags": {
          "addr:city": "Jaipur",
          "addr:country": "IN",
          "addr:state": "Rajasthan",
          "amenity": "atm",
          "brand": "Axis",
          "operator": "Axis"
        }
      },
      {
        "type": "node",
        "id": 7036855302,
        "lat": 26.8461836,
        "lon": 75.7938087,
        "tags": {
          "addr:district": "Jaipur",
          "addr:full": "Tonk Road Durgapura",
          "addr:postcode": "302015",
          "addr:state": "Rajasthan",
          "amenity": "hospital",
          "name": "Durgapura Hospital",
          "source": "OpenGovernmentData"
        }
      },
      {
        "type": "node",
        "id": 7042738773,
        "lat": 26.8436989,
        "lon": 75.7945731,
        "tags": {
          "addr:district": "Jaipur",
          "addr:full": "Plot No. 14, Airport Plaza,Tonk Road , Durgapura",
          "addr:postcode": "302016",
          "addr:state": "Rajasthan",
          "amenity": "hospital",
          "name": "Cocoon Hospital",
          "source": "OpenGovernmentData",
          "website": "https://www.cocoon.co.in/"
        }
      },
      {
        "type": "node",
        "id": 7698135326,
        "lat": 26.8481433,
        "lon": 75.7926357,
        "tags": {
          "addr:district": "Jaipur",
          "addr:full": "Shreeji Nagar, Green Nagar, Suresh Nagar, Mata colony",
          "addr:postcode": "302018",
          "addr:state": "Rajasthan",
          "amenity": "clinic",
          "name": "Vardhman Clinic & Diagnostic Centre",
          "source": "Local Knowledge"
        }
      },
      {
        "type": "node",
        "id": 7698135341,
        "lat": 26.8480777,
        "lon": 75.7916808,
        "tags": {
          "addr:district": "Jaipur",
          "addr:full": "Vasundhara Colony, Durgapura",
          "addr:postcode": "302018",
          "addr:state": "Rajasthan",
          "amenity": "clinic",
          "name": "Mishra Clinic",
          "source": "Local Knowledge"
        }
      },
      {
        "type": "node",
        "id": 7698135360,
        "lat": 26.8482031,
        "lon": 75.7936755,
        "tags": {
          "addr:district": "Jaipur",
          "addr:full": "Vasundhara Colony, Mata colony",
          "addr:postcode": "302018",
          "addr:state": "Rajasthan",
          "amenity": "clinic",
          "name": "Sharma Clinic",
          "source": "Local Knowledge"
        }
      },
      {
        "type": "node",
        "id": 7698135371,
        "lat": 26.8501473,
        "lon": 75.7962052,
        "tags": {
          "addr:district": "Jaipur",
          "addr:full": "Durgapura, Jaipur",
          "addr:postcode": "302018",
          "addr:state": "Rajasthan",
          "amenity": "hospital",
          "name": "Aanch Hospital",
          "source": "Local Knowledge"
        }
      },
      {
        "type": "node",
        "id": 7698135375,
        "lat": 26.8491264,
        "lon": 75.7933978,
        "tags": {
          "addr:district": "Jaipur",
          "addr:full": "Shri Vihar, Durgapura",
          "addr:postcode": "302018",
          "addr:state": "Rajasthan",
          "amenity": "hospital",
          "name": "Jaipur Hospital",
          "source": "Local Knowledge"
        }
      },
      {
        "type": "node",
        "id": 7969344386,
        "lat": 26.8436065,
        "lon": 75.8024609,
        "tags": {
          "addr:floor": "8",
          "addr:full": "8th floor, Corporate Tower, Jawahar Circle, Sector 8, Malviya Nagar, Jaipur",
          "amenity": "restaurant",
          "cuisine": "thali",
          "name": "Sri Motu Ram Prasadam"
        }
      },
      {
        "type": "node",
        "id": 9022607657,
        "lat": 26.8445554,
        "lon": 75.8012169,
        "tags": {
          "addr:city": "Jaipur",
          "addr:housenumber": "S-21",
          "addr:postcode": "302018",
          "addr:street": "Annamikas, 1st Avanue,lal bahadur nagar",
          "description": "Best online Shopping Store for Women's Dresses.",
          "name": "Trendswheel",
          "opening_hours": "Mo-Su 09:00-21:00",
          "payment:cash": "yes",
          "shop": "supermarket",
          "website": "https://www.trendswheel4u.com"
        }
      },
      {
        "type": "node",
        "id": 13043421492,
        "lat": 26.8422328,
        "lon": 75.8021621,
        "tags": {
          "name": "jaipur traditional center",
          "shop": "mall"
        }
      }
    ]
  },
  "pois_2_5km": {
    "version": 0.6,
    "generator": "Overpass API 0.7.62.8 e802775f",
    "osm3s": {
      "timestamp_osm_base": "2025-09-07T13:13:45Z",
      "copyright": "The data included in this document is from www.openstreetmap.org. The data is made available under ODbL."
    },
    "elements": [
      {
        "type": "node",
        "id": 1064270892,
        "lat": 26.8355542,
        "lon": 75.7936432,
        "tags": {
          "construction": "station",
          "disused": "yes",
          "name": "Durgapura Metro (u/c)",
          "network": "Jaipur Metro",
          "operator": "NWR",
          "railway": "station",
          "station": "subway"
        }
      },
      {
        "type": "node",
        "id": 2188691233,
        "lat": 26.855093,
        "lon": 75.7870163,
        "tags": {
          "internet_access": "no",
          "name": "Durgapura",
          "network": "IR",
          "operator": "NWR",
          "public_transport": "station",
          "railway": "station",
          "ref": "DPA",
          "train": "yes",
          "wikidata": "Q17052166",
          "wikipedia": "en:Durgapura railway station"
        }
      },
      {
        "type": "node",
        "id": 3078037353,
        "lat": 26.8361321,
        "lon": 75.7782433,
        "tags": {
          "addr:city": "Jaipur",
          "addr:country": "IN",
          "addr:district": "Jaipur",
          "addr:state": "Rajasthan",
          "amenity": "cinema",
          "name": "Galaxy Cinema"
        }
      },
      {
        "type": "node",
        "id": 3083894237,
        "lat": 26.8460486,
        "lon": 75.7770817,
        "tags": {
          "amenity": "fuel",
          "brand": "Indian Oil"
        }
      },
      {
        "type": "node",
        "id": 3083894238,
        "lat": 26.8528101,
        "lon": 75.7798893,
        "tags": {
          "amenity": "fuel",
          "brand": "Indian Oil"
        }
      },
      {
        "type": "node",
        "id": 3083894733,
        "lat": 26.8470878,
        "lon": 75.8084963,
        "tags": {
          "addr:city": "Jaipur",
          "addr:country": "IN",
          "addr:state": "Rajasthan",
          "amenity": "fuel",
          "brand": "Hindustan Petroleum",
          "brand:wikidata": "Q1619375",
          "brand:wikipedia": "en:Hindustan Petroleum",
          "name": "Shaheed Amit Bharadwaj Petrol Pump",
          "official_name": "Hindustan Petroleum"
        }
      },
      {
        "type": "node",
        "id": 4226413890,
        "lat": 26.8595478,
        "lon": 75.8088895,
        "tags": {
          "amenity": "fuel",
          "brand": "Bharat Petroleum",
          "brand:wikidata": "Q854826",
          "brand:wikipedia": "en:Bharat Petroleum",
          "name": "Bharat Petroleum"
        }
      },
      {
        "type": "node",
        "id": 6979547432,
        "lat": 26.8408583,
        "lon": 75.8072035,
        "tags": {
          "amenity": "fuel",
          "brand": "Indian Oil",
          "brand:wikidata": "Q1289348",
          "name": "Indian Oil"
        }
      },
      {
        "type": "node",
        "id": 11762982185,
        "lat": 26.8359403,
        "lon": 75.793404,
        "tags": {
          "amenity": "fuel",
          "brand": "Hindustan Petroleum",
          "brand:wikidata": "Q1619375",
          "name": "HP",
          "official_name": "Hindustan Petroleum"
        }
      },
      {
        "type": "node",
        "id": 12596446121,
        "lat": 26.8358795,
        "lon": 75.7783902,
        "tags": {
          "amenity": "cinema"
        }
      }
    ]
  }
}