{
  "pois_1km": {
    "version": 0.6,
    "generator": "Overpass API 0.7.62.8 e802775f",
    "osm3s": {
      "timestamp_osm_base": "2025-09-07T13:24:00Z",
      "copyright": "The data included in this document is from www.openstreetmap.org. The data is made available under ODbL."
    },
    "elements": [
      {
        "type": "node",
        "id": 3076015859,
        "lat": 26.8534541,
        "lon": 75.8049509,
        "tags": {
          "name": "\u0935\u0930\u094d\u0932\u094d\u0921 \u091f\u094d\u0930\u0947\u0921 \u092a\u093e\u0930\u094d\u0915",
          "name:en": "World Trade Park",
          "opening_hours": "sunrise-sunset",
          "shop": "mall"
        }
      },
      {
        "type": "node",
        "id": 3083894533,
        "lat": 26.8496805,
        "lon": 75.7936962,
        "tags": {
          "addr:city": "Jaipur",
          "addr:country": "IN",
          "addr:state": "Rajasthan",
          "amenity": "atm",
          "brand": "ICICI Bank",
          "brand:en": "ICICI Bank",
          "brand:wikidata": "Q1653258",
          "currency:INR": "yes",
          "drive_through": "no",
          "indoor": "yes",
          "note": "Contributors are requested to not edit the \"brand\", \"brand:en\", \"brand:wikidata\", \"operator\", \"operator:en\" and \"operator:wikidata\" tags. (2025/03/03)",
          "opening_hours": "24/7",
          "operator": "ICICI Bank",
          "operator:en": "ICICI Bank",
          "operator:wikidata": "Q1653258",
          "short_name": "ICICI"
        }
      },
      {
        "type": "node",
        "id": 3083894534,
        "lat": 26.8458821,
        "lon": 75.7934158,
        "tags": {
          "addr:city": "Jaipur",
          "addr:country": "IN",
          "addr:state": "Rajasthan",
          "amenity": "atm",
          "brand": "SBI",
          "operator": "SBI"
        }
      },
      {
        "type": "node",
        "id": 3083894633,
        "lat": 26.8465139,
        "lon": 75.7934439,
        "tags": {
          "addr:city": "Jaipur",
          "addr:country": "IN",
          "addr:state": "Rajasthan",
          "amenity": "atm",
          "brand": "Axis",
          "operator": "Axis"
        }
      },
      {
        "type": "node",
        "id": 6341259416,
        "lat": 26.8401687,
        "lon": 75.8058755,
        "tags": {
          "amenity": "hospital",
          "emergency": "yes",
          "healthcare": "hospital",
          "name": "Eternal Heart Care Center"
        }
      },
      {
        "type": "node",
        "id": 6815869704,
        "lat": 26.8545195,
        "lon": 75.8052136,
        "tags": {
          "amenity": "atm",
          "name": "ATM"
        }
      },
      {
        "type": "node",
        "id": 7024897100,
        "lat": 26.8525438,
        "lon": 75.8017749,
        "tags": {
          "addr:district": "Jaipur",
          "addr:full": "N86,Adinath Nagar,J.L.N Marg",
          "addr:postcode": "302015",
          "addr:state": "Rajasthan",
          "amenity": "hospital",
          "name": "R.G.S Eye Centre and Retina Foundation",
          "source": "OpenGovernmentData",
          "website": "rgseyecentre.com"
        }
      },
      {
        "type": "node",
        "id": 7025156650,
        "lat": 26.8479288,
        "lon": 75.8053221,
        "tags": {
          "addr:district": "Jaipur",
          "addr:full": "29, Girdhar Marg, Sunder Nagar Opposite Hotel Clarks Amer",
          "addr:postcode": "302017",
          "addr:state": "Rajasthan",
          "amenity": "hospital",
          "name": "Anita Maternity Home",
          "source": "OpenGovernmentData"
        }
      },
      {
        "type": "node",
        "id": 7036731239,
        "lat": 26.8467981,
        "lon": 75.8101729,
        "tags": {
          "addr:district": "Jaipur",
          "addr:full": "68, Siddharth Nagar E-Block, Sector 12 Main Road",
          "addr:postcode": "302017",
          "addr:state": "Rajasthan",
          "amenity": "hospital",
          "name": "Ghiya Hospital",
          "source": "OpenGovernmentData"
        }
      },
      {
        "type": "node",
        "id": 7036855302,
        "lat": 26.8461836,
        "lon": 75.7938087,
        "tags": {
          "addr:district": "Jaipur",
          "addr:full": "Tonk Road Durgapura",
          "addr:postcode": "302015",
          "addr:state": "Rajasthan",
          "amenity": "hospital",
          "name": "Durgapura Hospital",
          "source": "OpenGovernmentData"
        }
      },
      {
        "type": "node",
        "id": 7040117130,
        "lat": 26.8471475,
        "lon": 75.8087178,
        "tags": {
          "addr:district": "Jaipur",
          "addr:full": "Main Road, Sector 9, Malviya Nagar",
          "addr:postcode": "302018",
          "addr:state": "Rajasthan",
          "amenity": "hospital",
          "name": "Solomon Hospital",
          "source": "OpenGovernmentData"
        }
      },
      {
        "type": "node",
        "id": 7040181512,
        "lat": 26.8511271,
        "lon": 75.8070253,
        "tags": {
          "addr:district": "Jaipur",
          "addr:full": "C-401, Malviya Nagar",
          "addr:postcode": "302017",
          "addr:state": "Rajasthan",
          "amenity": "hospital",
          "name": "Eye Surgery and Laser Centre",
          "source": "OpenGovernmentData"
        }
      },
      {
        "type": "node",
        "id": 7042738773,
        "lat": 26.8436989,
        "lon": 75.7945731,
        "tags": {
          "addr:district": "Jaipur",
          "addr:full": "Plot No. 14, Airport Plaza,Tonk Road , Durgapura",
          "addr:postcode": "302016",
          "addr:state": "Rajasthan",
          "amenity": "hospital",
          "name": "Cocoon Hospital",
          "source": "OpenGovernmentData",
          "website": "https://www.cocoon.co.in/"
        }
      },
      {
        "type": "node",
        "id": 7698135283,
        "lat": 26.853253,
        "lon": 75.7963388,
        "tags": {
          "addr:district": "Jaipur",
          "addr:full": "Jai Jawan Colony, Jaipur",
          "addr:postcode": "302018",
          "addr:state": "Rajasthan",
          "amenity": "clinic",
          "name": "Dr. Hemant Bhartiya Clinic",
          "source": "Local Knowledge"
        }
      },
      {
        "type": "node",
        "id": 7698135318,
        "lat": 26.8525412,
        "lon": 75.7957147,
        "tags": {
          "addr:district": "Jaipur",
          "addr:full": "Milap Nagar, Jaipur",
          "addr:postcode": "302018",
          "addr:state": "Rajasthan",
          "amenity": "doctors",
          "name": "Dr. S.K. Pareek",
          "source": "Local Knowledge"
        }
      },
      {
        "type": "node",
        "id": 7698135326,
        "lat": 26.8481433,
        "lon": 75.7926357,
        "tags": {
          "addr:district": "Jaipur",
          "addr:full": "Shreeji Nagar, Green Nagar, Suresh Nagar, Mata colony",
          "addr:postcode": "302018",
          "addr:state": "Rajasthan",
          "amenity": "clinic",
          "name": "Vardhman Clinic & Diagnostic Centre",
          "source": "Local Knowledge"
        }
      },
      {
        "type": "node",
        "id": 7698135338,
        "lat": 26.8524747,
        "lon": 75.7959925,
        "tags": {
          "addr:district": "Jaipur",
          "addr:full": "Milap Nagar, Jaipur",
          "addr:postcode": "302018",
          "addr:state": "Rajasthan",
          "amenity": "clinic",
          "name": "Deep Usha Clinic",
          "source": "Local Knowledge"
        }
      },
      {
        "type": "node",
        "id": 7698135360,
        "lat": 26.8482031,
        "lon": 75.7936755,
        "tags": {
          "addr:district": "Jaipur",
          "addr:full": "Vasundhara Colony, Mata colony",
          "addr:postcode": "302018",
          "addr:state": "Rajasthan",
          "amenity": "clinic",
          "name": "Sharma Clinic",
          "source": "Local Knowledge"
        }
      },
      {
        "type": "node",
        "id": 7698135371,
        "lat": 26.8501473,
        "lon": 75.7962052,
        "tags": {
          "addr:district": "Jaipur",
          "addr:full": "Durgapura, Jaipur",
          "addr:postcode": "302018",
          "addr:state": "Rajasthan",
          "amenity": "hospital",
          "name": "Aanch Hospital",
          "source": "Local Knowledge"
        }
      },
      {
        "type": "node",
        "id": 7698135375,
        "lat": 26.8491264,
        "lon": 75.7933978,
        "tags": {
          "addr:district": "Jaipur",
          "addr:full": "Shri Vihar, Durgapura",
          "addr:postcode": "302018",
          "addr:state": "Rajasthan",
          "amenity": "hospital",
          "name": "Jaipur Hospital",
          "source": "Local Knowledge"
        }
      },
      {
        "type": "node",
        "id": 7969344386,
        "lat": 26.8436065,
        "lon": 75.8024609,
        "tags": {
          "addr:floor": "8",
          "addr:full": "8th floor, Corporate Tower, Jawahar Circle, Sector 8, Malviya Nagar, Jaipur",
          "amenity": "restaurant",
          "cuisine": "thali",
          "name": "Sri Motu Ram Prasadam"
        }
      },
      {
        "type": "node",
        "id": 9022607657,
        "lat": 26.8445554,
        "lon": 75.8012169,
        "tags": {
          "addr:city": "Jaipur",
          "addr:housenumber": "S-21",
          "addr:postcode": "302018",
          "addr:street": "Annamikas, 1st Avanue,lal bahadur nagar",
          "description": "Best online Shopping Store for Women's Dresses.",
          "name": "Trendswheel",
          "opening_hours": "Mo-Su 09:00-21:00",
          "payment:cash": "yes",
          "shop": "supermarket",
          "website": "https://www.trendswheel4u.com"
        }
      },
      {
        "type": "node",
        "id": 9727755056,
        "lat": 26.8466716,
        "lon": 75.8093538,
        "tags": {
          "amenity": "bank",
          "description": "This has both Bank and ATM",
          "name": "IDFC FIRST BANK"
        }
      },
      {
        "type": "node",
        "id": 10020311919,
        "lat": 26.8512734,
        "lon": 75.8104302,
        "tags": {
          "amenity": "cafe",
          "internet_access": "wlan",
          "name:en": "Ministry of Roasters",
          "opening_hours": "Mo-Su 10:00-22:00"
        }
      },
      {
        "type": "node",
        "id": 13043421492,
        "lat": 26.8422328,
        "lon": 75.8021621,
        "tags": {
          "name": "jaipur traditional center",
          "shop": "mall"
        }
      }
    ]
  },
  "pois_2_5km": {
    "version": 0.6,
    "generator": "Overpass API 0.7.62.8 e802775f",
    "osm3s": {
      "timestamp_osm_base": "2025-09-07T13:24:00Z",
      "copyright": "The data included in this document is from www.openstreetmap.org. The data is made available under ODbL."
    },
    "elements": [
      {
        "type": "node",
        "id": 1064270892,
        "lat": 26.8355542,
        "lon": 75.7936432,
        "tags": {
          "construction": "station",
          "disused": "yes",
          "name": "Durgapura Metro (u/c)",
          "network": "Jaipur Metro",
          "operator": "NWR",
          "railway": "station",
          "station": "subway"
        }
      },
      {
        "type": "node",
        "id": 2188691233,
        "lat": 26.855093,
        "lon": 75.7870163,
        "tags": {
          "internet_access": "no",
          "name": "Durgapura",
          "network": "IR",
          "operator": "NWR",
          "public_transport": "station",
          "railway": "station",
          "ref": "DPA",
          "train": "yes",
          "wikidata": "Q17052166",
          "wikipedia": "en:Durgapura railway station"
        }
      },
      {
        "type": "node",
        "id": 3083894237,
        "lat": 26.8460486,
        "lon": 75.7770817,
        "tags": {
          "amenity": "fuel",
          "brand": "Indian Oil"
        }
      },
      {
        "type": "node",
        "id": 3083894238,
        "lat": 26.8528101,
        "lon": 75.7798893,
        "tags": {
          "amenity": "fuel",
          "brand": "Indian Oil"
        }
      },
      {
        "type": "node",
        "id": 3083894733,
        "lat": 26.8470878,
        "lon": 75.8084963,
        "tags": {
          "addr:city": "Jaipur",
          "addr:country": "IN",
          "addr:state": "Rajasthan",
          "amenity": "fuel",
          "brand": "Hindustan Petroleum",
          "brand:wikidata": "Q1619375",
          "brand:wikipedia": "en:Hindustan Petroleum",
          "name": "Shaheed Amit Bharadwaj Petrol Pump",
          "official_name": "Hindustan Petroleum"
        }
      },
      {
        "type": "node",
        "id": 3083894833,
        "lat": 26.864811,
        "lon": 75.796631,
        "tags": {
          "amenity": "fuel",
          "brand": "Indian Oil",
          "brand:wikidata": "Q1289348",
          "name": "Indian Oil"
        }
      },
      {
        "type": "node",
        "id": 4226406191,
        "lat": 26.8503126,
        "lon": 75.8256551,
        "tags": {
          "addr:postcode": "302018",
          "amenity": "fuel",
          "name": "Reliance Petrol Pump",
          "self_service": "no"
        }
      },
      {
        "type": "node",
        "id": 4226413890,
        "lat": 26.8595478,
        "lon": 75.8088895,
        "tags": {
          "amenity": "fuel",
          "brand": "Bharat Petroleum",
          "brand:wikidata": "Q854826",
          "brand:wikipedia": "en:Bharat Petroleum",
          "name": "Bharat Petroleum"
        }
      },
      {
        "type": "node",
        "id": 4226415289,
        "lat": 26.8528358,
        "lon": 75.8243583,
        "tags": {
          "amenity": "fuel",
          "brand": "Indian Oil",
          "brand:wikidata": "Q1289348",
          "brand:wikipedia": "en:Indian Oil Corporation",
          "name": "Indian Oil Petrol Pump"
        }
      },
      {
        "type": "node",
        "id": 6979547432,
        "lat": 26.8408583,
        "lon": 75.8072035,
        "tags": {
          "amenity": "fuel",
          "brand": "Indian Oil",
          "brand:wikidata": "Q1289348",
          "name": "Indian Oil"
        }
      },
      {
        "type": "node",
        "id": 11762982185,
        "lat": 26.8359403,
        "lon": 75.793404,
        "tags": {
          "amenity": "fuel",
          "brand": "Hindustan Petroleum",
          "brand:wikidata": "Q1619375",
          "name": "HP",
          "official_name": "Hindustan Petroleum"
        }
      }
    ]
  }
}