{
  "pois_1km": {
    "version": 0.6,
    "generator": "Overpass API 0.7.62.8 e802775f",
    "osm3s": {
      "timestamp_osm_base": "2025-09-07T13:06:44Z",
      "copyright": "The data included in this document is from www.openstreetmap.org. The data is made available under ODbL."
    },
    "elements": [
      {
        "type": "node",
        "id": 3875761989,
        "lat": 26.9170881,
        "lon": 75.743631,
        "tags": {
          "amenity": "cafe",
          "name": "Corner 10"
        }
      },
      {
        "type": "node",
        "id": 3875761990,
        "lat": 26.9170983,
        "lon": 75.7433527,
        "tags": {
          "amenity": "bank",
          "atm": "yes",
          "brand": "State Bank of India",
          "brand:wikidata": "Q1340361",
          "name": "State Bank of India",
          "short_name": "SBI",
          "website": "https://www.sbi.co.in"
        }
      },
      {
        "type": "node",
        "id": 6966530615,
        "lat": 26.9114589,
        "lon": 75.7448179,
        "tags": {
          "amenity": "atm"
        }
      },
      {
        "type": "node",
        "id": 6976031027,
        "lat": 26.9109778,
        "lon": 75.743896,
        "tags": {
          "addr:housenumber": "20",
          "amenity": "pharmacy",
          "dispensing": "yes",
          "healthcare": "pharmacy",
          "name": "Shiv Medical & General Store"
        }
      },
      {
        "type": "node",
        "id": 6976031037,
        "lat": 26.9153299,
        "lon": 75.7437592,
        "tags": {
          "addr:street": "Vaishali Circle",
          "brand": "Big Bazaar",
          "brand:wikidata": "Q3631008",
          "name": "Big Bazaar",
          "shop": "supermarket"
        }
      },
      {
        "type": "node",
        "id": 6976031038,
        "lat": 26.9124759,
        "lon": 75.7435624,
        "tags": {
          "amenity": "fast_food",
          "brand": "Domino's",
          "brand:ks": "\u0688\u0648\u0645\u06cc\u0646\u0648\u0632",
          "brand:pa": "\u0a21\u0a4b\u0a2e\u0a40\u0a28\u0a4b\u0a1c\u0a3c",
          "brand:ur": "\u0688\u0648\u0645\u06cc\u0646\u0648\u0632",
          "brand:wikidata": "Q839466",
          "brand:wikipedia": "en:Domino's Pizza",
          "cuisine": "pizza",
          "name": "Domino's",
          "name:ks": "\u0688\u0648\u0645\u06cc\u0646\u0648\u0632",
          "name:pa": "\u0a21\u0a4b\u0a2e\u0a40\u0a28\u0a4b\u0a1c\u0a3c",
          "name:ur": "\u0688\u0648\u0645\u06cc\u0646\u0648\u0632",
          "takeaway": "yes"
        }
      },
      {
        "type": "node",
        "id": 7030706668,
        "lat": 26.9118613,
        "lon": 75.7502174,
        "tags": {
          "addr:district": "Jaipur",
          "addr:full": "D-253, Amrapali Marg, Hanuman Nagar, Vaishali Nagar",
          "addr:postcode": "302021",
          "addr:state": "Rajasthan",
          "amenity": "hospital",
          "healthcare": "hospital",
          "name": "Jain Fertility and Mother Care Hospital",
          "source": "OpenGovernmentData",
          "website": "https://www.jainfertility.com/"
        }
      },
      {
        "type": "node",
        "id": 7034998849,
        "lat": 26.9225486,
        "lon": 75.7534271,
        "tags": {
          "addr:district": "Jaipur",
          "addr:full": "Jharkhand Moad, Khati Pura Road",
          "addr:postcode": "302012",
          "addr:state": "Rajasthan",
          "amenity": "hospital",
          "healthcare": "hospital",
          "name": "Sadhana Hospital Pvt. Ltd.",
          "source": "OpenGovernmentData"
        }
      },
      {
        "type": "node",
        "id": 7085549777,
        "lat": 26.9209197,
        "lon": 75.7533318,
        "tags": {
          "amenity": "restaurant",
          "name": "The Royal Ship"
        }
      },
      {
        "type": "node",
        "id": 7698409959,
        "lat": 26.921774,
        "lon": 75.745466,
        "tags": {
          "addr:district": "Jaipur",
          "addr:full": "Dashrath Marg, Hanuman Nagar",
          "addr:postcode": "302021",
          "addr:state": "Rajasthan",
          "amenity": "hospital",
          "healthcare": "hospital",
          "name": "Usha Hospital",
          "source": "Local Knowledge"
        }
      },
      {
        "type": "node",
        "id": 7698409969,
        "lat": 26.9139104,
        "lon": 75.7461785,
        "tags": {
          "addr:district": "Jaipur",
          "addr:full": "Vaishali Nagar",
          "addr:postcode": "302021",
          "addr:state": "Rajasthan",
          "amenity": "hospital",
          "healthcare": "hospital",
          "name": "BB Saxena Hospital",
          "source": "Local Knowledge"
        }
      },
      {
        "type": "node",
        "id": 7698409986,
        "lat": 26.9184598,
        "lon": 75.7502987,
        "tags": {
          "addr:district": "Jaipur",
          "addr:full": "Veer Vihar, Hanuman Nagar",
          "addr:postcode": "302021",
          "addr:state": "Rajasthan",
          "amenity": "hospital",
          "healthcare": "hospital",
          "name": "SMS Hospital",
          "source": "Local Knowledge"
        }
      },
      {
        "type": "node",
        "id": 7698409988,
        "lat": 26.9221716,
        "lon": 75.7494306,
        "tags": {
          "addr:district": "Jaipur",
          "addr:full": "Chand Bihari Nagar, Hanuman Nagar",
          "addr:postcode": "302012",
          "addr:state": "Rajasthan",
          "amenity": "clinic",
          "healthcare": "clinic",
          "name": "Dr. Praveen Joshi Clinic",
          "source": "Local Knowledge"
        }
      },
      {
        "type": "node",
        "id": 7698410038,
        "lat": 26.9165013,
        "lon": 75.7470773,
        "tags": {
          "addr:district": "Jaipur",
          "addr:full": "Valmiki Marg",
          "addr:postcode": "302021",
          "addr:state": "Rajasthan",
          "amenity": "hospital",
          "healthcare": "hospital",
          "name": "Unique Hospital",
          "source": "Local Knowledge"
        }
      },
      {
        "type": "node",
        "id": 8140726962,
        "lat": 26.9113575,
        "lon": 75.7443533,
        "tags": {
          "amenity": "atm",
          "brand": "Citibank",
          "brand:wikidata": "Q857063",
          "operator": "Citibank",
          "operator:wikidata": "Q857063",
          "short_name": "Citi"
        }
      },
      {
        "type": "node",
        "id": 8140727832,
        "lat": 26.9114999,
        "lon": 75.7458821,
        "tags": {
          "name": "Easyday Club",
          "shop": "supermarket"
        }
      }
    ]
  },
  "pois_2_5km": {
    "version": 0.6,
    "generator": "Overpass API 0.7.62.8 e802775f",
    "osm3s": {
      "timestamp_osm_base": "2025-09-07T13:06:44Z",
      "copyright": "The data included in this document is from www.openstreetmap.org. The data is made available under ODbL."
    },
    "elements": [
      {
        "type": "node",
        "id": 3784311886,
        "lat": 26.9208765,
        "lon": 75.7300553,
        "tags": {
          "bus": "yes",
          "name": "Panchawala Pulia",
          "network": "JCTSL",
          "public_transport": "stop_position"
        }
      },
      {
        "type": "node",
        "id": 6938645049,
        "lat": 26.8954164,
        "lon": 75.7486286,
        "tags": {
          "addr:city": "Jaipur",
          "addr:postcode": "302021",
          "addr:street": "Ajmer Road",
          "air_conditioning": "yes",
          "amenity": "cinema",
          "name": "Inox Movies Cinema",
          "payment:cards": "yes",
          "payment:cash": "yes",
          "payment:online_booking": "yes",
          "screen": "2"
        }
      },
      {
        "type": "node",
        "id": 6966530613,
        "lat": 26.912806,
        "lon": 75.7434174,
        "tags": {
          "air_conditioning": "yes",
          "amenity": "cinema",
          "brand": "INOX Leisure",
          "brand:wikidata": "Q5972349",
          "name": "Inox Cinemas Vaibhav Tower",
          "payment:cards": "yes",
          "payment:cash": "yes",
          "screen": "2",
          "short_name": "INOX"
        }
      },
      {
        "type": "node",
        "id": 6968230709,
        "lat": 26.9059908,
        "lon": 75.7519889,
        "tags": {
          "amenity": "fuel",
          "brand": "Hindustan Petroleum",
          "brand:wikidata": "Q1619375",
          "brand:wikipedia": "en:Hindustan Petroleum",
          "name": "HP - GURU JAMBESHWAR PETRO SERVICES",
          "official_name": "Hindustan Petroleum"
        }
      },
      {
        "type": "node",
        "id": 6968230710,
        "lat": 26.914146,
        "lon": 75.7528759,
        "tags": {
          "amenity": "fuel",
          "brand": "Hindustan Petroleum",
          "brand:wikidata": "Q1619375",
          "name": "HP",
          "official_name": "Hindustan Petroleum"
        }
      },
      {
        "type": "node",
        "id": 6968230711,
        "lat": 26.897245,
        "lon": 75.7532693,
        "tags": {
          "amenity": "fuel",
          "brand": "Hindustan Petroleum",
          "brand:wikidata": "Q1619375",
          "name": "HP",
          "official_name": "Hindustan Petroleum"
        }
      },
      {
        "type": "node",
        "id": 6968230712,
        "lat": 26.9004314,
        "lon": 75.7691078,
        "tags": {
          "amenity": "fuel",
          "brand": "Hindustan Petroleum",
          "brand:wikidata": "Q1619375",
          "name": "HP",
          "official_name": "Hindustan Petroleum"
        }
      },
      {
        "type": "node",
        "id": 6968230713,
        "lat": 26.901353,
        "lon": 75.7709911,
        "tags": {
          "amenity": "fuel",
          "brand": "Indian Oil",
          "brand:wikidata": "Q1289348",
          "name": "Indian Oil"
        }
      },
      {
        "type": "node",
        "id": 6978725498,
        "lat": 26.9204544,
        "lon": 75.7305273,
        "tags": {
          "bus": "yes",
          "bus_routes": "7",
          "name": "Panchawala Pulia",
          "operator": "JCTSL",
          "public_transport": "stop_position"
        }
      }
    ]
  }
}