{
  "pois_1km": {
    "version": 0.6,
    "generator": "Overpass API 0.7.62.8 e802775f",
    "osm3s": {
      "timestamp_osm_base": "2025-09-07T12:15:24Z",
      "copyright": "The data included in this document is from www.openstreetmap.org. The data is made available under ODbL."
    },
    "elements": [
      {
        "type": "node",
        "id": 6970407444,
        "lat": 23.0700266,
        "lon": 72.5173965,
        "tags": {
          "addr:district": "Ahmedabad",
          "addr:full": "Near Shukan Mall, Off Science City Road Sola",
          "addr:postcode": "380060",
          "addr:state": "Gujarat",
          "amenity": "hospital",
          "email": "info@cims.org",
          "name": "Marengo CIMS Hospital",
          "operator": "Marengo",
          "phone": "+91-79-48051200",
          "source": "OpenGovernmentData",
          "website": "https://www.cims.org"
        }
      },
      {
        "type": "node",
        "id": 6981694438,
        "lat": 23.0705004,
        "lon": 72.5227287,
        "tags": {
          "addr:district": "Ahmedabad",
          "addr:full": "Sola Science City Road, Near Sola Brige, S.G.Highway",
          "addr:postcode": "380060",
          "addr:state": "Gujarat",
          "amenity": "hospital",
          "email": "info.hcc@hcgahmd.com",
          "name": "HCG Cancer Centre",
          "operator:type": "private",
          "source": "OpenGovernmentData",
          "website": "https://www.hcgoncology.com/"
        }
      }
    ]
  },
  "pois_2_5km": {
    "version": 0.6,
    "generator": "Overpass API 0.7.62.8 e802775f",
    "osm3s": {
      "timestamp_osm_base": "2025-09-07T12:15:24Z",
      "copyright": "The data included in this document is from www.openstreetmap.org. The data is made available under ODbL."
    },
    "elements": [
      {
        "type": "node",
        "id": 2699807313,
        "lat": 23.0664215,
        "lon": 72.5316963,
        "tags": {
          "addr:city": "Ahmedabad",
          "addr:postcode": "380061",
          "addr:street": "Ravishankar Maharaj Road",
          "amenity": "cinema",
          "name": "Rajhans Cinemas",
          "payment:cash": "yes",
          "payment:credit_cards": "yes",
          "payment:debit_cards": "yes",
          "payment:electronic_purses": "yes",
          "screen": "4"
        }
      },
      {
        "type": "node",
        "id": 3247497622,
        "lat": 23.0490934,
        "lon": 72.5160613,
        "tags": {
          "addr:city": "Ahmedabad",
          "addr:postcode": "380054",
          "amenity": "cinema",
          "name": "PVR, acropolis mall"
        }
      },
      {
        "type": "node",
        "id": 4891804983,
        "lat": 23.076537,
        "lon": 72.5234735,
        "tags": {
          "amenity": "fuel",
          "brand": "Bharat Petroleum",
          "brand:wikidata": "Q854826",
          "name": "Bharat Petroleum"
        }
      },
      {
        "type": "node",
        "id": 5622701102,
        "lat": 23.0497505,
        "lon": 72.5159937,
        "tags": {
          "name": "Thaltej",
          "public_transport": "stop_position",
          "railway": "stop",
          "subway": "yes"
        }
      },
      {
        "type": "node",
        "id": 5725638703,
        "lat": 23.0751633,
        "lon": 72.5440359,
        "tags": {
          "internet_access": "no",
          "name": "Chandlodiya",
          "network": "IR",
          "operator": "WR",
          "public_transport": "station",
          "railway": "station",
          "ref": "CLDY",
          "train": "yes",
          "wikidata": "Q62005675"
        }
      },
      {
        "type": "node",
        "id": 6738428335,
        "lat": 23.0807984,
        "lon": 72.5408184,
        "tags": {
          "internet_access": "no",
          "name": "Chandlodiya 'B'",
          "network": "IR",
          "operator": "WR",
          "public_transport": "station",
          "railway": "station",
          "ref": "CLDB",
          "train": "yes"
        }
      },
      {
        "type": "node",
        "id": 10076565366,
        "lat": 23.049782,
        "lon": 72.5160136,
        "tags": {
          "name": "Thaltej",
          "public_transport": "stop_position",
          "railway": "stop",
          "subway": "yes"
        }
      },
      {
        "type": "node",
        "id": 12406995811,
        "lat": 23.049748,
        "lon": 72.5160152,
        "tags": {
          "name": "Thaltej",
          "name:gu": "\u0aa5\u0ab2\u0aa4\u0ac7\u0a9c",
          "network": "Ahmedabad Metro",
          "network:wikidata": "Q1895288",
          "operator": "Gujarat Metro Rail Corporation Limited",
          "operator:wikidata": "Q113158873",
          "operator:wikipedia": "en:Gujarat Metro Rail Corporation Limited",
          "public_transport": "station",
          "railway": "station",
          "station": "subway",
          "subway": "yes",
          "wikidata": "Q114400494"
        }
      }
    ]
  }
}