{
  "pois_1km": {
    "version": 0.6,
    "generator": "Overpass API 0.7.62.8 e802775f",
    "osm3s": {
      "timestamp_osm_base": "2025-09-07T11:58:02Z",
      "copyright": "The data included in this document is from www.openstreetmap.org. The data is made available under ODbL."
    },
    "elements": [
      {
        "type": "node",
        "id": 4254427889,
        "lat": 23.0119649,
        "lon": 72.5130175,
        "tags": {
          "addr:postcode": "380015",
          "addr:street": "100 Ft. Road",
          "amenity": "bank",
          "brand": "Yes Bank",
          "brand:wikidata": "Q2040394",
          "brand:wikipedia": "en:Yes Bank",
          "name": "Yes Bank",
          "name:en": "YES Bank",
          "website": "https://www.yesbank.in"
        }
      },
      {
        "type": "node",
        "id": 5407346971,
        "lat": 23.012343,
        "lon": 72.5065847,
        "tags": {
          "leisure": "playground"
        }
      },
      {
        "type": "node",
        "id": 5407346983,
        "lat": 23.0122064,
        "lon": 72.5062163,
        "tags": {
          "amenity": "cafe",
          "name": "In-Garden Cafe",
          "outdoor_seating": "yes"
        }
      },
      {
        "type": "node",
        "id": 6983633644,
        "lat": 23.0159755,
        "lon": 72.5136414,
        "tags": {
          "addr:district": "Ahmedabad",
          "addr:full": "U-11 Shreeji Enclave Anand Nagar Ramdevnagar Road Satellite",
          "addr:postcode": "380051",
          "addr:state": "Gujarat",
          "amenity": "clinic",
          "contact:phone": "7926925959",
          "healthcare": "clinic",
          "name": "Shree Hari Clinic",
          "source": "OpenGovernmentData"
        }
      },
      {
        "type": "node",
        "id": 7864133830,
        "lat": 23.019857,
        "lon": 72.512076,
        "tags": {
          "addr:district": "Ahmedabad",
          "addr:full": "Ramdev Nagar",
          "addr:postcode": "380015",
          "addr:state": "Gujarat",
          "amenity": "hospital",
          "healthcare": "hospital",
          "name": "Vismay Child Care Hospital",
          "source": "Local Knowledge"
        }
      },
      {
        "type": "node",
        "id": 9006994317,
        "lat": 23.0116205,
        "lon": 72.5052184,
        "tags": {
          "addr:city": "Ahmedabad",
          "addr:housenumber": "GF7-8",
          "addr:postcode": "380015",
          "addr:street": "Opp Prahladnagar Garden",
          "air_conditioning": "yes",
          "amenity": "restaurant",
          "cuisine": "pizza",
          "delivery": "yes",
          "name": "La Milano Pizzeria Prahladnagar",
          "opening_hours": "Mo-Su 10:00-22:00",
          "phone": "+916359149090"
        }
      },
      {
        "type": "node",
        "id": 9009771427,
        "lat": 23.0123743,
        "lon": 72.511119,
        "tags": {
          "addr:city": "Ahmedabad",
          "addr:housenumber": "A-04 A-05",
          "addr:postcode": "380015",
          "addr:street": "100 Ft. Road",
          "amenity": "fast_food",
          "brand": "McDonald's",
          "brand:pa": "\u0a2e\u0a48\u0a15\u0a21\u0a4b\u0a28\u0a32\u0a21\u2019\u0a1c\u0a3c",
          "brand:ur": "\u0645\u06a9\u0688\u0648\u0646\u0644\u0688\u0632",
          "brand:wikidata": "Q38076",
          "brand:wikipedia": "en:McDonald's",
          "brand:wikipedia:pa": "\u0a2e\u0a48\u0a15\u0a21\u0a4b\u0a28\u0a32\u0a21\u2019\u0a1c\u0a3c",
          "brand:wikipedia:ur": "\u0645\u06a9\u0688\u0648\u0646\u0644\u0688\u0632",
          "cuisine": "burger",
          "name": "McDonald's",
          "name:pa": "\u0a2e\u0a48\u0a15\u0a21\u0a4b\u0a28\u0a32\u0a21\u2019\u0a1c\u0a3c",
          "name:ur": "\u0645\u06a9\u0688\u0648\u0646\u0644\u0688\u0632",
          "opening_hours": "Mo-Su 10:00-22:45",
          "phone": "+918928304108",
          "takeaway": "yes",
          "website": "https://www.mcdelivery.co.in/"
        }
      },
      {
        "type": "node",
        "id": 9345872082,
        "lat": 23.0116726,
        "lon": 72.5081733,
        "tags": {
          "addr:housenumber": "3rd floor",
          "addr:street": "100 ft. Road, Prahaladnagar",
          "amenity": "restaurant",
          "name": "Skyz Restaurant and Banquet",
          "phone": "07926931600"
        }
      },
      {
        "type": "node",
        "id": 9951265800,
        "lat": 23.0218092,
        "lon": 72.5062361,
        "tags": {
          "address": "Service Road, Besides Novotel, Opposite Karnavati Club, S.G. Highway, Ahmedabad",
          "amenity": "fast_food",
          "name": "Bhookh Lagi Hai?",
          "phone": "+919001293435"
        }
      },
      {
        "type": "node",
        "id": 10550714022,
        "lat": 23.0123617,
        "lon": 72.5110318,
        "tags": {
          "addr:housenumber": "107, Safal Pegasus",
          "addr:street": "100 Feet, Anandnagar Road,",
          "amenity": "restaurant",
          "name": "Jassi De Parathe",
          "opening_hours": "Mo-Su 11:00-23:00",
          "phone": "+91 95102 22000",
          "website": "https://jassideparathe.com"
        }
      },
      {
        "type": "node",
        "id": 12590599051,
        "lat": 23.0124903,
        "lon": 72.5033515,
        "tags": {
          "addr:city": "Ahmedabad, Prahladnagar",
          "addr:postcode": "380015",
          "addr:street": "Service road - Sarkhej Gandhinagar Highway",
          "amenity": "cafe",
          "check_date": "2025-02-15",
          "currency:XBT": "yes",
          "name": "The dark roast",
          "payment:lightning": "no",
          "payment:lightning_contactless": "no",
          "payment:onchain": "yes"
        }
      }
    ]
  },
  "pois_2_5km": {
    "version": 0.6,
    "generator": "Overpass API 0.7.62.8 e802775f",
    "osm3s": {
      "timestamp_osm_base": "2025-09-07T11:58:02Z",
      "copyright": "The data included in this document is from www.openstreetmap.org. The data is made available under ODbL."
    },
    "elements": [
      {
        "type": "node",
        "id": 322983346,
        "lat": 23.0079064,
        "lon": 72.5174367,
        "tags": {
          "internet_access": "no",
          "name": "Vastrapur",
          "network": "IR",
          "operator": "WR",
          "public_transport": "station",
          "railway": "station",
          "ref": "VTP",
          "train": "yes",
          "wikidata": "Q63357815"
        }
      },
      {
        "type": "node",
        "id": 429790303,
        "lat": 23.0245953,
        "lon": 72.5072957,
        "tags": {
          "amenity": "cinema",
          "name": "Wide Angle"
        }
      },
      {
        "type": "node",
        "id": 1746677973,
        "lat": 23.0331106,
        "lon": 72.5139509,
        "tags": {
          "amenity": "fuel",
          "brand": "Hindustan Petroleum",
          "brand:wikidata": "Q1619375",
          "name": "HP Fuel Station",
          "official_name": "Hindustan Petroleum",
          "operator": "HP"
        }
      },
      {
        "type": "node",
        "id": 4254423389,
        "lat": 23.0121167,
        "lon": 72.5124778,
        "tags": {
          "addr:postcode": "380015",
          "addr:street": "100 Ft. Road",
          "amenity": "fuel",
          "name": "Shell"
        }
      },
      {
        "type": "node",
        "id": 9117287086,
        "lat": 23.0263829,
        "lon": 72.5097931,
        "tags": {
          "addr:level": "4",
          "amenity": "cinema",
          "name": "Mukta A2 Cinemas"
        }
      }
    ]
  }
}