{
  "pois_1km": {
    "version": 0.6,
    "generator": "Overpass API 0.7.62.8 e802775f",
    "osm3s": {
      "timestamp_osm_base": "2025-09-07T12:13:19Z",
      "copyright": "The data included in this document is from www.openstreetmap.org. The data is made available under ODbL."
    },
    "elements": [
      {
        "type": "node",
        "id": 5407346971,
        "lat": 23.012343,
        "lon": 72.5065847,
        "tags": {
          "leisure": "playground"
        }
      },
      {
        "type": "node",
        "id": 5407346983,
        "lat": 23.0122064,
        "lon": 72.5062163,
        "tags": {
          "amenity": "cafe",
          "name": "In-Garden Cafe",
          "outdoor_seating": "yes"
        }
      },
      {
        "type": "node",
        "id": 9006994317,
        "lat": 23.0116205,
        "lon": 72.5052184,
        "tags": {
          "addr:city": "Ahmedabad",
          "addr:housenumber": "GF7-8",
          "addr:postcode": "380015",
          "addr:street": "Opp Prahladnagar Garden",
          "air_conditioning": "yes",
          "amenity": "restaurant",
          "cuisine": "pizza",
          "delivery": "yes",
          "name": "La Milano Pizzeria Prahladnagar",
          "opening_hours": "Mo-Su 10:00-22:00",
          "phone": "+916359149090"
        }
      },
      {
        "type": "node",
        "id": 12590599051,
        "lat": 23.0124903,
        "lon": 72.5033515,
        "tags": {
          "addr:city": "Ahmedabad, Prahladnagar",
          "addr:postcode": "380015",
          "addr:street": "Service road - Sarkhej Gandhinagar Highway",
          "amenity": "cafe",
          "check_date": "2025-02-15",
          "currency:XBT": "yes",
          "name": "The dark roast",
          "payment:lightning": "no",
          "payment:lightning_contactless": "no",
          "payment:onchain": "yes"
        }
      }
    ]
  },
  "pois_2_5km": {
    "version": 0.6,
    "generator": "Overpass API 0.7.62.8 e802775f",
    "osm3s": {
      "timestamp_osm_base": "2025-09-07T12:13:19Z",
      "copyright": "The data included in this document is from www.openstreetmap.org. The data is made available under ODbL."
    },
    "elements": [
      {
        "type": "node",
        "id": 322983346,
        "lat": 23.0079064,
        "lon": 72.5174367,
        "tags": {
          "internet_access": "no",
          "name": "Vastrapur",
          "network": "IR",
          "operator": "WR",
          "public_transport": "station",
          "railway": "station",
          "ref": "VTP",
          "train": "yes",
          "wikidata": "Q63357815"
        }
      },
      {
        "type": "node",
        "id": 429790303,
        "lat": 23.0245953,
        "lon": 72.5072957,
        "tags": {
          "amenity": "cinema",
          "name": "Wide Angle"
        }
      },
      {
        "type": "node",
        "id": 4254423389,
        "lat": 23.0121167,
        "lon": 72.5124778,
        "tags": {
          "addr:postcode": "380015",
          "addr:street": "100 Ft. Road",
          "amenity": "fuel",
          "name": "Shell"
        }
      }
    ]
  }
}