{
  "pois_1km": {
    "version": 0.6,
    "generator": "Overpass API 0.7.62.8 e802775f",
    "osm3s": {
      "timestamp_osm_base": "2025-09-07T12:03:11Z",
      "copyright": "The data included in this document is from www.openstreetmap.org. The data is made available under ODbL."
    },
    "elements": [
      {
        "type": "node",
        "id": 7862753693,
        "lat": 22.9634073,
        "lon": 72.5912646,
        "tags": {
          "addr:district": "Ahmedabad",
          "addr:full": "Narolgam",
          "addr:postcode": "382405",
          "addr:state": "Gujarat",
          "amenity": "hospital",
          "name": "Jankalyan Janaseva Hospital",
          "source": "Local Knowledge"
        }
      },
      {
        "type": "node",
        "id": 7862753715,
        "lat": 22.9666916,
        "lon": 72.5893488,
        "tags": {
          "addr:district": "Ahmedabad",
          "addr:full": "Narolgam",
          "addr:postcode": "382405",
          "addr:state": "Gujarat",
          "amenity": "hospital",
          "name": "Shree Shakti General Hospital",
          "source": "Local Knowledge"
        }
      },
      {
        "type": "node",
        "id": 7862753729,
        "lat": 22.9646691,
        "lon": 72.5903719,
        "tags": {
          "addr:district": "Ahmedabad",
          "addr:full": "Narolgam",
          "addr:postcode": "382405",
          "addr:state": "Gujarat",
          "amenity": "hospital",
          "name": "Narol ICU and Multi Speciality Hospital",
          "source": "Local Knowledge"
        }
      },
      {
        "type": "node",
        "id": 7862753741,
        "lat": 22.9646606,
        "lon": 72.5934357,
        "tags": {
          "addr:district": "Ahmedabad",
          "addr:full": "Govindwadi, Narolgam",
          "addr:postcode": "382405",
          "addr:state": "Gujarat",
          "amenity": "hospital",
          "name": "Mediclaim Hospital",
          "source": "Local Knowledge"
        }
      },
      {
        "type": "node",
        "id": 7862753747,
        "lat": 22.96343,
        "lon": 72.589033,
        "tags": {
          "addr:district": "Ahmedabad",
          "addr:full": "Narolgam",
          "addr:postcode": "382405",
          "addr:state": "Gujarat",
          "amenity": "clinic",
          "name": "Diya Clinic",
          "source": "Local Knowledge"
        }
      },
      {
        "type": "node",
        "id": 7862753758,
        "lat": 22.9644685,
        "lon": 72.590532,
        "tags": {
          "addr:district": "Ahmedabad",
          "addr:full": "Narolgam",
          "addr:postcode": "382405",
          "addr:state": "Gujarat",
          "amenity": "hospital",
          "name": "Janani Women and Children Hospital",
          "source": "Local Knowledge"
        }
      },
      {
        "type": "node",
        "id": 7863727747,
        "lat": 22.9704828,
        "lon": 72.5931204,
        "tags": {
          "addr:district": "Ahmedabad",
          "addr:full": "Shankar Nagar Society",
          "addr:postcode": "382405",
          "addr:state": "Gujarat",
          "amenity": "hospital",
          "name": "Medicure Hospital",
          "source": "Local Knowledge"
        }
      },
      {
        "type": "node",
        "id": 7863727780,
        "lat": 22.972368,
        "lon": 72.5872561,
        "tags": {
          "addr:district": "Ahmedabad",
          "addr:full": "Narolgam",
          "addr:postcode": "380005",
          "addr:state": "Gujarat",
          "amenity": "hospital",
          "name": "Dr. K.B. Bhagatariya Hospital",
          "source": "Local Knowledge"
        }
      }
    ]
  },
  "pois_2_5km": {
    "version": 0.6,
    "generator": "Overpass API 0.7.62.8 e802775f",
    "osm3s": {
      "timestamp_osm_base": "2025-09-07T12:03:11Z",
      "copyright": "The data included in this document is from www.openstreetmap.org. The data is made available under ODbL."
    },
    "elements": []
  }
}